{
  "pins": [
    {
      "lat": 37.5149869390675,
      "lng": 127.03321879987563,
      "title": "롯데리아 학동역점",
      "description": "서울 강남구 학동로 219",
      "url": "http://place.map.kakao.com/21852012",
      "region": "서울특별시"
    },
    {
      "lat": 37.4923044874572,
      "lng": 127.087278128334,
      "title": "롯데리아 강남일원점",
      "description": "서울 강남구 양재대로55길 21",
      "url": "http://place.map.kakao.com/854574144",
      "region": "서울특별시"
    },
    {
      "lat": 37.49772165250337,
      "lng": 127.05347958596204,
      "title": "롯데리아 한티역점",
      "description": "서울 강남구 선릉로64길 14",
      "url": "http://place.map.kakao.com/955544033",
      "region": "서울특별시"
    },
    {
      "lat": 37.5263949745165,
      "lng": 127.02805949838925,
      "title": "롯데리아 압구정역점",
      "description": "서울 강남구 논현로175길 6",
      "url": "http://place.map.kakao.com/1117855806",
      "region": "서울특별시"
    },
    {
      "lat": 37.46566413612496,
      "lng": 127.1011135021255,
      "title": "롯데리아 세곡점",
      "description": "서울 강남구 헌릉로 569",
      "url": "http://place.map.kakao.com/24482180",
      "region": "서울특별시"
    },
    {
      "lat": 37.48540888672187,
      "lng": 127.1041918003633,
      "title": "롯데리아 수서역사점",
      "description": "서울 강남구 밤고개로 99",
      "url": "http://place.map.kakao.com/1397548639",
      "region": "서울특별시"
    },
    {
      "lat": 37.48271646823365,
      "lng": 127.03638159380071,
      "title": "롯데리아 양재역점",
      "description": "서울 서초구 강남대로 206",
      "url": "http://place.map.kakao.com/1540627030",
      "region": "서울특별시"
    },
    {
      "lat": 37.495277932335,
      "lng": 127.027860135405,
      "title": "롯데리아 강남역SELECT점",
      "description": "서울 서초구 서초대로78길 28",
      "url": "http://place.map.kakao.com/1870572055",
      "region": "서울특별시"
    },
    {
      "lat": 37.46987975118286,
      "lng": 127.0419167993865,
      "title": "롯데리아 양재동점",
      "description": "서울 서초구 동산로 22",
      "url": "http://place.map.kakao.com/1811136752",
      "region": "서울특별시"
    },
    {
      "lat": 37.5023757409859,
      "lng": 127.094554955251,
      "title": "롯데리아 송파삼전점",
      "description": "서울 송파구 백제고분로 254",
      "url": "http://place.map.kakao.com/17706071",
      "region": "서울특별시"
    },
    {
      "lat": 37.485149213958,
      "lng": 127.015928911667,
      "title": "롯데리아 남부터미널점",
      "description": "서울 서초구 효령로 289",
      "url": "http://place.map.kakao.com/7860341",
      "region": "서울특별시"
    },
    {
      "lat": 37.5111040242511,
      "lng": 127.09757119988302,
      "title": "롯데리아 언더랜드점",
      "description": "서울 송파구 올림픽로 240",
      "url": "http://place.map.kakao.com/21555033",
      "region": "서울특별시"
    },
    {
      "lat": 37.5120348472726,
      "lng": 127.098553055631,
      "title": "롯데리아 롯데백잠실광장점",
      "description": "서울 송파구 올림픽로 240",
      "url": "http://place.map.kakao.com/24662859",
      "region": "서울특별시"
    },
    {
      "lat": 37.5021166054215,
      "lng": 127.011368089614,
      "title": "롯데리아 서초중앙로점",
      "description": "서울 서초구 서초중앙로 229",
      "url": "http://place.map.kakao.com/1960665343",
      "region": "서울특별시"
    },
    {
      "lat": 37.503390647054495,
      "lng": 127.11356405912018,
      "title": "롯데리아 송파점",
      "description": "서울 송파구 가락로 164",
      "url": "http://place.map.kakao.com/14925735",
      "region": "서울특별시"
    },
    {
      "lat": 37.5323836665294,
      "lng": 127.066842221734,
      "title": "롯데리아 뚝섬유원지점",
      "description": "서울 광진구 능동로 7",
      "url": "http://place.map.kakao.com/17942491",
      "region": "서울특별시"
    },
    {
      "lat": 37.51358167944662,
      "lng": 127.10402961673378,
      "title": "롯데리아 잠실롯데월드몰B1점",
      "description": "서울 송파구 올림픽로 300",
      "url": "http://place.map.kakao.com/1995743642",
      "region": "서울특별시"
    },
    {
      "lat": 37.5137129854214,
      "lng": 127.104302394716,
      "title": "롯데리아 롯데월드몰점",
      "description": "서울 송파구 올림픽로 300",
      "url": "http://place.map.kakao.com/241358479",
      "region": "서울특별시"
    },
    {
      "lat": 37.53850319884627,
      "lng": 127.07303460140031,
      "title": "롯데리아 건대스타시티점",
      "description": "서울 광진구 아차산로 272",
      "url": "http://place.map.kakao.com/10354562",
      "region": "서울특별시"
    },
    {
      "lat": 37.5364811825425,
      "lng": 127.084125332041,
      "title": "롯데리아 구의역점",
      "description": "서울 광진구 아차산로 370",
      "url": "http://place.map.kakao.com/21827042",
      "region": "서울특별시"
    },
    {
      "lat": 37.516971563801,
      "lng": 127.112537190006,
      "title": "롯데리아 몽촌토성역점",
      "description": "서울 송파구 백제고분로51길 30",
      "url": "http://place.map.kakao.com/1430867710",
      "region": "서울특별시"
    },
    {
      "lat": 37.5412004515199,
      "lng": 127.067552764613,
      "title": "롯데리아 건대입구역점",
      "description": "서울 광진구 아차산로 215",
      "url": "http://place.map.kakao.com/1074036760",
      "region": "서울특별시"
    },
    {
      "lat": 37.447355832434674,
      "lng": 127.05596497330245,
      "title": "롯데리아 청계산입구역점",
      "description": "서울 서초구 청계산로 201",
      "url": "http://place.map.kakao.com/1117853757",
      "region": "서울특별시"
    },
    {
      "lat": 37.491862667737955,
      "lng": 127.11776438613846,
      "title": "롯데리아 롯데마트송파점",
      "description": "서울 송파구 중대로 80",
      "url": "http://place.map.kakao.com/22643199",
      "region": "서울특별시"
    },
    {
      "lat": 37.4830130558721,
      "lng": 126.996942749076,
      "title": "롯데리아 방배역점",
      "description": "서울 서초구 방배로 96",
      "url": "http://place.map.kakao.com/1119303357",
      "region": "서울특별시"
    },
    {
      "lat": 37.54507100339226,
      "lng": 127.05761988349238,
      "title": "롯데리아 성수역점",
      "description": "서울 성동구 성수이로 118",
      "url": "http://place.map.kakao.com/13495431",
      "region": "서울특별시"
    },
    {
      "lat": 37.4815511650096,
      "lng": 127.122558978252,
      "title": "롯데리아 송파하비오점",
      "description": "서울 송파구 송파대로 111",
      "url": "http://place.map.kakao.com/1558622633",
      "region": "서울특별시"
    },
    {
      "lat": 37.4910515109082,
      "lng": 127.125871797026,
      "title": "롯데리아 문정로데오점",
      "description": "서울 송파구 동남로 134",
      "url": "http://place.map.kakao.com/20419131",
      "region": "서울특별시"
    },
    {
      "lat": 37.50975777246234,
      "lng": 127.12370558585188,
      "title": "롯데리아 방이역점",
      "description": "서울 송파구 마천로 23",
      "url": "http://place.map.kakao.com/24073918",
      "region": "서울특별시"
    },
    {
      "lat": 37.535730039907506,
      "lng": 127.09558366384091,
      "title": "롯데리아 강변씨네마점",
      "description": "서울 광진구 광나루로56길 85",
      "url": "http://place.map.kakao.com/1692279075",
      "region": "서울특별시"
    },
    {
      "lat": 37.4778933109058,
      "lng": 127.125759278982,
      "title": "롯데리아 가든파이브점",
      "description": "서울 송파구 충민로 66",
      "url": "http://place.map.kakao.com/23120026",
      "region": "서울특별시"
    },
    {
      "lat": 37.488370913238,
      "lng": 126.981944649045,
      "title": "롯데리아 이수역점",
      "description": "서울 동작구 동작대로 129",
      "url": "http://place.map.kakao.com/319710342",
      "region": "서울특별시"
    },
    {
      "lat": 37.4470088606438,
      "lng": 127.013020990063,
      "title": "롯데리아 과천렛츠런파크점",
      "description": "경기 과천시 경마공원대로 107",
      "url": "http://place.map.kakao.com/761052761",
      "region": "경기도"
    },
    {
      "lat": 37.50341060249948,
      "lng": 127.1379801028468,
      "title": "롯데리아 오금점",
      "description": "서울 송파구 동남로 313",
      "url": "http://place.map.kakao.com/24407399",
      "region": "서울특별시"
    },
    {
      "lat": 37.5313853284036,
      "lng": 127.121201373017,
      "title": "롯데리아 강동구청DT점",
      "description": "서울 강동구 올림픽로 556",
      "url": "http://place.map.kakao.com/25642163",
      "region": "서울특별시"
    },
    {
      "lat": 37.513961041781,
      "lng": 127.105002894755,
      "title": "버거랩바이롯데리아",
      "description": "서울 송파구 올림픽로 300",
      "url": "http://place.map.kakao.com/999080464",
      "region": "서울특별시"
    },
    {
      "lat": 37.5343673877606,
      "lng": 127.136308315839,
      "title": "롯데리아 길동점",
      "description": "서울 강동구 천호대로 1124",
      "url": "http://place.map.kakao.com/17941537",
      "region": "서울특별시"
    },
    {
      "lat": 37.5397617070131,
      "lng": 127.124016513749,
      "title": "롯데리아 천호역점",
      "description": "서울 강동구 올림픽로 654",
      "url": "http://place.map.kakao.com/21553808",
      "region": "서울특별시"
    },
    {
      "lat": 37.550232258734574,
      "lng": 127.17273684198634,
      "title": "롯데리아 상일동점",
      "description": "서울 강동구 상일로 33",
      "url": "http://place.map.kakao.com/24073440",
      "region": "서울특별시"
    },
    {
      "lat": 37.5532117578699,
      "lng": 127.154608248775,
      "title": "롯데리아 고덕역점",
      "description": "서울 강동구 동남로73길 26",
      "url": "http://place.map.kakao.com/11829504",
      "region": "서울특별시"
    },
    {
      "lat": 37.5657854416547,
      "lng": 127.173224372893,
      "title": "롯데리아 강일점",
      "description": "서울 강동구 아리수로93길 33-9",
      "url": "http://place.map.kakao.com/17135852",
      "region": "서울특별시"
    },
    {
      "lat": 37.551682651197225,
      "lng": 127.12838868933342,
      "title": "롯데리아 암사역점",
      "description": "서울 강동구 올림픽로 792",
      "url": "http://place.map.kakao.com/14548361",
      "region": "서울특별시"
    },
    {
      "lat": 37.54566402201064,
      "lng": 127.14249488763942,
      "title": "롯데리아 홈플러스강동점",
      "description": "서울 강동구 양재대로 1571",
      "url": "http://place.map.kakao.com/21325602",
      "region": "서울특별시"
    },
    {
      "lat": 37.6370918764591,
      "lng": 127.02432488286,
      "title": "롯데리아 수유역점",
      "description": "서울 강북구 도봉로 323",
      "url": "http://place.map.kakao.com/1458445355",
      "region": "서울특별시"
    },
    {
      "lat": 37.6200173326419,
      "lng": 127.01916321548758,
      "title": "롯데리아 삼양사거리점",
      "description": "서울 강북구 솔샘로 237",
      "url": "http://place.map.kakao.com/27058516",
      "region": "서울특별시"
    },
    {
      "lat": 37.625003663424,
      "lng": 127.027010180182,
      "title": "롯데리아 미아역점",
      "description": "서울 강북구 도봉로 182",
      "url": "http://place.map.kakao.com/1898306705",
      "region": "서울특별시"
    },
    {
      "lat": 37.6355635314939,
      "lng": 127.032887202256,
      "title": "롯데리아 번동점",
      "description": "서울 강북구 한천로 963",
      "url": "http://place.map.kakao.com/1012007836",
      "region": "서울특별시"
    },
    {
      "lat": 37.6485000178543,
      "lng": 127.01396940009,
      "title": "롯데리아 덕성여대점",
      "description": "서울 강북구 삼양로 507",
      "url": "http://place.map.kakao.com/23524222",
      "region": "서울특별시"
    },
    {
      "lat": 37.6486109585401,
      "lng": 127.035068594357,
      "title": "롯데리아 쌍문역점",
      "description": "서울 도봉구 도봉로 484",
      "url": "http://place.map.kakao.com/10355937",
      "region": "서울특별시"
    },
    {
      "lat": 37.6524488561843,
      "lng": 127.046352578094,
      "title": "롯데리아 창동역점",
      "description": "서울 도봉구 노해로63길 78",
      "url": "http://place.map.kakao.com/19410457",
      "region": "서울특별시"
    },
    {
      "lat": 37.662110135297006,
      "lng": 127.03277424143549,
      "title": "롯데리아 방학점",
      "description": "서울 도봉구 방학로 173",
      "url": "http://place.map.kakao.com/14549052",
      "region": "서울특별시"
    },
    {
      "lat": 37.6312510547502,
      "lng": 127.057380477046,
      "title": "롯데리아 월계역점",
      "description": "서울 노원구 초안산로2라길 20",
      "url": "http://place.map.kakao.com/480845319",
      "region": "서울특별시"
    },
    {
      "lat": 37.664859135484896,
      "lng": 127.04357894885392,
      "title": "롯데리아 홈플러스방학점",
      "description": "서울 도봉구 도봉로 678",
      "url": "http://place.map.kakao.com/22429277",
      "region": "서울특별시"
    },
    {
      "lat": 37.6558112164762,
      "lng": 127.062242903876,
      "title": "롯데리아 노원역점",
      "description": "서울 노원구 상계로 64",
      "url": "http://place.map.kakao.com/7856268",
      "region": "서울특별시"
    },
    {
      "lat": 37.6070874022704,
      "lng": 127.010817788423,
      "title": "롯데리아 정릉점",
      "description": "서울 성북구 보국문로8길 4",
      "url": "http://place.map.kakao.com/13078162",
      "region": "서울특별시"
    },
    {
      "lat": 37.60451254002928,
      "lng": 127.02242643204737,
      "title": "롯데리아 길음뉴타운점",
      "description": "서울 성북구 길음로7길 6",
      "url": "http://place.map.kakao.com/20010777",
      "region": "서울특별시"
    },
    {
      "lat": 37.6100867647852,
      "lng": 127.057570339226,
      "title": "롯데리아 석관점",
      "description": "서울 성북구 돌곶이로 75",
      "url": "http://place.map.kakao.com/7857740",
      "region": "서울특별시"
    },
    {
      "lat": 37.614903664548635,
      "lng": 127.06414446190392,
      "title": "롯데리아 석계점",
      "description": "서울 노원구 화랑로 325",
      "url": "http://place.map.kakao.com/7857648",
      "region": "서울특별시"
    },
    {
      "lat": 37.6263492277623,
      "lng": 127.074348431068,
      "title": "롯데리아 공릉역점",
      "description": "서울 노원구 동일로192길 27",
      "url": "http://place.map.kakao.com/12719942",
      "region": "서울특별시"
    },
    {
      "lat": 37.6642101411062,
      "lng": 127.065613796167,
      "title": "롯데리아 GS마트상계점",
      "description": "서울 노원구 한글비석로 471",
      "url": "http://place.map.kakao.com/7863906",
      "region": "서울특별시"
    },
    {
      "lat": 37.5936617968203,
      "lng": 127.017777299151,
      "title": "롯데리아 성신여대점",
      "description": "서울 성북구 동소문로 117",
      "url": "http://place.map.kakao.com/10361910",
      "region": "서울특별시"
    },
    {
      "lat": 37.60198271535082,
      "lng": 127.04044502780681,
      "title": "롯데리아 홈플러스월곡점",
      "description": "서울 성북구 화랑로 76",
      "url": "http://place.map.kakao.com/12817214",
      "region": "서울특별시"
    },
    {
      "lat": 37.598435168590555,
      "lng": 127.03443580862769,
      "title": "롯데리아 종암점",
      "description": "서울 성북구 종암로 91",
      "url": "http://place.map.kakao.com/20010779",
      "region": "서울특별시"
    },
    {
      "lat": 37.6584353114807,
      "lng": 127.073972429613,
      "title": "롯데리아 상계점",
      "description": "서울 노원구 한글비석로 369",
      "url": "http://place.map.kakao.com/14600358",
      "region": "서울특별시"
    },
    {
      "lat": 37.6771929943653,
      "lng": 127.055613447911,
      "title": "롯데리아 수락산역점",
      "description": "서울 노원구 동일로 1668",
      "url": "http://place.map.kakao.com/17280225",
      "region": "서울특별시"
    },
    {
      "lat": 37.6124806618375,
      "lng": 127.078013297347,
      "title": "롯데리아 먹골역점",
      "description": "서울 중랑구 공릉로 18",
      "url": "http://place.map.kakao.com/1630524566",
      "region": "서울특별시"
    },
    {
      "lat": 37.5963179531321,
      "lng": 127.06091941844001,
      "title": "롯데리아 외대역점",
      "description": "서울 동대문구 휘경로 5-1",
      "url": "http://place.map.kakao.com/26849339",
      "region": "서울특별시"
    },
    {
      "lat": 37.5883939361365,
      "lng": 127.006820567047,
      "title": "롯데리아 한성대입구역점",
      "description": "서울 성북구 동소문로 2",
      "url": "http://place.map.kakao.com/17371329",
      "region": "서울특별시"
    },
    {
      "lat": 37.5857884602544,
      "lng": 127.0006430855,
      "title": "롯데리아 혜화점",
      "description": "서울 종로구 창경궁로 273",
      "url": "http://place.map.kakao.com/10356756",
      "region": "서울특별시"
    },
    {
      "lat": 37.601986620360286,
      "lng": 127.07968627312566,
      "title": "롯데리아 중화역점",
      "description": "서울 중랑구 동일로 802",
      "url": "http://place.map.kakao.com/375048426",
      "region": "서울특별시"
    },
    {
      "lat": 37.5809033812147,
      "lng": 127.045850810247,
      "title": "롯데리아 청량리점",
      "description": "서울 동대문구 왕산로 209",
      "url": "http://place.map.kakao.com/7859081",
      "region": "서울특별시"
    },
    {
      "lat": 37.5932541157008,
      "lng": 127.074315493842,
      "title": "롯데리아 중랑역점",
      "description": "서울 중랑구 망우로 192",
      "url": "http://place.map.kakao.com/17962357",
      "region": "서울특별시"
    },
    {
      "lat": 37.58065011723611,
      "lng": 127.04832206169196,
      "title": "롯데리아 청량리역사점",
      "description": "서울 동대문구 왕산로 214",
      "url": "http://place.map.kakao.com/17135871",
      "region": "서울특별시"
    },
    {
      "lat": 37.5778911587913,
      "lng": 127.032952386089,
      "title": "롯데리아 제기역점",
      "description": "서울 동대문구 왕산로 86",
      "url": "http://place.map.kakao.com/150229900",
      "region": "서울특별시"
    },
    {
      "lat": 37.6160498508608,
      "lng": 127.093606836257,
      "title": "롯데리아 홈플러스신내점",
      "description": "서울 중랑구 신내로 201",
      "url": "http://place.map.kakao.com/10352281",
      "region": "서울특별시"
    },
    {
      "lat": 37.5956947155126,
      "lng": 127.083997185298,
      "title": "롯데리아 상봉역점",
      "description": "서울 중랑구 망우로 282-1",
      "url": "http://place.map.kakao.com/17135833",
      "region": "서울특별시"
    },
    {
      "lat": 37.572607761011,
      "lng": 127.0150600377,
      "title": "롯데리아 동묘역점",
      "description": "서울 종로구 종로 336",
      "url": "http://place.map.kakao.com/17942549",
      "region": "서울특별시"
    },
    {
      "lat": 37.59790309278666,
      "lng": 127.0900420260414,
      "title": "롯데리아 홈플러스 상봉점",
      "description": "서울 중랑구 망우로 353",
      "url": "http://place.map.kakao.com/22645300",
      "region": "서울특별시"
    },
    {
      "lat": 37.5708387228462,
      "lng": 127.010242032346,
      "title": "롯데리아 동대문광장점",
      "description": "서울 종로구 종로 286",
      "url": "http://place.map.kakao.com/10355248",
      "region": "서울특별시"
    },
    {
      "lat": 37.5890322446018,
      "lng": 127.087223379478,
      "title": "롯데리아 면목중앙점",
      "description": "서울 중랑구 면목로 415",
      "url": "http://place.map.kakao.com/7856782",
      "region": "서울특별시"
    },
    {
      "lat": 37.6502095256013,
      "lng": 127.112501103631,
      "title": "롯데리아 별내점",
      "description": "경기 남양주시 별내5로5번길 11",
      "url": "http://place.map.kakao.com/20010760",
      "region": "경기도"
    },
    {
      "lat": 37.5984216398411,
      "lng": 127.034483362526,
      "title": "롯데리아 종암점 개방화장실",
      "description": "서울 성북구 종암로 91",
      "url": "http://place.map.kakao.com/1507453375",
      "region": "서울특별시"
    },
    {
      "lat": 37.593661796820264,
      "lng": 127.01777729915109,
      "title": "롯데리아 성신여대점 개방화장실",
      "description": "서울 성북구 동소문로 117",
      "url": "http://place.map.kakao.com/26868991",
      "region": "서울특별시"
    },
    {
      "lat": 37.53093478536861,
      "lng": 126.84694698282338,
      "title": "롯데리아 까치산역점",
      "description": "서울 강서구 강서로 35",
      "url": "http://place.map.kakao.com/21325594",
      "region": "서울특별시"
    },
    {
      "lat": 37.5415445949643,
      "lng": 126.839215104231,
      "title": "롯데리아 화곡역점",
      "description": "서울 강서구 화곡로 157",
      "url": "http://place.map.kakao.com/1984292222",
      "region": "서울특별시"
    },
    {
      "lat": 37.56699628102237,
      "lng": 126.81890493839664,
      "title": "롯데리아 신방화역점",
      "description": "서울 강서구 마곡중앙5로 81",
      "url": "http://place.map.kakao.com/26924412",
      "region": "서울특별시"
    },
    {
      "lat": 37.5532705794736,
      "lng": 126.851201775671,
      "title": "롯데리아 강서구청점",
      "description": "서울 강서구 화곡로 330",
      "url": "http://place.map.kakao.com/1209181039",
      "region": "서울특별시"
    },
    {
      "lat": 37.5589580536937,
      "lng": 126.802874550192,
      "title": "롯데리아 신김포공항점",
      "description": "서울 강서구 하늘길 112",
      "url": "http://place.map.kakao.com/18513313",
      "region": "서울특별시"
    },
    {
      "lat": 37.55938045949591,
      "lng": 126.84020218942791,
      "title": "롯데리아 발산역점",
      "description": "서울 강서구 강서로56길 24",
      "url": "http://place.map.kakao.com/14490394",
      "region": "서울특별시"
    },
    {
      "lat": 37.5498951524431,
      "lng": 126.867604944811,
      "title": "롯데리아 등촌역점",
      "description": "서울 강서구 공항대로 553",
      "url": "http://place.map.kakao.com/343753046",
      "region": "서울특별시"
    },
    {
      "lat": 37.55843504991486,
      "lng": 126.82489578568428,
      "title": "롯데리아 마곡역점",
      "description": "서울 강서구 마곡중앙1로 20",
      "url": "http://place.map.kakao.com/34199271",
      "region": "서울특별시"
    },
    {
      "lat": 37.55859303294747,
      "lng": 126.80280420971407,
      "title": "롯데리아 김포국제공항국내선청사4층점",
      "description": "서울 강서구 하늘길 112",
      "url": "http://place.map.kakao.com/96174202",
      "region": "서울특별시"
    },
    {
      "lat": 37.5345293117754,
      "lng": 126.837822684664,
      "title": "롯데리아 화곡시장점",
      "description": "서울 강서구 가로공원로76길 56",
      "url": "http://place.map.kakao.com/16593910",
      "region": "서울특별시"
    },
    {
      "lat": 37.55866443498299,
      "lng": 126.8034785627281,
      "title": "롯데리아 김포국제공항국내선",
      "description": "서울 강서구 하늘길 112",
      "url": "http://place.map.kakao.com/438374481",
      "region": "서울특별시"
    },
    {
      "lat": 37.57376855280898,
      "lng": 126.81167424542778,
      "title": "롯데리아 방화점",
      "description": "서울 강서구 양천로 73",
      "url": "http://place.map.kakao.com/13017079",
      "region": "서울특별시"
    },
    {
      "lat": 37.56030295020812,
      "lng": 126.8402398324898,
      "title": "롯데리아 NC강서점",
      "description": "서울 강서구 강서로56길 17",
      "url": "http://place.map.kakao.com/16073862",
      "region": "서울특별시"
    },
    {
      "lat": 37.5325406322893,
      "lng": 126.864102307953,
      "title": "롯데리아 목동사거리점",
      "description": "서울 양천구 등촌로 28",
      "url": "http://place.map.kakao.com/7857563",
      "region": "서울특별시"
    },
    {
      "lat": 37.5214517418304,
      "lng": 126.85406136071,
      "title": "롯데리아 신정네거리역점",
      "description": "서울 양천구 신월로 297",
      "url": "http://place.map.kakao.com/1044940120",
      "region": "서울특별시"
    },
    {
      "lat": 37.5292885262818,
      "lng": 126.876027980041,
      "title": "롯데리아 목동킴스클럽점",
      "description": "서울 양천구 목동동로 309",
      "url": "http://place.map.kakao.com/1541062277",
      "region": "서울특별시"
    },
    {
      "lat": 37.51905862867899,
      "lng": 126.84278812957,
      "title": "롯데리아 신곡시장점",
      "description": "서울 양천구 신월로 177",
      "url": "http://place.map.kakao.com/8318022",
      "region": "서울특별시"
    },
    {
      "lat": 37.5799823353954,
      "lng": 126.87107592708576,
      "title": "롯데리아 고양덕은점",
      "description": "경기 고양시 덕양구 으뜸로 138",
      "url": "http://place.map.kakao.com/1630425720",
      "region": "경기도"
    },
    {
      "lat": 37.52128354111716,
      "lng": 126.8738670274396,
      "title": "롯데리아 목동점",
      "description": "서울 양천구 신목로 72",
      "url": "http://place.map.kakao.com/18775188",
      "region": "서울특별시"
    },
    {
      "lat": 37.52770743936955,
      "lng": 126.81545442674374,
      "title": "롯데리아 부천고강점",
      "description": "경기 부천시 오정구 역곡로481번길 9",
      "url": "http://place.map.kakao.com/11078199",
      "region": "경기도"
    },
    {
      "lat": 37.56733940013502,
      "lng": 126.89652048375117,
      "title": "롯데리아 홈플러스월드컵점",
      "description": "서울 마포구 월드컵로 240",
      "url": "http://place.map.kakao.com/377780989",
      "region": "서울특별시"
    },
    {
      "lat": 37.5803770623186,
      "lng": 126.888890132392,
      "title": "롯데리아 상암점",
      "description": "서울 마포구 월드컵북로 402",
      "url": "http://place.map.kakao.com/14526327",
      "region": "서울특별시"
    },
    {
      "lat": 37.52341919693,
      "lng": 126.80512198947,
      "title": "롯데리아 부천원종점",
      "description": "경기 부천시 오정구 소사로 756",
      "url": "http://place.map.kakao.com/8318016",
      "region": "경기도"
    },
    {
      "lat": 37.5563165352104,
      "lng": 126.909596080594,
      "title": "롯데리아 망원점",
      "description": "서울 마포구 월드컵로 85",
      "url": "http://place.map.kakao.com/25550532",
      "region": "서울특별시"
    },
    {
      "lat": 37.5260656204487,
      "lng": 126.891571567578,
      "title": "롯데리아 롯데마트서울양평점",
      "description": "서울 영등포구 선유로 138",
      "url": "http://place.map.kakao.com/2043071271",
      "region": "서울특별시"
    },
    {
      "lat": 37.50919432864742,
      "lng": 126.88770295575736,
      "title": "롯데리아 신도림역점",
      "description": "서울 구로구 경인로 661",
      "url": "http://place.map.kakao.com/11737193",
      "region": "서울특별시"
    },
    {
      "lat": 37.5186033019058,
      "lng": 126.895325428865,
      "title": "롯데리아 홈플러스 영등포점",
      "description": "서울 영등포구 당산로 42",
      "url": "http://place.map.kakao.com/17942533",
      "region": "서울특별시"
    },
    {
      "lat": 37.5006370799348,
      "lng": 126.866526002808,
      "title": "롯데리아 개봉점",
      "description": "서울 구로구 경인로47길 26",
      "url": "http://place.map.kakao.com/22580971",
      "region": "서울특별시"
    },
    {
      "lat": 37.55579909414032,
      "lng": 126.92184211724226,
      "title": "롯데리아 홍대점",
      "description": "서울 마포구 양화로 141",
      "url": "http://place.map.kakao.com/1747184802",
      "region": "서울특별시"
    },
    {
      "lat": 37.49525514111612,
      "lng": 126.84357307519028,
      "title": "롯데리아 오류동역점",
      "description": "서울 구로구 경인로20길 10",
      "url": "http://place.map.kakao.com/12127728",
      "region": "서울특별시"
    },
    {
      "lat": 37.5297941914248,
      "lng": 126.786098825678,
      "title": "롯데리아 부천오정점",
      "description": "경기 부천시 오정구 오정로 249",
      "url": "http://place.map.kakao.com/25478856",
      "region": "경기도"
    },
    {
      "lat": 37.51693365625491,
      "lng": 126.90259653894041,
      "title": "롯데리아 영등포타임스퀘어B2점",
      "description": "서울 영등포구 영중로 15",
      "url": "http://place.map.kakao.com/20012035",
      "region": "서울특별시"
    },
    {
      "lat": 37.5707697276921,
      "lng": 126.913625388855,
      "title": "롯데리아 가좌역점",
      "description": "서울 서대문구 수색로6길 8",
      "url": "http://place.map.kakao.com/1108779714",
      "region": "서울특별시"
    },
    {
      "lat": 37.4948145292617,
      "lng": 126.85856636621817,
      "title": "롯데리아 개봉역점",
      "description": "서울 구로구 개봉동 182-4",
      "url": "http://place.map.kakao.com/8341764",
      "region": "서울특별시"
    },
    {
      "lat": 37.51566821406192,
      "lng": 126.9076656559073,
      "title": "롯데리아 영등포역사역",
      "description": "서울 영등포구 경인로 846",
      "url": "http://place.map.kakao.com/719596455",
      "region": "서울특별시"
    },
    {
      "lat": 37.5278167643562,
      "lng": 126.904683242843,
      "title": "롯데리아 롯데마트맥스영등포점",
      "description": "서울 영등포구 영중로 125",
      "url": "http://place.map.kakao.com/878990759",
      "region": "서울특별시"
    },
    {
      "lat": 37.51995246158333,
      "lng": 126.7895544448883,
      "title": "롯데리아 부천도당점",
      "description": "경기 부천시 원미구 삼작로 252",
      "url": "http://place.map.kakao.com/25493067",
      "region": "경기도"
    },
    {
      "lat": 37.6017331151356,
      "lng": 126.891630577134,
      "title": "롯데리아 DMC향동점",
      "description": "경기 고양시 덕양구 꽃마을로 45",
      "url": "http://place.map.kakao.com/1199189299",
      "region": "경기도"
    },
    {
      "lat": 37.5582541923167,
      "lng": 126.928775075002,
      "title": "롯데리아 창천점",
      "description": "서울 서대문구 신촌로 15",
      "url": "http://place.map.kakao.com/888517228",
      "region": "서울특별시"
    },
    {
      "lat": 37.58787439073275,
      "lng": 126.91640335305749,
      "title": "롯데리아 응암오거리점",
      "description": "서울 은평구 응암로 177",
      "url": "http://place.map.kakao.com/7858170",
      "region": "서울특별시"
    },
    {
      "lat": 37.486784129857,
      "lng": 126.838405368642,
      "title": "롯데리아 천왕역점",
      "description": "서울 구로구 오리로 1149",
      "url": "http://place.map.kakao.com/27288849",
      "region": "서울특별시"
    },
    {
      "lat": 37.5796013791561,
      "lng": 126.924276161877,
      "title": "롯데리아 명지대학점",
      "description": "서울 서대문구 거북골로 31",
      "url": "http://place.map.kakao.com/17941664",
      "region": "서울특별시"
    },
    {
      "lat": 37.6146149280315,
      "lng": 126.83385234523266,
      "title": "롯데리아 고양행신역점",
      "description": "경기 고양시 덕양구 무원로6번길 50",
      "url": "http://place.map.kakao.com/11731801",
      "region": "경기도"
    },
    {
      "lat": 37.4856953619287,
      "lng": 126.866237129994,
      "title": "롯데리아 광명철산점",
      "description": "경기 광명시 시청로 106",
      "url": "http://place.map.kakao.com/884759632",
      "region": "경기도"
    },
    {
      "lat": 37.4897857397185,
      "lng": 126.891534701459,
      "title": "롯데리아 구로시장점",
      "description": "서울 구로구 도림로 73",
      "url": "http://place.map.kakao.com/17941542",
      "region": "서울특별시"
    },
    {
      "lat": 37.4842888118053,
      "lng": 126.903075369205,
      "title": "롯데리아 구로디지털역점",
      "description": "서울 관악구 시흥대로 578",
      "url": "http://place.map.kakao.com/17124942",
      "region": "서울특별시"
    },
    {
      "lat": 37.4839037700014,
      "lng": 126.929311544328,
      "title": "롯데리아 신림역점",
      "description": "서울 관악구 남부순환로 1610",
      "url": "http://place.map.kakao.com/11078202",
      "region": "서울특별시"
    },
    {
      "lat": 37.480055318702505,
      "lng": 126.95218372307559,
      "title": "롯데리아 서울대입구역점",
      "description": "서울 관악구 관악로 165",
      "url": "http://place.map.kakao.com/26931496",
      "region": "서울특별시"
    },
    {
      "lat": 37.4822166252654,
      "lng": 126.941677680995,
      "title": "롯데리아 봉천역점",
      "description": "서울 관악구 남부순환로 1724",
      "url": "http://place.map.kakao.com/22425089",
      "region": "서울특별시"
    },
    {
      "lat": 37.47048170774607,
      "lng": 126.9344790428174,
      "title": "롯데리아 신림녹두점",
      "description": "서울 관악구 신림로23길 16",
      "url": "http://place.map.kakao.com/21656370",
      "region": "서울특별시"
    },
    {
      "lat": 37.4835018586207,
      "lng": 126.954936914446,
      "title": "롯데리아 봉천점",
      "description": "서울 관악구 관악로 212",
      "url": "http://place.map.kakao.com/7857340",
      "region": "서울특별시"
    },
    {
      "lat": 37.4743130087042,
      "lng": 126.917540676322,
      "title": "롯데리아 세이브마트점",
      "description": "서울 관악구 난곡로 220",
      "url": "http://place.map.kakao.com/20010813",
      "region": "서울특별시"
    },
    {
      "lat": 37.4591087446299,
      "lng": 126.952487545444,
      "title": "롯데리아 서울대점",
      "description": "서울 관악구 관악로 1",
      "url": "http://place.map.kakao.com/26477415",
      "region": "서울특별시"
    },
    {
      "lat": 37.4847321282517,
      "lng": 126.970448912724,
      "title": "롯데리아 남성역점",
      "description": "서울 동작구 사당로 200",
      "url": "http://place.map.kakao.com/1302657465",
      "region": "서울특별시"
    },
    {
      "lat": 37.49792878209975,
      "lng": 126.95261336621236,
      "title": "롯데리아 숭실대입구역점",
      "description": "서울 동작구 상도로 343",
      "url": "http://place.map.kakao.com/18618543",
      "region": "서울특별시"
    },
    {
      "lat": 37.4768741015398,
      "lng": 126.977093974376,
      "title": "롯데리아 사당역점",
      "description": "서울 동작구 남부순환로 2055",
      "url": "http://place.map.kakao.com/292993169",
      "region": "서울특별시"
    },
    {
      "lat": 37.4919766463006,
      "lng": 126.923288214094,
      "title": "롯데리아 보라매타운점",
      "description": "서울 동작구 보라매로5길 35",
      "url": "http://place.map.kakao.com/1040911227",
      "region": "서울특별시"
    },
    {
      "lat": 37.50007012152993,
      "lng": 126.9316598821208,
      "title": "롯데리아 성대시장점",
      "description": "서울 동작구 상도로 102",
      "url": "http://place.map.kakao.com/8318020",
      "region": "서울특별시"
    },
    {
      "lat": 37.5082854574892,
      "lng": 126.96146837065,
      "title": "롯데리아 중앙대점",
      "description": "서울 동작구 흑석로 110-1",
      "url": "http://place.map.kakao.com/13017108",
      "region": "서울특별시"
    },
    {
      "lat": 37.5130230096634,
      "lng": 126.940029468812,
      "title": "롯데리아 노량진점",
      "description": "서울 동작구 장승배기로 171",
      "url": "http://place.map.kakao.com/7857083",
      "region": "서울특별시"
    },
    {
      "lat": 37.5126787264297,
      "lng": 126.924180949329,
      "title": "롯데리아 대방역점",
      "description": "서울 영등포구 영등포로 416",
      "url": "http://place.map.kakao.com/17118813",
      "region": "서울특별시"
    },
    {
      "lat": 37.4587416016602,
      "lng": 126.905337251787,
      "title": "롯데리아 시흥현대시장점",
      "description": "서울 금천구 독산로 128",
      "url": "http://place.map.kakao.com/272518265",
      "region": "서울특별시"
    },
    {
      "lat": 37.4936265172508,
      "lng": 126.898386316238,
      "title": "롯데리아 대림역점",
      "description": "서울 영등포구 도림로 148",
      "url": "http://place.map.kakao.com/7864252",
      "region": "서울특별시"
    },
    {
      "lat": 37.528897667722376,
      "lng": 126.96420238256992,
      "title": "롯데리아 용산역사점",
      "description": "서울 용산구 한강대로23길 55",
      "url": "http://place.map.kakao.com/10361540",
      "region": "서울특별시"
    },
    {
      "lat": 37.4508370585508,
      "lng": 126.908828091919,
      "title": "롯데리아 시흥중앙점",
      "description": "서울 금천구 금하로 712",
      "url": "http://place.map.kakao.com/17941659",
      "region": "서울특별시"
    },
    {
      "lat": 37.4852868888892,
      "lng": 126.894385981289,
      "title": "롯데리아 구로IT점",
      "description": "서울 구로구 디지털로31길 20",
      "url": "http://place.map.kakao.com/17473252",
      "region": "서울특별시"
    },
    {
      "lat": 37.46907608186698,
      "lng": 126.89659391267506,
      "title": "롯데리아 홈플러스금천점",
      "description": "서울 금천구 시흥대로 391",
      "url": "http://place.map.kakao.com/7862726",
      "region": "서울특별시"
    },
    {
      "lat": 37.4807074082908,
      "lng": 126.885099985873,
      "title": "롯데리아 가산디지털단지점",
      "description": "서울 금천구 벚꽃로36길 30",
      "url": "http://place.map.kakao.com/736355118",
      "region": "서울특별시"
    },
    {
      "lat": 37.53004920808793,
      "lng": 126.96440208113724,
      "title": "롯데리아 용산역사ST점",
      "description": "서울 용산구 한강대로23길 55",
      "url": "http://place.map.kakao.com/17942379",
      "region": "서울특별시"
    },
    {
      "lat": 37.4754522465054,
      "lng": 126.881874728365,
      "title": "롯데리아 가산IT점",
      "description": "서울 금천구 디지털로 130",
      "url": "http://place.map.kakao.com/1644698443",
      "region": "서울특별시"
    },
    {
      "lat": 37.4505994619338,
      "lng": 126.890082555096,
      "title": "롯데리아 광명소하점",
      "description": "경기 광명시 금하로 522",
      "url": "http://place.map.kakao.com/1960225512",
      "region": "경기도"
    },
    {
      "lat": 37.4624188523755,
      "lng": 126.878928120504,
      "title": "롯데리아 광명하안점",
      "description": "경기 광명시 범안로 1045",
      "url": "http://place.map.kakao.com/14831607",
      "region": "경기도"
    },
    {
      "lat": 37.54353565389,
      "lng": 126.972113995765,
      "title": "롯데리아 숙대입구역점",
      "description": "서울 용산구 한강대로 283",
      "url": "http://place.map.kakao.com/8343273",
      "region": "서울특별시"
    },
    {
      "lat": 37.5474743302672,
      "lng": 126.94128739182,
      "title": "롯데리아 대흥역점",
      "description": "서울 마포구 대흥로 79",
      "url": "http://place.map.kakao.com/20012019",
      "region": "서울특별시"
    },
    {
      "lat": 37.5516783597554,
      "lng": 127.09019461507,
      "title": "롯데리아 아차산역점",
      "description": "서울 광진구 천호대로 665",
      "url": "http://place.map.kakao.com/8318023",
      "region": "서울특별시"
    },
    {
      "lat": 37.56542690771,
      "lng": 127.081178752679,
      "title": "롯데리아 중곡점",
      "description": "서울 광진구 면목로 136",
      "url": "http://place.map.kakao.com/14757513",
      "region": "서울특별시"
    },
    {
      "lat": 37.56190481705204,
      "lng": 127.06371643743368,
      "title": "롯데리아 장한평역점",
      "description": "서울 동대문구 천호대로 401",
      "url": "http://place.map.kakao.com/1262922237",
      "region": "서울특별시"
    },
    {
      "lat": 37.5652910025484,
      "lng": 127.054212641684,
      "title": "롯데리아 답십리점",
      "description": "서울 성동구 천호대로 308",
      "url": "http://place.map.kakao.com/20912949",
      "region": "서울특별시"
    },
    {
      "lat": 37.5726731148389,
      "lng": 127.072239337235,
      "title": "롯데리아 장안사거리점",
      "description": "서울 동대문구 답십리로 287",
      "url": "http://place.map.kakao.com/11280442",
      "region": "서울특별시"
    },
    {
      "lat": 37.5609400269841,
      "lng": 127.038273511647,
      "title": "롯데리아 왕십리역사점",
      "description": "서울 성동구 왕십리광장로 17",
      "url": "http://place.map.kakao.com/17001335",
      "region": "서울특별시"
    },
    {
      "lat": 37.5817657284958,
      "lng": 127.088446660404,
      "title": "롯데리아 사가정역점",
      "description": "서울 중랑구 면목로 333",
      "url": "http://place.map.kakao.com/12127735",
      "region": "서울특별시"
    },
    {
      "lat": 37.548410101863,
      "lng": 127.018490788105,
      "title": "롯데리아 금호점",
      "description": "서울 성동구 장터길 23",
      "url": "http://place.map.kakao.com/1600971706",
      "region": "서울특별시"
    },
    {
      "lat": 37.55672063011654,
      "lng": 127.02886309251004,
      "title": "롯데리아 롯데마트행당역점",
      "description": "서울 성동구 행당로 84",
      "url": "http://place.map.kakao.com/17942520",
      "region": "서울특별시"
    },
    {
      "lat": 37.5654928800013,
      "lng": 127.019319022393,
      "title": "롯데리아 신당역점",
      "description": "서울 중구 퇴계로 428-1",
      "url": "http://place.map.kakao.com/10362607",
      "region": "서울특별시"
    },
    {
      "lat": 37.5584551494403,
      "lng": 127.013087893248,
      "title": "롯데리아 청구역점",
      "description": "서울 중구 다산로 168",
      "url": "http://place.map.kakao.com/673308332",
      "region": "서울특별시"
    },
    {
      "lat": 37.4783567945063,
      "lng": 126.854174603142,
      "title": "롯데리아 광명점",
      "description": "경기 광명시 광명로 890",
      "url": "http://place.map.kakao.com/7860260",
      "region": "경기도"
    },
    {
      "lat": 37.46835783502102,
      "lng": 126.82285205316923,
      "title": "롯데리아 부천옥길점",
      "description": "경기 부천시 소사구 옥길로 129",
      "url": "http://place.map.kakao.com/1376267440",
      "region": "경기도"
    },
    {
      "lat": 37.48568580989435,
      "lng": 126.81051501360206,
      "title": "롯데리아 역곡역점",
      "description": "경기 부천시 원미구 부일로 727",
      "url": "http://place.map.kakao.com/13017056",
      "region": "경기도"
    },
    {
      "lat": 37.5325621468566,
      "lng": 126.864007232419,
      "title": "롯데리아 목동사거리점 개방화장실",
      "description": "서울 양천구 등촌로 28",
      "url": "http://place.map.kakao.com/26335890",
      "region": "서울특별시"
    },
    {
      "lat": 37.423888802823875,
      "lng": 126.88435197980532,
      "title": "롯데리아 롯데아울렛광명점",
      "description": "경기 광명시 일직로 17",
      "url": "http://place.map.kakao.com/26431809",
      "region": "경기도"
    },
    {
      "lat": 37.72540102469749,
      "lng": 127.04846926370672,
      "title": "롯데리아 의정부 회룡역점",
      "description": "경기 의정부시 평화로 374",
      "url": "http://place.map.kakao.com/11082890",
      "region": "경기도"
    },
    {
      "lat": 37.657777287934394,
      "lng": 127.12548862829364,
      "title": "롯데리아 별내신도시점",
      "description": "경기 남양주시 순화궁로 347",
      "url": "http://place.map.kakao.com/19697291",
      "region": "경기도"
    },
    {
      "lat": 37.7295989580034,
      "lng": 127.059591178277,
      "title": "롯데리아 의정부신곡점",
      "description": "경기 의정부시 동일로 462",
      "url": "http://place.map.kakao.com/12127754",
      "region": "경기도"
    },
    {
      "lat": 37.6328117182681,
      "lng": 127.117840309829,
      "title": "롯데리아 구리갈매점",
      "description": "경기 구리시 갈매중앙로 91",
      "url": "http://place.map.kakao.com/475169583",
      "region": "경기도"
    },
    {
      "lat": 37.708565879132,
      "lng": 127.118037272546,
      "title": "롯데리아 남양주청학점",
      "description": "경기 남양주시 별내면 청학로중앙길 15",
      "url": "http://place.map.kakao.com/7860343",
      "region": "경기도"
    },
    {
      "lat": 37.73872935843441,
      "lng": 127.04996417075057,
      "title": "롯데리아 의정부제일점",
      "description": "경기 의정부시 시민로131번길 16",
      "url": "http://place.map.kakao.com/8318705",
      "region": "경기도"
    },
    {
      "lat": 37.7379075918935,
      "lng": 127.038128458482,
      "title": "롯데리아 의정부시청점",
      "description": "경기 의정부시 시민로 24",
      "url": "http://place.map.kakao.com/22645450",
      "region": "경기도"
    },
    {
      "lat": 37.708659739079735,
      "lng": 127.11787865317721,
      "title": "KB국민은행 롯데리아 남양주청학점 ATM",
      "description": "경기 남양주시 별내면 청학로중앙길 15",
      "url": "http://place.map.kakao.com/1956672492",
      "region": "경기도"
    },
    {
      "lat": 37.566495308534726,
      "lng": 127.00612131905258,
      "title": "롯데리아 동대문역사문화공원역점",
      "description": "서울 중구 을지로 251",
      "url": "http://place.map.kakao.com/7856443",
      "region": "서울특별시"
    },
    {
      "lat": 37.56580304774062,
      "lng": 126.98210934296787,
      "title": "롯데리아 소공2호점",
      "description": "서울 중구 을지로1가 140-1",
      "url": "http://place.map.kakao.com/857085291",
      "region": "서울특별시"
    },
    {
      "lat": 37.5696683301646,
      "lng": 126.982179731242,
      "title": "롯데리아 영풍문고 종각종로본점",
      "description": "서울 종로구 청계천로 41",
      "url": "http://place.map.kakao.com/1923325829",
      "region": "서울특별시"
    },
    {
      "lat": 37.595711537226,
      "lng": 127.09945141786,
      "title": "롯데리아 망우점",
      "description": "서울 중랑구 봉우재로 239",
      "url": "http://place.map.kakao.com/14880510",
      "region": "서울특별시"
    },
    {
      "lat": 37.55066727805938,
      "lng": 126.97734187741938,
      "title": "롯데리아 후암점",
      "description": "서울 용산구 후암로 54",
      "url": "http://place.map.kakao.com/23346621",
      "region": "서울특별시"
    },
    {
      "lat": 37.55605250902828,
      "lng": 126.93906697378533,
      "title": "롯데리아 신촌역점",
      "description": "서울 서대문구 신촌로 119",
      "url": "http://place.map.kakao.com/623338539",
      "region": "서울특별시"
    },
    {
      "lat": 37.559079187769385,
      "lng": 126.94504148351712,
      "title": "롯데리아 이대점",
      "description": "서울 서대문구 이화여대길 59",
      "url": "http://place.map.kakao.com/567009039",
      "region": "서울특별시"
    },
    {
      "lat": 37.6003017142332,
      "lng": 126.922946117956,
      "title": "롯데리아 응암점",
      "description": "서울 은평구 은평로 136",
      "url": "http://place.map.kakao.com/7858095",
      "region": "서울특별시"
    },
    {
      "lat": 37.56577608432339,
      "lng": 126.96600934891048,
      "title": "롯데리아 서대문역점",
      "description": "서울 서대문구 통일로 127",
      "url": "http://place.map.kakao.com/27272866",
      "region": "서울특별시"
    },
    {
      "lat": 37.601132670946114,
      "lng": 126.93059932173905,
      "title": "롯데리아 녹번점",
      "description": "서울 은평구 은평로 206",
      "url": "http://place.map.kakao.com/22318728",
      "region": "서울특별시"
    },
    {
      "lat": 37.55239565531198,
      "lng": 126.96391048808343,
      "title": "롯데리아 용산서계점",
      "description": "서울 용산구 만리재로 150-1",
      "url": "http://place.map.kakao.com/27284799",
      "region": "서울특별시"
    },
    {
      "lat": 37.6095310218204,
      "lng": 126.930982249351,
      "title": "롯데리아 불광역점",
      "description": "서울 은평구 통일로 712-1",
      "url": "http://place.map.kakao.com/215420353",
      "region": "서울특별시"
    },
    {
      "lat": 37.61024115127472,
      "lng": 126.91720736066762,
      "title": "롯데리아 구산역점",
      "description": "서울 은평구 연서로 130",
      "url": "http://place.map.kakao.com/8357597",
      "region": "서울특별시"
    },
    {
      "lat": 37.5991983306791,
      "lng": 126.948335568911,
      "title": "롯데리아 홍은포방점",
      "description": "서울 서대문구 홍은중앙로 100",
      "url": "http://place.map.kakao.com/2071660050",
      "region": "서울특별시"
    },
    {
      "lat": 37.55426527218926,
      "lng": 126.97057199663817,
      "title": "롯데리아 서울역사점",
      "description": "서울 중구 한강대로 405",
      "url": "http://place.map.kakao.com/7857647",
      "region": "서울특별시"
    },
    {
      "lat": 37.6187592749995,
      "lng": 126.920081750605,
      "title": "롯데리아 연신내역점",
      "description": "서울 은평구 연서로 227",
      "url": "http://place.map.kakao.com/12175092",
      "region": "서울특별시"
    },
    {
      "lat": 37.63804411817438,
      "lng": 126.91895643844032,
      "title": "롯데리아 구파발역점",
      "description": "서울 은평구 진관2로 15-40",
      "url": "http://place.map.kakao.com/13335449",
      "region": "서울특별시"
    },
    {
      "lat": 37.43345583970323,
      "lng": 127.0192511387719,
      "title": "롯데리아 서울랜드2호점",
      "description": "경기 과천시 막계동 92",
      "url": "http://place.map.kakao.com/1560702282",
      "region": "경기도"
    },
    {
      "lat": 37.4952065464941,
      "lng": 127.150838296848,
      "title": "롯데리아 마천점",
      "description": "서울 송파구 마천로 315",
      "url": "http://place.map.kakao.com/7856780",
      "region": "서울특별시"
    },
    {
      "lat": 37.46660821345825,
      "lng": 127.14013026629684,
      "title": "롯데리아 위례역점",
      "description": "경기 성남시 수정구 위례광장로 25",
      "url": "http://place.map.kakao.com/13381898",
      "region": "경기도"
    },
    {
      "lat": 37.6488294293942,
      "lng": 126.914603627348,
      "title": "롯데리아 지축역점",
      "description": "경기 고양시 덕양구 지축1로 39",
      "url": "http://place.map.kakao.com/68746100",
      "region": "경기도"
    },
    {
      "lat": 37.64959171241604,
      "lng": 126.89768127224475,
      "title": "롯데리아 고양삼송점",
      "description": "경기 고양시 덕양구 동송로 30",
      "url": "http://place.map.kakao.com/1664674990",
      "region": "경기도"
    },
    {
      "lat": 37.635027738900675,
      "lng": 126.8714204627881,
      "title": "롯데리아 고양원흥점",
      "description": "경기 고양시 덕양구 도래울로 105",
      "url": "http://place.map.kakao.com/26778869",
      "region": "경기도"
    },
    {
      "lat": 37.6070172156086,
      "lng": 127.107608111657,
      "title": "롯데리아 양원역점",
      "description": "서울 중랑구 양원역로14길 19",
      "url": "http://place.map.kakao.com/64456309",
      "region": "서울특별시"
    },
    {
      "lat": 37.607730788795784,
      "lng": 127.13870033797386,
      "title": "롯데리아 구리인창점",
      "description": "경기 구리시 건원대로 75",
      "url": "http://place.map.kakao.com/14741024",
      "region": "경기도"
    },
    {
      "lat": 37.59930366135385,
      "lng": 127.14262430075068,
      "title": "롯데리아 구리돌다리점",
      "description": "경기 구리시 검배로 21",
      "url": "http://place.map.kakao.com/17135874",
      "region": "경기도"
    },
    {
      "lat": 37.586813987173,
      "lng": 127.138192783408,
      "title": "롯데리아 구리토평점",
      "description": "경기 구리시 체육관로 26",
      "url": "http://place.map.kakao.com/13017058",
      "region": "경기도"
    },
    {
      "lat": 37.62540076171367,
      "lng": 127.15548149922357,
      "title": "롯데리아 다산진건점",
      "description": "경기 남양주시 다산순환로 350",
      "url": "http://place.map.kakao.com/1340466385",
      "region": "경기도"
    },
    {
      "lat": 37.60802026308242,
      "lng": 127.15785759855503,
      "title": "롯데리아 다산점",
      "description": "경기 남양주시 도농로 24",
      "url": "http://place.map.kakao.com/7860342",
      "region": "경기도"
    },
    {
      "lat": 37.6493605955347,
      "lng": 127.141182278679,
      "title": "롯데리아 퇴계원점",
      "description": "경기 남양주시 퇴계원읍 퇴계원로 30",
      "url": "http://place.map.kakao.com/13277196",
      "region": "경기도"
    },
    {
      "lat": 37.2652064298226,
      "lng": 127.00084327704,
      "title": "롯데리아 수원역광장점",
      "description": "경기 수원시 팔달구 덕영대로 924",
      "url": "http://place.map.kakao.com/7856949",
      "region": "경기도"
    },
    {
      "lat": 37.24611961990516,
      "lng": 127.05659688873449,
      "title": "롯데리아 망포역점",
      "description": "경기 수원시 영통구 덕영대로 1515",
      "url": "http://place.map.kakao.com/22461440",
      "region": "경기도"
    },
    {
      "lat": 37.24621997988485,
      "lng": 126.96534189616129,
      "title": "롯데리아 오목천DT점",
      "description": "경기 수원시 권선구 매송고색로 552",
      "url": "http://place.map.kakao.com/27001757",
      "region": "경기도"
    },
    {
      "lat": 37.29792769375492,
      "lng": 126.97083907943404,
      "title": "롯데리아 수원성대점",
      "description": "경기 수원시 장안구 서부로 2119",
      "url": "http://place.map.kakao.com/21314103",
      "region": "경기도"
    },
    {
      "lat": 37.27734594812985,
      "lng": 127.016225541425,
      "title": "롯데리아 수원팔달점",
      "description": "경기 수원시 팔달구 정조로 777",
      "url": "http://place.map.kakao.com/8318021",
      "region": "경기도"
    },
    {
      "lat": 37.26485393098087,
      "lng": 127.03335889163671,
      "title": "롯데리아 동수원점",
      "description": "경기 수원시 팔달구 인계로166번길 48-21",
      "url": "http://place.map.kakao.com/19381462",
      "region": "경기도"
    },
    {
      "lat": 37.2747641431536,
      "lng": 127.042818631314,
      "title": "롯데리아 수원매탄점",
      "description": "경기 수원시 영통구 중부대로 248",
      "url": "http://place.map.kakao.com/11082211",
      "region": "경기도"
    },
    {
      "lat": 37.25053389678446,
      "lng": 127.03561590879109,
      "title": "롯데리아 수원권선점",
      "description": "경기 수원시 권선구 동수원로242번길 20",
      "url": "http://place.map.kakao.com/7857741",
      "region": "경기도"
    },
    {
      "lat": 37.2893124577855,
      "lng": 127.04720699753592,
      "title": "롯데리아 광교점",
      "description": "경기 수원시 영통구 도청로89번길 43",
      "url": "http://place.map.kakao.com/1386866356",
      "region": "경기도"
    },
    {
      "lat": 37.292438869817,
      "lng": 127.011850732687,
      "title": "롯데리아 수원북문점",
      "description": "경기 수원시 장안구 정조로 952",
      "url": "http://place.map.kakao.com/8358283",
      "region": "경기도"
    },
    {
      "lat": 37.29632279067113,
      "lng": 126.9941577891702,
      "title": "롯데리아 수원정자점",
      "description": "경기 수원시 장안구 정자천로173번길 17",
      "url": "http://place.map.kakao.com/125928417",
      "region": "경기도"
    },
    {
      "lat": 37.25196190778702,
      "lng": 127.07463385455105,
      "title": "롯데리아 수원영통점",
      "description": "경기 수원시 영통구 청명남로 21",
      "url": "http://place.map.kakao.com/2084761862",
      "region": "경기도"
    },
    {
      "lat": 37.27488307815048,
      "lng": 126.95475262342467,
      "title": "롯데리아 수원금곡점",
      "description": "경기 수원시 권선구 금곡로 225",
      "url": "http://place.map.kakao.com/934660251",
      "region": "경기도"
    },
    {
      "lat": 37.29266316653054,
      "lng": 127.03175279457655,
      "title": "롯데리아 수원연무점",
      "description": "경기 수원시 장안구 창룡대로 197",
      "url": "http://place.map.kakao.com/917549105",
      "region": "경기도"
    },
    {
      "lat": 37.2589364605891,
      "lng": 126.962542665413,
      "title": "롯데리아 신호매실점",
      "description": "경기 수원시 권선구 호매실로104번길 24-61",
      "url": "http://place.map.kakao.com/25878298",
      "region": "경기도"
    },
    {
      "lat": 37.30063013406676,
      "lng": 127.0455560511352,
      "title": "롯데리아 경기대역점",
      "description": "경기 수원시 영통구 대학4로 9",
      "url": "http://place.map.kakao.com/1673833713",
      "region": "경기도"
    },
    {
      "lat": 37.274983431928874,
      "lng": 126.97378512530858,
      "title": "롯데리아 수원탑동점",
      "description": "경기 수원시 권선구 탑동로 68",
      "url": "http://place.map.kakao.com/25687519",
      "region": "경기도"
    },
    {
      "lat": 37.26622370912809,
      "lng": 126.99994137567387,
      "title": "롯데리아 수원역사점",
      "description": "경기 수원시 팔달구 덕영대로 924",
      "url": "http://place.map.kakao.com/715812451",
      "region": "경기도"
    },
    {
      "lat": 37.28521149586559,
      "lng": 126.9802995338558,
      "title": "롯데리아 수원율현점",
      "description": "경기 수원시 팔달구 일월로22번길 4",
      "url": "http://place.map.kakao.com/11074920",
      "region": "경기도"
    },
    {
      "lat": 37.30707196808085,
      "lng": 126.99114519642909,
      "title": "롯데리아 수원파장점",
      "description": "경기 수원시 장안구 파장로 91",
      "url": "http://place.map.kakao.com/34526526",
      "region": "경기도"
    },
    {
      "lat": 37.26251204871599,
      "lng": 127.03028023276946,
      "title": "롯데리아 홈플러스동수원점",
      "description": "경기 수원시 팔달구 효원로 257",
      "url": "http://place.map.kakao.com/22018632",
      "region": "경기도"
    },
    {
      "lat": 37.2505610791164,
      "lng": 127.019472772606,
      "title": "롯데리아 수원터미널점",
      "description": "경기 수원시 권선구 경수대로 270",
      "url": "http://place.map.kakao.com/7856950",
      "region": "경기도"
    },
    {
      "lat": 37.274034983905096,
      "lng": 126.94187699839131,
      "title": "롯데리아 수원호매실점",
      "description": "경기 수원시 권선구 금곡로 106",
      "url": "http://place.map.kakao.com/20011959",
      "region": "경기도"
    },
    {
      "lat": 37.27824805215038,
      "lng": 127.00337143488434,
      "title": "롯데리아 수원화서점",
      "description": "경기 수원시 팔달구 팔달로 105",
      "url": "http://place.map.kakao.com/8343272",
      "region": "경기도"
    },
    {
      "lat": 37.29603329522831,
      "lng": 126.98240576460582,
      "title": "롯데리아 롯데마트수원천천점",
      "description": "경기 수원시 장안구 만석로19번길 25-10",
      "url": "http://place.map.kakao.com/21503435",
      "region": "경기도"
    },
    {
      "lat": 37.23503100362144,
      "lng": 127.02692226751765,
      "title": "롯데리아 수원곡반정점",
      "description": "경기 수원시 권선구 곡반정로65번길 33",
      "url": "http://place.map.kakao.com/22115080",
      "region": "경기도"
    },
    {
      "lat": 37.250912482437286,
      "lng": 126.98050346654449,
      "title": "롯데리아 수원고색점",
      "description": "경기 수원시 권선구 매송고색로691번길 18",
      "url": "http://place.map.kakao.com/1043187948",
      "region": "경기도"
    },
    {
      "lat": 37.29076488384014,
      "lng": 126.94067434789144,
      "title": "롯데리아 수원당수점",
      "description": "경기 수원시 권선구 당진로 20",
      "url": "http://place.map.kakao.com/285831014",
      "region": "경기도"
    },
    {
      "lat": 37.302945196089105,
      "lng": 127.00921526012608,
      "title": "롯데리아 홈플러스북수원점",
      "description": "경기 수원시 장안구 경수대로 930",
      "url": "http://place.map.kakao.com/1396853377",
      "region": "경기도"
    },
    {
      "lat": 37.27595403524969,
      "lng": 127.0715816166003,
      "title": "롯데리아 용인흥덕점",
      "description": "경기 용인시 기흥구 흥덕2로87번길 18",
      "url": "http://place.map.kakao.com/12996974",
      "region": "경기도"
    },
    {
      "lat": 37.2331335789344,
      "lng": 127.064007802524,
      "title": "롯데리아 화성반월점",
      "description": "경기 화성시 영통로27번길 1",
      "url": "http://place.map.kakao.com/1838351232",
      "region": "경기도"
    },
    {
      "lat": 37.2993762707169,
      "lng": 127.06741596917,
      "title": "롯데리아 광교DT점",
      "description": "경기 용인시 수지구 포은대로 58",
      "url": "http://place.map.kakao.com/17942493",
      "region": "경기도"
    },
    {
      "lat": 37.21369890078115,
      "lng": 127.04173297187033,
      "title": "롯데리아 화성태안점",
      "description": "경기 화성시 병점1로 221",
      "url": "http://place.map.kakao.com/10352283",
      "region": "경기도"
    },
    {
      "lat": 37.203056861385186,
      "lng": 127.01354556950888,
      "title": "롯데리아 화성화산DT점",
      "description": "경기 화성시 효행로 759",
      "url": "http://place.map.kakao.com/26772590",
      "region": "경기도"
    },
    {
      "lat": 37.2725812191279,
      "lng": 127.107594813733,
      "title": "롯데리아 용인신갈",
      "description": "경기 용인시 기흥구 신갈로58번길 17",
      "url": "http://place.map.kakao.com/97555596",
      "region": "경기도"
    },
    {
      "lat": 37.22254092433849,
      "lng": 126.97416158976179,
      "title": "롯데리아 화성기안점",
      "description": "경기 화성시 효행로 287",
      "url": "http://place.map.kakao.com/21683429",
      "region": "경기도"
    },
    {
      "lat": 37.2089465025975,
      "lng": 127.062752682094,
      "title": "롯데리아 화성센트럴파크점",
      "description": "경기 화성시 동탄지성로 116",
      "url": "http://place.map.kakao.com/17135858",
      "region": "경기도"
    },
    {
      "lat": 37.2542992566086,
      "lng": 127.110340624794,
      "title": "롯데리아 용인보라점",
      "description": "경기 용인시 기흥구 한보라2로 5",
      "url": "http://place.map.kakao.com/20010930",
      "region": "경기도"
    },
    {
      "lat": 37.307211655328,
      "lng": 127.084320437917,
      "title": "롯데리아 용인상현점",
      "description": "경기 용인시 수지구 상현로 114",
      "url": "http://place.map.kakao.com/8343959",
      "region": "경기도"
    },
    {
      "lat": 37.19360497961942,
      "lng": 127.04306559790099,
      "title": "롯데리아 오산세교DT점",
      "description": "경기 오산시 경기대로 859",
      "url": "http://place.map.kakao.com/1569594071",
      "region": "경기도"
    },
    {
      "lat": 37.199241701933104,
      "lng": 127.05263638949897,
      "title": "롯데리아 서동탄역점",
      "description": "경기 화성시 남여울2길 4",
      "url": "http://place.map.kakao.com/26888152",
      "region": "경기도"
    },
    {
      "lat": 37.3205040427351,
      "lng": 127.083856928514,
      "title": "롯데리아 용인신봉점",
      "description": "경기 용인시 수지구 수지로 217",
      "url": "http://place.map.kakao.com/13017104",
      "region": "경기도"
    },
    {
      "lat": 37.19973553344297,
      "lng": 127.0729344811046,
      "title": "롯데리아 화성동탄점",
      "description": "경기 화성시 동탄문화센터로 71-3",
      "url": "http://place.map.kakao.com/10357445",
      "region": "경기도"
    },
    {
      "lat": 37.2167769167567,
      "lng": 126.958354338374,
      "title": "롯데리아 화성봉담점",
      "description": "경기 화성시 봉담읍 동화길 85",
      "url": "http://place.map.kakao.com/21249995",
      "region": "경기도"
    },
    {
      "lat": 37.29473790184556,
      "lng": 127.1160308441519,
      "title": "롯데리아 용인구성점",
      "description": "경기 용인시 기흥구 구성로 58",
      "url": "http://place.map.kakao.com/8359098",
      "region": "경기도"
    },
    {
      "lat": 37.4119730188733,
      "lng": 127.127727402912,
      "title": "롯데리아 야탑역점",
      "description": "경기 성남시 분당구 성남대로925번길 11",
      "url": "http://place.map.kakao.com/21321652",
      "region": "경기도"
    },
    {
      "lat": 37.3877501397064,
      "lng": 127.11342666842,
      "title": "롯데리아 판교DT점",
      "description": "경기 성남시 분당구 동판교로 42",
      "url": "http://place.map.kakao.com/1471403866",
      "region": "경기도"
    },
    {
      "lat": 37.43284527877247,
      "lng": 127.130030538635,
      "title": "롯데리아 모란역점",
      "description": "경기 성남시 중원구 광명로 8",
      "url": "http://place.map.kakao.com/2143732390",
      "region": "경기도"
    },
    {
      "lat": 37.4165082552924,
      "lng": 127.151068922418,
      "title": "롯데리아 성남도촌점",
      "description": "경기 성남시 중원구 도촌로26번길 3",
      "url": "http://place.map.kakao.com/26517276",
      "region": "경기도"
    },
    {
      "lat": 37.3838136173018,
      "lng": 127.121541573698,
      "title": "롯데리아 분당서현점",
      "description": "경기 성남시 분당구 분당로53번길 9",
      "url": "http://place.map.kakao.com/585180281",
      "region": "경기도"
    },
    {
      "lat": 37.4450963623882,
      "lng": 127.158801806903,
      "title": "롯데리아 성남단대점",
      "description": "경기 성남시 중원구 산성대로372번길 15",
      "url": "http://place.map.kakao.com/10361537",
      "region": "경기도"
    },
    {
      "lat": 37.44353248302861,
      "lng": 127.14004992873875,
      "title": "롯데리아 성남점",
      "description": "경기 성남시 수정구 수정로 181",
      "url": "http://place.map.kakao.com/7857818",
      "region": "경기도"
    },
    {
      "lat": 37.4397237463207,
      "lng": 127.143924337869,
      "title": "롯데리아 성남신흥점",
      "description": "경기 성남시 수정구 산성대로 239",
      "url": "http://place.map.kakao.com/10355931",
      "region": "경기도"
    },
    {
      "lat": 37.4399567323286,
      "lng": 127.176748758369,
      "title": "롯데리아 성남테크노밸리점",
      "description": "경기 성남시 중원구 사기막골로 124",
      "url": "http://place.map.kakao.com/21440806",
      "region": "경기도"
    },
    {
      "lat": 37.365462297511,
      "lng": 127.106757592685,
      "title": "롯데리아 정자역점",
      "description": "경기 성남시 분당구 성남대로331번길 11-3",
      "url": "http://place.map.kakao.com/86240321",
      "region": "경기도"
    },
    {
      "lat": 37.4367968248311,
      "lng": 127.158350370813,
      "title": "롯데리아 성남상대원점",
      "description": "경기 성남시 중원구 희망로 348",
      "url": "http://place.map.kakao.com/10351578",
      "region": "경기도"
    },
    {
      "lat": 37.3497665030115,
      "lng": 127.109599848162,
      "title": "롯데리아 분당미금점",
      "description": "경기 성남시 분당구 돌마로 68",
      "url": "http://place.map.kakao.com/8318018",
      "region": "경기도"
    },
    {
      "lat": 37.3665983790858,
      "lng": 127.126936988248,
      "title": "롯데리아 분당수내동점",
      "description": "경기 성남시 분당구 불정로 256",
      "url": "http://place.map.kakao.com/21964988",
      "region": "경기도"
    },
    {
      "lat": 37.4404406966066,
      "lng": 127.130973668818,
      "title": "롯데리아 성남태평역점",
      "description": "경기 성남시 수정구 수정로 94-1",
      "url": "http://place.map.kakao.com/1853172426",
      "region": "경기도"
    },
    {
      "lat": 37.45846550450362,
      "lng": 127.16413781708552,
      "title": "롯데리아 성남양지점",
      "description": "경기 성남시 수정구 산성대로 531",
      "url": "http://place.map.kakao.com/7856788",
      "region": "경기도"
    },
    {
      "lat": 37.34923078725675,
      "lng": 127.1072007299534,
      "title": "롯데리아 분당미금아울렛점",
      "description": "경기 성남시 분당구 미금일로154번길 20",
      "url": "http://place.map.kakao.com/8284379",
      "region": "경기도"
    },
    {
      "lat": 37.35805581057477,
      "lng": 127.1635723747639,
      "title": "롯데리아 광주능평점",
      "description": "경기 광주시 태재로 129",
      "url": "http://place.map.kakao.com/26305891",
      "region": "경기도"
    },
    {
      "lat": 37.676151604062,
      "lng": 126.748172059036,
      "title": "롯데리아 일산대화역점",
      "description": "경기 고양시 일산서구 중앙로 1564",
      "url": "http://place.map.kakao.com/26305911",
      "region": "경기도"
    },
    {
      "lat": 37.6330741740813,
      "lng": 126.832465360321,
      "title": "롯데리아 화정역점",
      "description": "경기 고양시 덕양구 화신로260번길 51",
      "url": "http://place.map.kakao.com/1813742846",
      "region": "경기도"
    },
    {
      "lat": 37.65725555149698,
      "lng": 126.78813963183225,
      "title": "롯데리아 일산마두점",
      "description": "경기 고양시 일산동구 일산로 239",
      "url": "http://place.map.kakao.com/7862251",
      "region": "경기도"
    },
    {
      "lat": 37.6563959524999,
      "lng": 126.836846296555,
      "title": "롯데리아 원당점",
      "description": "경기 고양시 덕양구 마상로154번길 68",
      "url": "http://place.map.kakao.com/7854270",
      "region": "경기도"
    },
    {
      "lat": 37.64329282016314,
      "lng": 126.78902229183583,
      "title": "롯데리아 롯데아울렛고양터미널점",
      "description": "경기 고양시 일산동구 중앙로 1036",
      "url": "http://place.map.kakao.com/27290707",
      "region": "경기도"
    },
    {
      "lat": 37.7103491453487,
      "lng": 126.90518595329449,
      "title": "롯데리아 고양점",
      "description": "경기 고양시 덕양구 푸른마을로 34-6",
      "url": "http://place.map.kakao.com/17135876",
      "region": "경기도"
    },
    {
      "lat": 37.69173943803676,
      "lng": 126.76297665725787,
      "title": "롯데리아 일산탄현점",
      "description": "경기 고양시 일산서구 일현로 47",
      "url": "http://place.map.kakao.com/18504548",
      "region": "경기도"
    },
    {
      "lat": 37.6779794268631,
      "lng": 126.76780418884,
      "title": "롯데리아 일산후곡점",
      "description": "경기 고양시 일산서구 일산로 544",
      "url": "http://place.map.kakao.com/12127747",
      "region": "경기도"
    },
    {
      "lat": 37.67882847207592,
      "lng": 126.81198712987795,
      "title": "롯데리아 일산식사점",
      "description": "경기 고양시 일산동구 위시티2로11번길 45",
      "url": "http://place.map.kakao.com/21658116",
      "region": "경기도"
    },
    {
      "lat": 37.667350444272124,
      "lng": 126.79807944566282,
      "title": "롯데리아 일산풍동점",
      "description": "경기 고양시 일산동구 숲속마을로 48",
      "url": "http://place.map.kakao.com/12127780",
      "region": "경기도"
    },
    {
      "lat": 37.62469486698513,
      "lng": 126.81719615227672,
      "title": "롯데리아 고양능곡점",
      "description": "경기 고양시 덕양구 토당로 105",
      "url": "http://place.map.kakao.com/1726760145",
      "region": "경기도"
    },
    {
      "lat": 37.68868777802341,
      "lng": 126.86291201724157,
      "title": "롯데리아 고양관산점",
      "description": "경기 고양시 덕양구 통일로 792",
      "url": "http://place.map.kakao.com/25160793",
      "region": "경기도"
    },
    {
      "lat": 37.6587348499941,
      "lng": 126.76888637127696,
      "title": "롯데리아 홈플러스일산점",
      "description": "경기 고양시 일산동구 중앙로1275번길 64",
      "url": "http://place.map.kakao.com/17216314",
      "region": "경기도"
    },
    {
      "lat": 37.664389682260634,
      "lng": 126.7412539645648,
      "title": "롯데리아 일산킨텍스점",
      "description": "경기 고양시 일산서구 킨텍스로 217-59",
      "url": "http://place.map.kakao.com/16659566",
      "region": "경기도"
    },
    {
      "lat": 37.6938301119635,
      "lng": 126.78040832700228,
      "title": "롯데리아 일산중산점",
      "description": "경기 고양시 일산동구 중산로 245",
      "url": "http://place.map.kakao.com/10360610",
      "region": "경기도"
    },
    {
      "lat": 37.62462725256005,
      "lng": 126.83618511328545,
      "title": "롯데리아 롯데마트고양점",
      "description": "경기 고양시 덕양구 중앙로558번길 21",
      "url": "http://place.map.kakao.com/11081520",
      "region": "경기도"
    },
    {
      "lat": 37.67046908140407,
      "lng": 126.73498627771362,
      "title": "롯데리아 일산대화점",
      "description": "경기 고양시 일산서구 대화로 136",
      "url": "http://place.map.kakao.com/7854438",
      "region": "경기도"
    },
    {
      "lat": 37.68747544480596,
      "lng": 126.71883356262646,
      "title": "롯데리아 일산가좌점",
      "description": "경기 고양시 일산서구 가좌1로 53",
      "url": "http://place.map.kakao.com/13101950",
      "region": "경기도"
    },
    {
      "lat": 37.6836335103951,
      "lng": 126.746582294434,
      "title": "롯데리아 하나로고양점",
      "description": "경기 고양시 일산서구 대화로 362",
      "url": "http://place.map.kakao.com/1571878678",
      "region": "경기도"
    },
    {
      "lat": 37.236140474453,
      "lng": 127.190520846515,
      "title": "롯데리아 용인역북점",
      "description": "경기 용인시 처인구 중부대로 1309",
      "url": "http://place.map.kakao.com/17773709",
      "region": "경기도"
    },
    {
      "lat": 37.331487411337,
      "lng": 127.126643190531,
      "title": "롯데리아 용인죽전1동점",
      "description": "경기 용인시 수지구 현암로 154",
      "url": "http://place.map.kakao.com/13025818",
      "region": "경기도"
    },
    {
      "lat": 37.2324743167268,
      "lng": 127.285850643341,
      "title": "롯데리아 용인양지점",
      "description": "경기 용인시 처인구 양지면 남평로 6",
      "url": "http://place.map.kakao.com/22046700",
      "region": "경기도"
    },
    {
      "lat": 37.3236194057982,
      "lng": 127.096235007209,
      "title": "롯데리아 수지풍덕천점",
      "description": "경기 용인시 수지구 풍덕천로 133",
      "url": "http://place.map.kakao.com/1239840483",
      "region": "경기도"
    },
    {
      "lat": 37.3366748045463,
      "lng": 127.251236330968,
      "title": "롯데리아 용인모현점",
      "description": "경기 용인시 처인구 모현읍 외대로 16",
      "url": "http://place.map.kakao.com/980099165",
      "region": "경기도"
    },
    {
      "lat": 37.1939080433361,
      "lng": 127.206818299256,
      "title": "롯데리아 용인천리점",
      "description": "경기 용인시 처인구 이동읍 백옥대로 641",
      "url": "http://place.map.kakao.com/461013461",
      "region": "경기도"
    },
    {
      "lat": 37.2718492755555,
      "lng": 127.126994219424,
      "title": "롯데리아 용인강남대점",
      "description": "경기 용인시 기흥구 강남로 13",
      "url": "http://place.map.kakao.com/938283588",
      "region": "경기도"
    },
    {
      "lat": 37.27724722010319,
      "lng": 127.15235296426964,
      "title": "롯데리아 용인동백점",
      "description": "경기 용인시 기흥구 동백5로 21-11",
      "url": "http://place.map.kakao.com/10355294",
      "region": "경기도"
    },
    {
      "lat": 37.269533736354,
      "lng": 127.217356807864,
      "title": "롯데리아 용인둔전점",
      "description": "경기 용인시 처인구 포곡읍 포곡로107번길 2",
      "url": "http://place.map.kakao.com/11674066",
      "region": "경기도"
    },
    {
      "lat": 37.3207501750133,
      "lng": 127.112933285783,
      "title": "롯데리아 용인보정점",
      "description": "경기 용인시 기흥구 죽전로 39",
      "url": "http://place.map.kakao.com/11731869",
      "region": "경기도"
    },
    {
      "lat": 37.2403599342212,
      "lng": 127.172377685046,
      "title": "롯데리아 용인시청점",
      "description": "경기 용인시 처인구 중부대로 1143",
      "url": "http://place.map.kakao.com/940838700",
      "region": "경기도"
    },
    {
      "lat": 37.14144712201292,
      "lng": 127.19819336284722,
      "title": "롯데리아 용인송전점",
      "description": "경기 용인시 처인구 이동읍 경기동로687번길 22",
      "url": "http://place.map.kakao.com/732786475",
      "region": "경기도"
    },
    {
      "lat": 37.232875290029156,
      "lng": 127.20960218561659,
      "title": "롯데리아 용인터미널점",
      "description": "경기 용인시 처인구 중부대로 1486",
      "url": "http://place.map.kakao.com/7862085",
      "region": "경기도"
    },
    {
      "lat": 37.239601244025,
      "lng": 127.214823003798,
      "title": "롯데리아 용인고림점",
      "description": "경기 용인시 처인구 고림로 72",
      "url": "http://place.map.kakao.com/1251651386",
      "region": "경기도"
    },
    {
      "lat": 37.3353314897046,
      "lng": 127.09339729462,
      "title": "롯데리아 용인동천점",
      "description": "경기 용인시 수지구 수풍로131번길 1",
      "url": "http://place.map.kakao.com/20373484",
      "region": "경기도"
    },
    {
      "lat": 37.1638722420255,
      "lng": 127.376111540905,
      "title": "롯데리아 용인백암점",
      "description": "경기 용인시 처인구 백암면 백암로186번길 3",
      "url": "http://place.map.kakao.com/927591818",
      "region": "경기도"
    },
    {
      "lat": 37.15293609000292,
      "lng": 127.17129985444893,
      "title": "롯데리아 용인남사점",
      "description": "경기 용인시 처인구 남사읍 한숲로 54",
      "url": "http://place.map.kakao.com/87473016",
      "region": "경기도"
    },
    {
      "lat": 37.2059304097066,
      "lng": 127.111036182262,
      "title": "롯데리아 동탄커뮤니티점",
      "description": "경기 화성시 동탄순환대로 685",
      "url": "http://place.map.kakao.com/27480043",
      "region": "경기도"
    },
    {
      "lat": 37.18294435088627,
      "lng": 127.12483053776877,
      "title": "롯데리아 동탄주거단지점",
      "description": "경기 화성시 동탄순환대로20길 118",
      "url": "http://place.map.kakao.com/625713641",
      "region": "경기도"
    },
    {
      "lat": 37.484070762191315,
      "lng": 126.78252974768546,
      "title": "롯데리아 부천역점",
      "description": "경기 부천시 소사구 부천로 1",
      "url": "http://place.map.kakao.com/7857565",
      "region": "경기도"
    },
    {
      "lat": 37.501517046246,
      "lng": 126.774422506182,
      "title": "롯데리아 부천중동점",
      "description": "경기 부천시 원미구 중동로254번길 104",
      "url": "http://place.map.kakao.com/17597964",
      "region": "경기도"
    },
    {
      "lat": 37.483272874886,
      "lng": 126.7594941054,
      "title": "롯데리아 부천송내D/T점",
      "description": "경기 부천시 소사구 경인로 36",
      "url": "http://place.map.kakao.com/12817234",
      "region": "경기도"
    },
    {
      "lat": 37.4881097598626,
      "lng": 126.752649085173,
      "title": "롯데리아 부천송내점",
      "description": "경기 부천시 원미구 부일로 202-13",
      "url": "http://place.map.kakao.com/10360857",
      "region": "경기도"
    },
    {
      "lat": 37.4891397982163,
      "lng": 126.783496527269,
      "title": "롯데리아 부천원미점",
      "description": "경기 부천시 원미구 부천로 53",
      "url": "http://place.map.kakao.com/7857566",
      "region": "경기도"
    },
    {
      "lat": 37.50619923245385,
      "lng": 126.75222297358573,
      "title": "롯데리아 부천상동점",
      "description": "경기 부천시 원미구 길주로 91",
      "url": "http://place.map.kakao.com/11074919",
      "region": "경기도"
    },
    {
      "lat": 37.5052130115289,
      "lng": 126.76249546055,
      "title": "롯데리아 부천시청역점",
      "description": "경기 부천시 원미구 길주로 181",
      "url": "http://place.map.kakao.com/24661127",
      "region": "경기도"
    },
    {
      "lat": 37.4739668361849,
      "lng": 126.804151613061,
      "title": "롯데리아 부천범박점",
      "description": "경기 부천시 소사구 소사동로 87",
      "url": "http://place.map.kakao.com/14935601",
      "region": "경기도"
    },
    {
      "lat": 37.4968284755385,
      "lng": 126.761703284292,
      "title": "롯데리아 중동인성점",
      "description": "경기 부천시 원미구 석천로 106",
      "url": "http://place.map.kakao.com/17135840",
      "region": "경기도"
    },
    {
      "lat": 37.5153328038615,
      "lng": 126.771494296485,
      "title": "롯데리아 부천약대점",
      "description": "경기 부천시 오정구 평천로 725",
      "url": "http://place.map.kakao.com/20906551",
      "region": "경기도"
    },
    {
      "lat": 37.5039958008931,
      "lng": 126.739029765631,
      "title": "롯데리아 인천부개점",
      "description": "인천 부평구 길주남로 155",
      "url": "http://place.map.kakao.com/8269935",
      "region": "인천광역시"
    },
    {
      "lat": 37.4861934966907,
      "lng": 126.73972941051,
      "title": "롯데리아 인천부개역점",
      "description": "인천 부평구 경인로 1080",
      "url": "http://place.map.kakao.com/18785175",
      "region": "인천광역시"
    },
    {
      "lat": 37.507925090835464,
      "lng": 126.73179683383076,
      "title": "롯데리아 롯데마트인천삼산지하1층점",
      "description": "인천 부평구 길주로 623",
      "url": "http://place.map.kakao.com/21227525",
      "region": "인천광역시"
    },
    {
      "lat": 37.4915582937342,
      "lng": 126.724716843341,
      "title": "롯데리아 부평점",
      "description": "인천 부평구 경원대로 1399",
      "url": "http://place.map.kakao.com/13571713",
      "region": "인천광역시"
    },
    {
      "lat": 37.5175755028352,
      "lng": 126.726204918992,
      "title": "롯데리아 인천갈산점",
      "description": "인천 부평구 평천로 324",
      "url": "http://place.map.kakao.com/18636612",
      "region": "인천광역시"
    },
    {
      "lat": 37.4977171647237,
      "lng": 126.722622504156,
      "title": "롯데리아 부평시장역점",
      "description": "인천 부평구 부평대로 70",
      "url": "http://place.map.kakao.com/1633232511",
      "region": "인천광역시"
    },
    {
      "lat": 37.53384574084702,
      "lng": 126.74138885428744,
      "title": "롯데리아 인천계양점",
      "description": "인천 계양구 용종로 2",
      "url": "http://place.map.kakao.com/21224241",
      "region": "인천광역시"
    },
    {
      "lat": 37.5476146129684,
      "lng": 126.740489189539,
      "title": "롯데리아 인천병방점",
      "description": "인천 계양구 장제로 907",
      "url": "http://place.map.kakao.com/11311996",
      "region": "인천광역시"
    },
    {
      "lat": 37.513326388303476,
      "lng": 126.70416185445497,
      "title": "롯데리아 인천청천점",
      "description": "인천 부평구 마장로 396",
      "url": "http://place.map.kakao.com/10356749",
      "region": "인천광역시"
    },
    {
      "lat": 37.46053009597718,
      "lng": 126.73366504106197,
      "title": "롯데리아 인천만수점",
      "description": "인천 남동구 만수로 47",
      "url": "http://place.map.kakao.com/7858098",
      "region": "인천광역시"
    },
    {
      "lat": 37.4874218799449,
      "lng": 126.708603675592,
      "title": "롯데리아 인천백운점",
      "description": "인천 부평구 경원대로 1240",
      "url": "http://place.map.kakao.com/11078892",
      "region": "인천광역시"
    },
    {
      "lat": 37.543719252612,
      "lng": 126.7232714027,
      "title": "롯데리아 인천계산점",
      "description": "인천 계양구 경명대로 1049",
      "url": "http://place.map.kakao.com/7862248",
      "region": "인천광역시"
    },
    {
      "lat": 37.5047199470352,
      "lng": 126.703772838078,
      "title": "롯데리아 롯데마트 부평점",
      "description": "인천 부평구 마장로 296",
      "url": "http://place.map.kakao.com/8317338",
      "region": "인천광역시"
    },
    {
      "lat": 37.5321430633314,
      "lng": 126.711158656463,
      "title": "롯데리아 인천작전점",
      "description": "인천 계양구 안남로 548",
      "url": "http://place.map.kakao.com/7858429",
      "region": "인천광역시"
    },
    {
      "lat": 37.45558026118945,
      "lng": 126.72053470277226,
      "title": "롯데리아 인천구월점",
      "description": "인천 남동구 구월로 270",
      "url": "http://place.map.kakao.com/8359102",
      "region": "인천광역시"
    },
    {
      "lat": 37.5590029933781,
      "lng": 126.757340449817,
      "title": "롯데리아 인천동양점",
      "description": "인천 계양구 동양로 111",
      "url": "http://place.map.kakao.com/19344967",
      "region": "인천광역시"
    },
    {
      "lat": 37.4711203589545,
      "lng": 126.704045660947,
      "title": "롯데리아 동암남부점",
      "description": "인천 부평구 동암남로 5",
      "url": "http://place.map.kakao.com/7857388",
      "region": "인천광역시"
    },
    {
      "lat": 37.4613153644149,
      "lng": 126.709035065098,
      "title": "롯데리아 인천올리브점",
      "description": "인천 남동구 남동대로 880",
      "url": "http://place.map.kakao.com/12127742",
      "region": "인천광역시"
    },
    {
      "lat": 37.444961135712404,
      "lng": 126.79752369605595,
      "title": "롯데리아 시흥은행점",
      "description": "경기 시흥시 대은로 83",
      "url": "http://place.map.kakao.com/10362606",
      "region": "경기도"
    },
    {
      "lat": 37.4411621266085,
      "lng": 126.785085762683,
      "title": "롯데리아 시흥제일점",
      "description": "경기 시흥시 호현로10번길 17",
      "url": "http://place.map.kakao.com/21683792",
      "region": "경기도"
    },
    {
      "lat": 37.4432663194901,
      "lng": 126.738323242143,
      "title": "롯데리아 인천남동구청점",
      "description": "인천 남동구 장승남로 54",
      "url": "http://place.map.kakao.com/17941790",
      "region": "인천광역시"
    },
    {
      "lat": 37.44336794823594,
      "lng": 126.79221905467429,
      "title": "롯데리아 롯데마트시흥점",
      "description": "경기 시흥시 비둘기공원로 28",
      "url": "http://place.map.kakao.com/18549503",
      "region": "경기도"
    },
    {
      "lat": 37.3022913040971,
      "lng": 126.864481614191,
      "title": "롯데리아 안산상록수점",
      "description": "경기 안산시 상록구 상록수로 40",
      "url": "http://place.map.kakao.com/11075595",
      "region": "경기도"
    },
    {
      "lat": 37.3280734397072,
      "lng": 126.848124424572,
      "title": "롯데리아 안산D/T점",
      "description": "경기 안산시 상록구 예술광장1로 68",
      "url": "http://place.map.kakao.com/8343955",
      "region": "경기도"
    },
    {
      "lat": 37.3273711421962,
      "lng": 126.789598540464,
      "title": "롯데리아 안산역사점",
      "description": "경기 안산시 단원구 중앙대로 462",
      "url": "http://place.map.kakao.com/7857825",
      "region": "경기도"
    },
    {
      "lat": 37.3365400496226,
      "lng": 126.810963660612,
      "title": "롯데리아 안산제일점",
      "description": "경기 안산시 단원구 선부광장1로 56",
      "url": "http://place.map.kakao.com/7864768",
      "region": "경기도"
    },
    {
      "lat": 37.3099067494741,
      "lng": 126.830807181694,
      "title": "롯데리아 안산신도시점",
      "description": "경기 안산시 단원구 광덕대로 154",
      "url": "http://place.map.kakao.com/16277693",
      "region": "경기도"
    },
    {
      "lat": 37.3085141916264,
      "lng": 126.851259063768,
      "title": "롯데리아 안산한양대점",
      "description": "경기 안산시 상록구 광덕1로 379",
      "url": "http://place.map.kakao.com/7857919",
      "region": "경기도"
    },
    {
      "lat": 37.3404131023365,
      "lng": 126.814650910762,
      "title": "롯데리아 안산선부점",
      "description": "경기 안산시 단원구 달미로 63",
      "url": "http://place.map.kakao.com/7856955",
      "region": "경기도"
    },
    {
      "lat": 37.31876674902739,
      "lng": 126.83602543519245,
      "title": "롯데리아 안산중앙점",
      "description": "경기 안산시 단원구 고잔로 88",
      "url": "http://place.map.kakao.com/61850067",
      "region": "경기도"
    },
    {
      "lat": 37.3039140875401,
      "lng": 126.901935753997,
      "title": "롯데리아 안산반월점",
      "description": "경기 안산시 상록구 건건2길 6",
      "url": "http://place.map.kakao.com/19432980",
      "region": "경기도"
    },
    {
      "lat": 37.308694858769,
      "lng": 126.81572371415353,
      "title": "롯데리아 안산초지점",
      "description": "경기 안산시 단원구 광덕1로 55",
      "url": "http://place.map.kakao.com/7857992",
      "region": "경기도"
    },
    {
      "lat": 37.2972153880831,
      "lng": 126.863367379935,
      "title": "롯데리아 안산본오점",
      "description": "경기 안산시 상록구 샘골로 150",
      "url": "http://place.map.kakao.com/7864767",
      "region": "경기도"
    },
    {
      "lat": 37.3325178885403,
      "lng": 126.863366659839,
      "title": "롯데리아 안산부곡점",
      "description": "경기 안산시 상록구 부곡로 118",
      "url": "http://place.map.kakao.com/1537509893",
      "region": "경기도"
    },
    {
      "lat": 37.3344229769015,
      "lng": 126.828955786326,
      "title": "롯데리아 안산와동점",
      "description": "경기 안산시 단원구 와동로 43",
      "url": "http://place.map.kakao.com/714994178",
      "region": "경기도"
    },
    {
      "lat": 37.28065605443938,
      "lng": 126.82868287131525,
      "title": "롯데리아 안산그랑시티자이점",
      "description": "경기 안산시 상록구 해양4로 31",
      "url": "http://place.map.kakao.com/468461275",
      "region": "경기도"
    },
    {
      "lat": 37.28482494475401,
      "lng": 126.84763852673461,
      "title": "롯데리아 안산사동점",
      "description": "경기 안산시 상록구 항가울로 28",
      "url": "http://place.map.kakao.com/1222400023",
      "region": "경기도"
    },
    {
      "lat": 37.2854567697628,
      "lng": 126.817226074563,
      "title": "롯데리아 송산새솔동점",
      "description": "경기 화성시 수노을중앙로 122",
      "url": "http://place.map.kakao.com/886795692",
      "region": "경기도"
    },
    {
      "lat": 37.3424778871914,
      "lng": 126.78463602061,
      "title": "롯데리아 시흥거모점",
      "description": "경기 시흥시 도일로135번길 4",
      "url": "http://place.map.kakao.com/22645451",
      "region": "경기도"
    },
    {
      "lat": 37.3692017394059,
      "lng": 126.81174875923,
      "title": "롯데리아 시흥능곡점",
      "description": "경기 시흥시 장현능곡로 198",
      "url": "http://place.map.kakao.com/12887582",
      "region": "경기도"
    },
    {
      "lat": 37.3817752005596,
      "lng": 126.860242273809,
      "title": "롯데리아 목감신도시점",
      "description": "경기 시흥시 목감우회로 39",
      "url": "http://place.map.kakao.com/563735047",
      "region": "경기도"
    },
    {
      "lat": 37.383499069669895,
      "lng": 126.855175995693,
      "title": "롯데리아 시흥휴게소점",
      "description": "경기 시흥시 수도권제1순환고속도로 105",
      "url": "http://place.map.kakao.com/1159958165",
      "region": "경기도"
    },
    {
      "lat": 37.3792708105833,
      "lng": 126.783889538398,
      "title": "롯데리아 시흥연성점",
      "description": "경기 시흥시 진말로19번길 16",
      "url": "http://place.map.kakao.com/21249435",
      "region": "경기도"
    },
    {
      "lat": 37.31603692135827,
      "lng": 126.91902251975924,
      "title": "롯데리아 군포송정지구점",
      "description": "경기 군포시 송부로 42",
      "url": "http://place.map.kakao.com/1011998682",
      "region": "경기도"
    },
    {
      "lat": 37.3282463880672,
      "lng": 126.848085713721,
      "title": "롯데리아 안산DT점 주차장",
      "description": "경기 안산시 상록구 월피동 445-30",
      "url": "http://place.map.kakao.com/2075625775",
      "region": "경기도"
    },
    {
      "lat": 37.3364396750948,
      "lng": 126.811302443504,
      "title": "LG유플러스 선부3동 롯데리아점",
      "description": "경기 안산시 단원구 선부광장1로 62",
      "url": "http://place.map.kakao.com/981957433",
      "region": "경기도"
    },
    {
      "lat": 37.4010940303375,
      "lng": 126.976241768802,
      "title": "롯데리아 인덕원역점",
      "description": "경기 안양시 동안구 흥안대로 527",
      "url": "http://place.map.kakao.com/11731865",
      "region": "경기도"
    },
    {
      "lat": 37.3989812253378,
      "lng": 126.923383103178,
      "title": "롯데리아 안양점",
      "description": "경기 안양시 만안구 안양로292번길 28",
      "url": "http://place.map.kakao.com/7857993",
      "region": "경기도"
    },
    {
      "lat": 37.391218087208216,
      "lng": 126.95055535057669,
      "title": "롯데리아 안양범계점",
      "description": "경기 안양시 동안구 시민대로 175",
      "url": "http://place.map.kakao.com/936246603",
      "region": "경기도"
    },
    {
      "lat": 37.4031603031736,
      "lng": 126.955265172006,
      "title": "롯데리아 안양관양점",
      "description": "경기 안양시 동안구 관악대로 291",
      "url": "http://place.map.kakao.com/17942553",
      "region": "경기도"
    },
    {
      "lat": 37.4017073604548,
      "lng": 126.901058528684,
      "title": "롯데리아 안양박달D/I점",
      "description": "경기 안양시 만안구 박달로 432",
      "url": "http://place.map.kakao.com/21536140",
      "region": "경기도"
    },
    {
      "lat": 37.3844888611571,
      "lng": 126.958970875111,
      "title": "롯데리아 평촌귀인점",
      "description": "경기 안양시 동안구 평촌대로 139",
      "url": "http://place.map.kakao.com/11731868",
      "region": "경기도"
    },
    {
      "lat": 37.3947534421791,
      "lng": 126.917736325449,
      "title": "롯데리아 안양중앙점",
      "description": "경기 안양시 만안구 장내로 82",
      "url": "http://place.map.kakao.com/19851055",
      "region": "경기도"
    },
    {
      "lat": 37.385687786978025,
      "lng": 126.93266943200763,
      "title": "롯데리아 만안구청점",
      "description": "경기 안양시 만안구 안양로 122",
      "url": "http://place.map.kakao.com/21407343",
      "region": "경기도"
    },
    {
      "lat": 37.37279296441806,
      "lng": 126.95728377043574,
      "title": "롯데리아 안양호계점",
      "description": "경기 안양시 동안구 경수대로 561",
      "url": "http://place.map.kakao.com/20345694",
      "region": "경기도"
    },
    {
      "lat": 37.4125910773672,
      "lng": 126.90929241135454,
      "title": "롯데리아 안양석수점",
      "description": "경기 안양시 만안구 안양로 483",
      "url": "http://place.map.kakao.com/1493955833",
      "region": "경기도"
    },
    {
      "lat": 37.3991271680049,
      "lng": 126.938805747254,
      "title": "롯데리아 안양비산점",
      "description": "경기 안양시 동안구 관악대로 131",
      "url": "http://place.map.kakao.com/7857920",
      "region": "경기도"
    },
    {
      "lat": 37.40164231327985,
      "lng": 126.92257173199235,
      "title": "롯데리아 안양역사점",
      "description": "경기 안양시 만안구 만안로 232",
      "url": "http://place.map.kakao.com/1686684066",
      "region": "경기도"
    },
    {
      "lat": 37.39587229007327,
      "lng": 126.98537291960402,
      "title": "롯데리아 포일IT점",
      "description": "경기 의왕시 포일세거리로 10",
      "url": "http://place.map.kakao.com/1432788823",
      "region": "경기도"
    },
    {
      "lat": 37.3714776350611,
      "lng": 126.940923570579,
      "title": "롯데리아 금정역점",
      "description": "경기 군포시 산본천로 213",
      "url": "http://place.map.kakao.com/1499643175",
      "region": "경기도"
    },
    {
      "lat": 37.360068658052754,
      "lng": 126.93063566517918,
      "title": "롯데리아 산본점",
      "description": "경기 군포시 산본로343번길 21",
      "url": "http://place.map.kakao.com/7864761",
      "region": "경기도"
    },
    {
      "lat": 37.346684487067606,
      "lng": 126.94364485134861,
      "title": "롯데리아 군포당동점",
      "description": "경기 군포시 고산로 262",
      "url": "http://place.map.kakao.com/12219131",
      "region": "경기도"
    },
    {
      "lat": 37.41693887073035,
      "lng": 126.8858131318752,
      "title": "롯데리아 광명역사점",
      "description": "경기 광명시 일직동 276-8",
      "url": "http://place.map.kakao.com/1860622508",
      "region": "경기도"
    },
    {
      "lat": 37.69856529491953,
      "lng": 127.20267192131895,
      "title": "롯데리아 양지오남점",
      "description": "경기 남양주시 오남읍 진건오남로 806-6",
      "url": "http://place.map.kakao.com/12127738",
      "region": "경기도"
    },
    {
      "lat": 37.5919242444617,
      "lng": 127.220201126681,
      "title": "롯데리아 남양주덕소점",
      "description": "경기 남양주시 와부읍 수레로 100",
      "url": "http://place.map.kakao.com/398854554",
      "region": "경기도"
    },
    {
      "lat": 37.71750499841658,
      "lng": 127.1971500834217,
      "title": "롯데리아 남양주진접점",
      "description": "경기 남양주시 진접읍 해밀예당3로 87",
      "url": "http://place.map.kakao.com/15801582",
      "region": "경기도"
    },
    {
      "lat": 37.657600642562805,
      "lng": 127.28426091783017,
      "title": "롯데리아 남양주화도DT점",
      "description": "경기 남양주시 화도읍 먹갓로28번길 77-4",
      "url": "http://place.map.kakao.com/985288163",
      "region": "경기도"
    },
    {
      "lat": 37.6522109267218,
      "lng": 127.306589275057,
      "title": "롯데리아 마석점",
      "description": "경기 남양주시 화도읍 마석로 14",
      "url": "http://place.map.kakao.com/10350757",
      "region": "경기도"
    },
    {
      "lat": 37.6445543889971,
      "lng": 127.236977574498,
      "title": "롯데리아 평내점",
      "description": "경기 남양주시 경춘로1256번길 34",
      "url": "http://place.map.kakao.com/594391991",
      "region": "경기도"
    },
    {
      "lat": 37.7189580339481,
      "lng": 127.18391311030764,
      "title": "롯데리아 장현점",
      "description": "경기 남양주시 진접읍 장현천로 26",
      "url": "http://place.map.kakao.com/8318709",
      "region": "경기도"
    },
    {
      "lat": 37.679900242202656,
      "lng": 127.20911677322232,
      "title": "롯데리아 오남어람점",
      "description": "경기 남양주시 오남읍 진건오남로 511",
      "url": "http://place.map.kakao.com/326249310",
      "region": "경기도"
    },
    {
      "lat": 37.6341927074808,
      "lng": 127.21057471293,
      "title": "롯데리아 금곡점",
      "description": "경기 남양주시 경춘로 979",
      "url": "http://place.map.kakao.com/25761816",
      "region": "경기도"
    },
    {
      "lat": 37.6539929492794,
      "lng": 127.244106088142,
      "title": "롯데리아 호평점",
      "description": "경기 남양주시 늘을2로14번길 3",
      "url": "http://place.map.kakao.com/7858818",
      "region": "경기도"
    },
    {
      "lat": 37.65750676646276,
      "lng": 127.17816642315077,
      "title": "롯데리아 진건점",
      "description": "경기 남양주시 진건읍 진건오남로 75",
      "url": "http://place.map.kakao.com/8347703",
      "region": "경기도"
    },
    {
      "lat": 37.1876169729474,
      "lng": 127.085515102722,
      "title": "롯데리아 동탄신리천점",
      "description": "경기 화성시 동탄기흥로353번길 102",
      "url": "http://place.map.kakao.com/1482812027",
      "region": "경기도"
    },
    {
      "lat": 37.1316560404602,
      "lng": 126.922591079483,
      "title": "롯데리아 화성향남점",
      "description": "경기 화성시 향남읍 발안로 107",
      "url": "http://place.map.kakao.com/12127782",
      "region": "경기도"
    },
    {
      "lat": 37.13156974427333,
      "lng": 126.91011284456793,
      "title": "롯데리아 화성발안점",
      "description": "경기 화성시 향남읍 삼천병마로 207",
      "url": "http://place.map.kakao.com/7858265",
      "region": "경기도"
    },
    {
      "lat": 37.16963521659772,
      "lng": 127.11834341628091,
      "title": "롯데리아 동탄산척점",
      "description": "경기 화성시 동탄순환대로 245",
      "url": "http://place.map.kakao.com/337876980",
      "region": "경기도"
    },
    {
      "lat": 37.21227650189355,
      "lng": 126.73188365040917,
      "title": "롯데리아 화성사강DT점",
      "description": "경기 화성시 송산면 사강로 144",
      "url": "http://place.map.kakao.com/22578639",
      "region": "경기도"
    },
    {
      "lat": 37.087110404406054,
      "lng": 126.81527401573763,
      "title": "롯데리아 화성조암점",
      "description": "경기 화성시 우정읍 쌍봉로 76",
      "url": "http://place.map.kakao.com/24075146",
      "region": "경기도"
    },
    {
      "lat": 37.20024529427518,
      "lng": 127.09600945121028,
      "title": "롯데리아 동탄역사점",
      "description": "경기 화성시 오산동 산 88-45",
      "url": "http://place.map.kakao.com/481340521",
      "region": "경기도"
    },
    {
      "lat": 37.209413004497726,
      "lng": 126.81826581687967,
      "title": "롯데리아 화성남양점",
      "description": "경기 화성시 남양읍 남양시장로66번길 9-17",
      "url": "http://place.map.kakao.com/10352282",
      "region": "경기도"
    },
    {
      "lat": 37.20270694220093,
      "lng": 127.09823729807141,
      "title": "롯데리아 동탄CGV점",
      "description": "경기 화성시 동탄대로 537",
      "url": "http://place.map.kakao.com/1087523585",
      "region": "경기도"
    },
    {
      "lat": 37.115739457682764,
      "lng": 126.91319423436025,
      "title": "롯데리아 향남2신도시점",
      "description": "경기 화성시 향남읍 발안양감로 211",
      "url": "http://place.map.kakao.com/1160486078",
      "region": "경기도"
    },
    {
      "lat": 37.224822423109,
      "lng": 126.94716555398793,
      "title": "롯데리아 화성봉담2지구점",
      "description": "경기 화성시 봉담읍 상리2길 55",
      "url": "http://place.map.kakao.com/1233228581",
      "region": "경기도"
    },
    {
      "lat": 37.23519142431516,
      "lng": 126.8706827162176,
      "title": "롯데리아 화성비봉점",
      "description": "경기 화성시 비봉면 양노로 78-5",
      "url": "http://place.map.kakao.com/1568062813",
      "region": "경기도"
    },
    {
      "lat": 37.16752843329781,
      "lng": 127.10709554245929,
      "title": "롯데리아 동탄호수공원점",
      "description": "경기 화성시 동탄순환대로 127-19",
      "url": "http://place.map.kakao.com/759114735",
      "region": "경기도"
    },
    {
      "lat": 37.029793365376214,
      "lng": 126.94080488373697,
      "title": "롯데리아 평택청북DT점",
      "description": "경기 평택시 청북읍 서해로 1538-1",
      "url": "http://place.map.kakao.com/27400988",
      "region": "경기도"
    },
    {
      "lat": 36.9918704817608,
      "lng": 127.08822621798,
      "title": "롯데리아 평택중앙점",
      "description": "경기 평택시 평택2로10번길 10-3",
      "url": "http://place.map.kakao.com/7858815",
      "region": "경기도"
    },
    {
      "lat": 37.0674759402561,
      "lng": 127.063409561454,
      "title": "롯데리아 평택송탄점",
      "description": "경기 평택시 특구로 24",
      "url": "http://place.map.kakao.com/13017053",
      "region": "경기도"
    },
    {
      "lat": 37.047981462489375,
      "lng": 127.04514381248876,
      "title": "롯데리아 평택고덕국제점",
      "description": "경기 평택시 고덕중앙로 218",
      "url": "http://place.map.kakao.com/232938757",
      "region": "경기도"
    },
    {
      "lat": 37.0043326343091,
      "lng": 127.103610253856,
      "title": "롯데리아 평택비전점",
      "description": "경기 평택시 만세로 1843",
      "url": "http://place.map.kakao.com/26809421",
      "region": "경기도"
    },
    {
      "lat": 37.116140688147915,
      "lng": 127.06368415422753,
      "title": "롯데리아 평택진위DT점",
      "description": "경기 평택시 진위면 경기대로 1929",
      "url": "http://place.map.kakao.com/430729942",
      "region": "경기도"
    },
    {
      "lat": 36.98885067182767,
      "lng": 126.92880400684734,
      "title": "롯데리아 평택안중점",
      "description": "경기 평택시 안중읍 안중로 109-2",
      "url": "http://place.map.kakao.com/11079713",
      "region": "경기도"
    },
    {
      "lat": 36.9867289972359,
      "lng": 126.845707774813,
      "title": "롯데리아 평택포승점",
      "description": "경기 평택시 포승읍 여술2길 15",
      "url": "http://place.map.kakao.com/802024369",
      "region": "경기도"
    },
    {
      "lat": 36.9767620453026,
      "lng": 126.92353442441,
      "title": "롯데리아 평택안중D/I점",
      "description": "경기 평택시 안중읍 안현로서9길 5",
      "url": "http://place.map.kakao.com/2074647028",
      "region": "경기도"
    },
    {
      "lat": 37.0566382431966,
      "lng": 127.057296812752,
      "title": "롯데리아 평택서정점",
      "description": "경기 평택시 정암로 32",
      "url": "http://place.map.kakao.com/285802942",
      "region": "경기도"
    },
    {
      "lat": 36.98972071721214,
      "lng": 127.11342826172978,
      "title": "롯데리아 평택시청점",
      "description": "경기 평택시 평택5로20번길 35",
      "url": "http://place.map.kakao.com/17941905",
      "region": "경기도"
    },
    {
      "lat": 37.0800045414095,
      "lng": 127.063204065495,
      "title": "롯데리아 평택지산점",
      "description": "경기 평택시 지산로 76",
      "url": "http://place.map.kakao.com/26305936",
      "region": "경기도"
    },
    {
      "lat": 37.018433663345206,
      "lng": 126.91577723193511,
      "title": "롯데리아 평택청북점",
      "description": "경기 평택시 청북읍 안청로 340",
      "url": "http://place.map.kakao.com/790588288",
      "region": "경기도"
    },
    {
      "lat": 37.0365737937981,
      "lng": 127.027682669298,
      "title": "롯데리아 평택고덕에듀점",
      "description": "경기 평택시 고덕로 247",
      "url": "http://place.map.kakao.com/784151387",
      "region": "경기도"
    },
    {
      "lat": 37.00099639011688,
      "lng": 127.07831658728946,
      "title": "롯데리아 평택세교점",
      "description": "경기 평택시 세교로 5",
      "url": "http://place.map.kakao.com/1558301563",
      "region": "경기도"
    },
    {
      "lat": 36.9645619881296,
      "lng": 127.063081557864,
      "title": "롯데리아 평택팽성점",
      "description": "경기 평택시 팽성읍 동서촌로 97",
      "url": "http://place.map.kakao.com/11731899",
      "region": "경기도"
    },
    {
      "lat": 37.01689282129011,
      "lng": 127.09382754831172,
      "title": "롯데리아 평택동삭점",
      "description": "경기 평택시 지제동삭2로 181-24",
      "url": "http://place.map.kakao.com/442956486",
      "region": "경기도"
    },
    {
      "lat": 36.9944548375106,
      "lng": 127.140542109594,
      "title": "롯데리아 안성공도DT점",
      "description": "경기 안성시 공도읍 서동대로 3904-6",
      "url": "http://place.map.kakao.com/17135850",
      "region": "경기도"
    },
    {
      "lat": 36.9985069111723,
      "lng": 127.165109886048,
      "title": "롯데리아 안성공도터미널DT점",
      "description": "경기 안성시 공도읍 공도로 35",
      "url": "http://place.map.kakao.com/2145667449",
      "region": "경기도"
    },
    {
      "lat": 37.0086524270361,
      "lng": 127.195768318122,
      "title": "롯데리아 안성대림점",
      "description": "경기 안성시 공도읍 서동대로 4441",
      "url": "http://place.map.kakao.com/1059110134",
      "region": "경기도"
    },
    {
      "lat": 36.9165993746987,
      "lng": 127.132368494925,
      "title": "롯데리아 성환점",
      "description": "충남 천안시 서북구 성환읍 성환2로 105",
      "url": "http://place.map.kakao.com/10355932",
      "region": "충청남도"
    },
    {
      "lat": 36.9232481416067,
      "lng": 127.057220417125,
      "title": "롯데리아 아산테크노밸리점",
      "description": "충남 아산시 둔포면 아산밸리중앙로 82",
      "url": "http://place.map.kakao.com/598448304",
      "region": "충청남도"
    },
    {
      "lat": 36.92754244123991,
      "lng": 127.03770649181983,
      "title": "롯데리아 아산둔포점",
      "description": "충남 아산시 둔포면 둔포중앙로 148",
      "url": "http://place.map.kakao.com/11737269",
      "region": "충청남도"
    },
    {
      "lat": 37.00150046467665,
      "lng": 127.22433325640407,
      "title": "롯데리아 안성중앙대점",
      "description": "경기 안성시 대덕면 중앙대학로 117",
      "url": "http://place.map.kakao.com/759565565",
      "region": "경기도"
    },
    {
      "lat": 37.0858925853148,
      "lng": 127.152061357491,
      "title": "롯데리아 안성물류센터",
      "description": "경기 안성시 원곡면 천덕산로 535",
      "url": "http://place.map.kakao.com/467736673",
      "region": "경기도"
    },
    {
      "lat": 37.00710844214677,
      "lng": 127.25819218430638,
      "title": "롯데리아 안성아양점",
      "description": "경기 안성시 아양1로 77-25",
      "url": "http://place.map.kakao.com/1364949371",
      "region": "경기도"
    },
    {
      "lat": 37.007499982534554,
      "lng": 127.27091664768648,
      "title": "롯데리아 안성중앙점",
      "description": "경기 안성시 중앙로 397",
      "url": "http://place.map.kakao.com/11082775",
      "region": "경기도"
    },
    {
      "lat": 36.8768750552003,
      "lng": 127.150806991523,
      "title": "롯데리아 천안직산점",
      "description": "충남 천안시 서북구 직산읍 봉주로 38",
      "url": "http://place.map.kakao.com/7862419",
      "region": "충청남도"
    },
    {
      "lat": 36.872919889099826,
      "lng": 127.20143644034546,
      "title": "롯데리아 천안성거점",
      "description": "충남 천안시 서북구 성거읍 성거길 86",
      "url": "http://place.map.kakao.com/25763575",
      "region": "충청남도"
    },
    {
      "lat": 36.84172757751859,
      "lng": 127.12514932796614,
      "title": "롯데리아 천안성성레이크시티점",
      "description": "충남 천안시 서북구 성성6로 49",
      "url": "http://place.map.kakao.com/80322995",
      "region": "충청남도"
    },
    {
      "lat": 36.96812765146899,
      "lng": 127.2742650213679,
      "title": "롯데리아 안성맞춤휴게소하점",
      "description": "경기 안성시 서운면 평택제천고속도로 40",
      "url": "http://place.map.kakao.com/1889554134",
      "region": "경기도"
    },
    {
      "lat": 36.8496670880438,
      "lng": 127.1550748068,
      "title": "롯데리아 천안신당점",
      "description": "충남 천안시 서북구 천안대로 1215",
      "url": "http://place.map.kakao.com/1177519162",
      "region": "충청남도"
    },
    {
      "lat": 36.8414212952408,
      "lng": 127.104529123571,
      "title": "롯데리아 천안차암점",
      "description": "충남 천안시 서북구 3공단6로 58-5",
      "url": "http://place.map.kakao.com/25753024",
      "region": "충청남도"
    },
    {
      "lat": 37.14532053319769,
      "lng": 127.07033835747086,
      "title": "롯데리아 오산원동점",
      "description": "경기 오산시 원동로37번길 37",
      "url": "http://place.map.kakao.com/21287655",
      "region": "경기도"
    },
    {
      "lat": 36.829919393901065,
      "lng": 127.1335081142765,
      "title": "롯데리아 천안성정점",
      "description": "충남 천안시 서북구 서부대로 704",
      "url": "http://place.map.kakao.com/21092797",
      "region": "충청남도"
    },
    {
      "lat": 36.8356324007599,
      "lng": 127.145793417427,
      "title": "롯데리아 천안두정점",
      "description": "충남 천안시 서북구 봉정로 380",
      "url": "http://place.map.kakao.com/10361545",
      "region": "충청남도"
    },
    {
      "lat": 36.83994582082399,
      "lng": 127.17467333047796,
      "title": "롯데리아 천안안서DT점",
      "description": "충남 천안시 동남구 망향로 190",
      "url": "http://place.map.kakao.com/21027554",
      "region": "충청남도"
    },
    {
      "lat": 37.149753766793715,
      "lng": 127.07328043407689,
      "title": "롯데리아 롯데마트오산점",
      "description": "경기 오산시 경기대로 271",
      "url": "http://place.map.kakao.com/22643156",
      "region": "경기도"
    },
    {
      "lat": 36.8259680446187,
      "lng": 127.14053824583,
      "title": "롯데리아 롯데마트천안성정점",
      "description": "충남 천안시 서북구 성정두정로 1",
      "url": "http://place.map.kakao.com/7857335",
      "region": "충청남도"
    },
    {
      "lat": 36.8311888712434,
      "lng": 127.177109472759,
      "title": "롯데리아 천안안서점",
      "description": "충남 천안시 동남구 중암2길 23",
      "url": "http://place.map.kakao.com/20014483",
      "region": "충청남도"
    },