{
  "pins": [
    {
      "lat": 37.48526605531577,
      "lng": 127.03723875034534,
      "title": "파리바게뜨 양재본점",
      "description": "서울 강남구 남부순환로 2627",
      "url": "http://place.map.kakao.com/1798325788",
      "region": "서울특별시"
    },
    {
      "lat": 37.51553063436047,
      "lng": 127.01930839802107,
      "title": "파리바게뜨 카페신사점",
      "description": "서울 서초구 강남대로 603",
      "url": "http://place.map.kakao.com/8118369",
      "region": "서울특별시"
    },
    {
      "lat": 37.55706960288842,
      "lng": 126.93709688676455,
      "title": "파리바게뜨 카페신촌점",
      "description": "서울 서대문구 연세로4길 1",
      "url": "http://place.map.kakao.com/8118370",
      "region": "서울특별시"
    },
    {
      "lat": 37.57224706540887,
      "lng": 126.9827643544862,
      "title": "파리바게뜨 종로구청점",
      "description": "서울 종로구 삼봉로 95",
      "url": "http://place.map.kakao.com/36372743",
      "region": "서울특별시"
    },
    {
      "lat": 37.59477051576148,
      "lng": 127.08619512846724,
      "title": "파리바게뜨 상봉역점",
      "description": "서울 중랑구 면목로 480",
      "url": "http://place.map.kakao.com/1901321398",
      "region": "서울특별시"
    },
    {
      "lat": 37.57661669190941,
      "lng": 126.97226467972024,
      "title": "파리바게뜨 경복궁역점",
      "description": "서울 종로구 자하문로 5",
      "url": "http://place.map.kakao.com/12353565",
      "region": "서울특별시"
    },
    {
      "lat": 37.637987254279864,
      "lng": 127.02528254655614,
      "title": "파리바게뜨 카페수유역점",
      "description": "서울 강북구 도봉로 337",
      "url": "http://place.map.kakao.com/8118368",
      "region": "서울특별시"
    },
    {
      "lat": 37.567021854142126,
      "lng": 126.98058323859394,
      "title": "파리바게뜨 무교점",
      "description": "서울 중구 남대문로9길 40",
      "url": "http://place.map.kakao.com/15284545",
      "region": "서울특별시"
    },
    {
      "lat": 37.47874534480418,
      "lng": 126.9813443682757,
      "title": "파리바게뜨 사당역점",
      "description": "서울 동작구 동작대로 25",
      "url": "http://place.map.kakao.com/8117522",
      "region": "서울특별시"
    },
    {
      "lat": 37.524146131014106,
      "lng": 127.04976188920304,
      "title": "파리바게뜨 청담사거리점",
      "description": "서울 강남구 도산대로 518",
      "url": "http://place.map.kakao.com/12341692",
      "region": "서울특별시"
    },
    {
      "lat": 37.560542514917586,
      "lng": 126.98486542799222,
      "title": "파리바게뜨 명동역남산점",
      "description": "서울 중구 퇴계로 118",
      "url": "http://place.map.kakao.com/19208239",
      "region": "서울특별시"
    },
    {
      "lat": 37.50631687147557,
      "lng": 127.02464317351391,
      "title": "파리바게뜨 신논현교보타워점",
      "description": "서울 강남구 강남대로118길 12",
      "url": "http://place.map.kakao.com/8850930",
      "region": "서울특별시"
    },
    {
      "lat": 37.4967987599317,
      "lng": 127.028162636765,
      "title": "파리바게뜨 신분당선강남역점",
      "description": "서울 강남구 강남대로 지하 396",
      "url": "http://place.map.kakao.com/14809347",
      "region": "서울특별시"
    },
    {
      "lat": 37.6545783319348,
      "lng": 127.062885552943,
      "title": "파리바게뜨 노원중앙점",
      "description": "서울 노원구 노해로 494",
      "url": "http://place.map.kakao.com/8116969",
      "region": "서울특별시"
    },
    {
      "lat": 37.557497440788055,
      "lng": 126.91911731846467,
      "title": "파리바게뜨 서교점",
      "description": "서울 마포구 월드컵북로 34",
      "url": "http://place.map.kakao.com/8568360",
      "region": "서울특별시"
    },
    {
      "lat": 37.5296705121132,
      "lng": 127.133910371446,
      "title": "파리바게뜨 성내중앙점",
      "description": "서울 강동구 풍성로 197",
      "url": "http://place.map.kakao.com/17011452",
      "region": "서울특별시"
    },
    {
      "lat": 37.54802399882775,
      "lng": 126.91353621625412,
      "title": "파리바게뜨 합정역사거리점",
      "description": "서울 마포구 성지길 13",
      "url": "http://place.map.kakao.com/12064829",
      "region": "서울특별시"
    },
    {
      "lat": 37.494331808128116,
      "lng": 127.12270085659502,
      "title": "파리바게뜨 경찰병원역점",
      "description": "서울 송파구 중대로 132",
      "url": "http://place.map.kakao.com/12353680",
      "region": "서울특별시"
    },
    {
      "lat": 37.585827127401885,
      "lng": 127.02948005056727,
      "title": "파리바게뜨 안암역점",
      "description": "서울 성북구 고려대로24길 9",
      "url": "http://place.map.kakao.com/15664680",
      "region": "서울특별시"
    },
    {
      "lat": 37.56065855068567,
      "lng": 126.85539063203879,
      "title": "파리바게뜨 가양역점",
      "description": "서울 강서구 양천로 500",
      "url": "http://place.map.kakao.com/8116633",
      "region": "서울특별시"
    },
    {
      "lat": 37.50571947285297,
      "lng": 127.04814366089732,
      "title": "파리바게뜨 카페선릉점",
      "description": "서울 강남구 선릉로 517",
      "url": "http://place.map.kakao.com/12341699",
      "region": "서울특별시"
    },
    {
      "lat": 37.56370113979797,
      "lng": 127.03051037564428,
      "title": "파리바게뜨 왕십리무학점",
      "description": "서울 성동구 왕십리로 355",
      "url": "http://place.map.kakao.com/17006057",
      "region": "서울특별시"
    },
    {
      "lat": 37.547208087568634,
      "lng": 126.87477390931448,
      "title": "파리바게뜨 염창역점",
      "description": "서울 강서구 공항대로 629",
      "url": "http://place.map.kakao.com/11225092",
      "region": "서울특별시"
    },
    {
      "lat": 37.55640232483338,
      "lng": 127.07881605823339,
      "title": "파리바게뜨 군자역점",
      "description": "서울 광진구 능동로 297",
      "url": "http://place.map.kakao.com/10889142",
      "region": "서울특별시"
    },
    {
      "lat": 37.56513582461035,
      "lng": 127.05466075371417,
      "title": "파리바게뜨 답십리역점",
      "description": "서울 성동구 천호대로 312-1",
      "url": "http://place.map.kakao.com/8116971",
      "region": "서울특별시"
    },
    {
      "lat": 37.469732922517366,
      "lng": 127.04181497779933,
      "title": "파리바게뜨 양재2호점",
      "description": "서울 서초구 동산로 20",
      "url": "http://place.map.kakao.com/8114947",
      "region": "서울특별시"
    },
    {
      "lat": 37.53835057030879,
      "lng": 127.08928922021697,
      "title": "파리바게뜨 광진구청점",
      "description": "서울 광진구 구의로 4",
      "url": "http://place.map.kakao.com/8565282",
      "region": "서울특별시"
    },
    {
      "lat": 37.54009732304702,
      "lng": 126.94584294388088,
      "title": "파리바게뜨 마포역점",
      "description": "서울 마포구 마포대로 33",
      "url": "http://place.map.kakao.com/8121374",
      "region": "서울특별시"
    },
    {
      "lat": 37.545086776971935,
      "lng": 127.14299620866498,
      "title": "파리바게뜨 굽은다리역점",
      "description": "서울 강동구 양재대로 1564",
      "url": "http://place.map.kakao.com/9661210",
      "region": "서울특별시"
    },
    {
      "lat": 37.53797006432653,
      "lng": 127.13589283570667,
      "title": "파리바게뜨 강동역점",
      "description": "서울 강동구 성안로 170",
      "url": "http://place.map.kakao.com/10890859",
      "region": "서울특별시"
    },
    {
      "lat": 37.57176947739691,
      "lng": 126.97285510719993,
      "title": "파리바게뜨 광화문점",
      "description": "서울 종로구 세종대로23길 54",
      "url": "http://place.map.kakao.com/12353610",
      "region": "서울특별시"
    },
    {
      "lat": 37.61932691460379,
      "lng": 126.92144944568624,
      "title": "파리바게뜨 연신내역점",
      "description": "서울 은평구 통일로 850",
      "url": "http://place.map.kakao.com/12353613",
      "region": "서울특별시"
    },
    {
      "lat": 37.51759439194935,
      "lng": 126.90630928257514,
      "title": "파리바게뜨 영등포점",
      "description": "서울 영등포구 영중로 12",
      "url": "http://place.map.kakao.com/12353689",
      "region": "서울특별시"
    },
    {
      "lat": 37.503651150767574,
      "lng": 127.04718667900674,
      "title": "파리바게뜨 PB선릉아이타워점",
      "description": "서울 강남구 테헤란로 326",
      "url": "http://place.map.kakao.com/15289795",
      "region": "서울특별시"
    },
    {
      "lat": 37.562048961164585,
      "lng": 126.97432209493287,
      "title": "파리바게뜨 서소문점",
      "description": "서울 중구 세종대로11길 27",
      "url": "http://place.map.kakao.com/8125795",
      "region": "서울특별시"
    },
    {
      "lat": 37.48983529180899,
      "lng": 127.0074945642958,
      "title": "파리바게뜨 카페서초역점",
      "description": "서울 서초구 반포대로27길 13",
      "url": "http://place.map.kakao.com/27300566",
      "region": "서울특별시"
    },
    {
      "lat": 37.5835430080983,
      "lng": 126.970115537331,
      "title": "파리바게뜨 청와대점",
      "description": "서울 종로구 자하문로 85",
      "url": "http://place.map.kakao.com/821191762",
      "region": "서울특별시"
    },
    {
      "lat": 37.58884813286509,
      "lng": 127.0876409607406,
      "title": "파리바게뜨 면목역점",
      "description": "서울 중랑구 면목로 414",
      "url": "http://place.map.kakao.com/12353606",
      "region": "서울특별시"
    },
    {
      "lat": 37.535473984879964,
      "lng": 127.09354676072283,
      "title": "파리바게뜨 동서울터미널점",
      "description": "서울 광진구 강변역로4길 10",
      "url": "http://place.map.kakao.com/8619799",
      "region": "서울특별시"
    },
    {
      "lat": 37.53335568185281,
      "lng": 127.00614576306573,
      "title": "파리바게뜨 한남점",
      "description": "서울 용산구 대사관로 73",
      "url": "http://place.map.kakao.com/8123634",
      "region": "서울특별시"
    },
    {
      "lat": 37.5721507291761,
      "lng": 126.977791560955,
      "title": "파리바게뜨 광화문1945점",
      "description": "서울 종로구 세종대로 178",
      "url": "http://place.map.kakao.com/1076610830",
      "region": "서울특별시"
    },
    {
      "lat": 37.49091665011501,
      "lng": 126.90760567175845,
      "title": "파리바게뜨 대림성모점",
      "description": "서울 영등포구 시흥대로 663",
      "url": "http://place.map.kakao.com/61568191",
      "region": "서울특별시"
    },
    {
      "lat": 37.48208311785625,
      "lng": 126.91472818613515,
      "title": "파리바게뜨 난곡사거리점",
      "description": "서울 관악구 난곡로 316",
      "url": "http://place.map.kakao.com/21409641",
      "region": "서울특별시"
    },
    {
      "lat": 37.540865499465,
      "lng": 127.12395158271917,
      "title": "파리바게뜨 천호중앙점",
      "description": "서울 강동구 올림픽로 665",
      "url": "http://place.map.kakao.com/12764171",
      "region": "서울특별시"
    },
    {
      "lat": 37.50958525790042,
      "lng": 127.02242627698409,
      "title": "파리바게뜨 강남영동점",
      "description": "서울 강남구 강남대로 532",
      "url": "http://place.map.kakao.com/12341696",
      "region": "서울특별시"
    },
    {
      "lat": 35.13664788497511,
      "lng": 129.10010203839877,
      "title": "파리바게뜨 경성대점",
      "description": "부산 남구 용소로 6",
      "url": "http://place.map.kakao.com/18995882",
      "region": "부산광역시"
    },
    {
      "lat": 35.20996069391974,
      "lng": 129.00675449540796,
      "title": "파리바게뜨 부산덕천점",
      "description": "부산 북구 덕천1길 21",
      "url": "http://place.map.kakao.com/11966105",
      "region": "부산광역시"
    },
    {
      "lat": 35.15335670943,
      "lng": 129.058926417315,
      "title": "파리바게뜨 서면삼정점",
      "description": "부산 부산진구 중앙대로 679",
      "url": "http://place.map.kakao.com/209654043",
      "region": "부산광역시"
    },
    {
      "lat": 35.098345440452704,
      "lng": 128.99411850730382,
      "title": "파리바게뜨 부산괴정점",
      "description": "부산 사하구 사하로186번길 6",
      "url": "http://place.map.kakao.com/10904596",
      "region": "부산광역시"
    },
    {
      "lat": 35.16327345510535,
      "lng": 129.16210916481114,
      "title": "파리바게뜨 해운대역점",
      "description": "부산 해운대구 중동1로 21-1",
      "url": "http://place.map.kakao.com/18518649",
      "region": "부산광역시"
    },
    {
      "lat": 35.15787674919609,
      "lng": 129.0563387861966,
      "title": "파리바게뜨 서면롯데점",
      "description": "부산 부산진구 가야대로 775",
      "url": "http://place.map.kakao.com/8125794",
      "region": "부산광역시"
    },
    {
      "lat": 35.161359209146504,
      "lng": 129.06346926153003,
      "title": "파리바게뜨 부산부전역점",
      "description": "부산 부산진구 동성로 144",
      "url": "http://place.map.kakao.com/12354640",
      "region": "부산광역시"
    },
    {
      "lat": 35.200520290654715,
      "lng": 129.09934677140365,
      "title": "파리바게뜨 안락서원점",
      "description": "부산 동래구 안락로 22",
      "url": "http://place.map.kakao.com/12354682",
      "region": "부산광역시"
    },
    {
      "lat": 35.18081305903435,
      "lng": 129.07777114855267,
      "title": "파리바게뜨 부산시청점",
      "description": "부산 연제구 중앙대로 1036",
      "url": "http://place.map.kakao.com/15536336",
      "region": "부산광역시"
    },
    {
      "lat": 35.14676761307878,
      "lng": 129.11208836156953,
      "title": "파리바게뜨 수영구청점",
      "description": "부산 수영구 광남로 48",
      "url": "http://place.map.kakao.com/8566272",
      "region": "부산광역시"
    },
    {
      "lat": 35.15459290851713,
      "lng": 129.06624008062374,
      "title": "파리바게뜨 부산전포점",
      "description": "부산 부산진구 서전로58번길 69",
      "url": "http://place.map.kakao.com/21238917",
      "region": "부산광역시"
    },
    {
      "lat": 35.2351762252716,
      "lng": 129.011254975284,
      "title": "파리바게뜨 부산화명점",
      "description": "부산 북구 화명대로 27",
      "url": "http://place.map.kakao.com/8123637",
      "region": "부산광역시"
    },
    {
      "lat": 35.148528916687305,
      "lng": 129.05947184097252,
      "title": "파리바게뜨 부산범내골점",
      "description": "부산 부산진구 중앙대로 626",
      "url": "http://place.map.kakao.com/12354692",
      "region": "부산광역시"
    },
    {
      "lat": 35.15593055763173,
      "lng": 128.98342886298875,
      "title": "파리바게뜨 부산감전점",
      "description": "부산 사상구 새벽로 166",
      "url": "http://place.map.kakao.com/12354695",
      "region": "부산광역시"
    },
    {
      "lat": 35.103048767507445,
      "lng": 129.02977866994988,
      "title": "파리바게뜨 부산대청점",
      "description": "부산 중구 대청로 89-2",
      "url": "http://place.map.kakao.com/1990617859",
      "region": "부산광역시"
    },
    {
      "lat": 35.204883158780696,
      "lng": 129.0774928146443,
      "title": "파리바게뜨 동래내성점",
      "description": "부산 동래구 충렬대로 157",
      "url": "http://place.map.kakao.com/8117017",
      "region": "부산광역시"
    },
    {
      "lat": 35.2055012865963,
      "lng": 129.067708334213,
      "title": "파리바게뜨 부산미남점",
      "description": "부산 동래구 아시아드대로 241",
      "url": "http://place.map.kakao.com/1527131956",
      "region": "부산광역시"
    },
    {
      "lat": 35.1870429046049,
      "lng": 129.082691569532,
      "title": "파리바게뜨 연산로타리점",
      "description": "부산 연제구 반송로 15",
      "url": "http://place.map.kakao.com/27277623",
      "region": "부산광역시"
    },
    {
      "lat": 35.1711462601027,
      "lng": 129.07009515970995,
      "title": "파리바게뜨 부산양정점",
      "description": "부산 부산진구 중앙대로 908",
      "url": "http://place.map.kakao.com/8121677",
      "region": "부산광역시"
    },
    {
      "lat": 35.22222261636106,
      "lng": 129.0845435609427,
      "title": "파리바게뜨 온천스카이점",
      "description": "부산 동래구 온천장로125번길 11",
      "url": "http://place.map.kakao.com/13024659",
      "region": "부산광역시"
    },
    {
      "lat": 35.09841174819195,
      "lng": 129.03120538280328,
      "title": "파리바게뜨 부산남포점",
      "description": "부산 중구 구덕로 42",
      "url": "http://place.map.kakao.com/13283307",
      "region": "부산광역시"
    },
    {
      "lat": 35.2054534750453,
      "lng": 129.081747589176,
      "title": "파리바게뜨 동래역점",
      "description": "부산 동래구 명륜로129번길 8",
      "url": "http://place.map.kakao.com/8117018",
      "region": "부산광역시"
    },
    {
      "lat": 35.15009340512806,
      "lng": 129.00337385494015,
      "title": "파리바게뜨 부산주례점",
      "description": "부산 사상구 가야대로282번길 1",
      "url": "http://place.map.kakao.com/9065285",
      "region": "부산광역시"
    },
    {
      "lat": 35.266314444528945,
      "lng": 129.22594492894072,
      "title": "파리바게뜨 일광신도시점",
      "description": "부산 기장군 일광읍 해빛로 17",
      "url": "http://place.map.kakao.com/1780443949",
      "region": "부산광역시"
    },
    {
      "lat": 35.15929803262304,
      "lng": 129.1132309422094,
      "title": "파리바게뜨 부산광안",
      "description": "부산 수영구 수영로 599-2",
      "url": "http://place.map.kakao.com/19387257",
      "region": "부산광역시"
    },
    {
      "lat": 35.102249002021594,
      "lng": 129.02500961843694,
      "title": "파리바게뜨 부산부평점",
      "description": "부산 중구 흑교로 29",
      "url": "http://place.map.kakao.com/10904599",
      "region": "부산광역시"
    },
    {
      "lat": 35.1642670415352,
      "lng": 128.983832143828,
      "title": "파리바게뜨 부산사상점",
      "description": "부산 사상구 사상로 214",
      "url": "http://place.map.kakao.com/18906734",
      "region": "부산광역시"
    },
    {
      "lat": 35.2316274759909,
      "lng": 129.085039018497,
      "title": "파리바게뜨 부산대점",
      "description": "부산 금정구 부산대학로 58",
      "url": "http://place.map.kakao.com/8125495",
      "region": "부산광역시"
    },
    {
      "lat": 35.24523895929858,
      "lng": 129.21618773475032,
      "title": "파리바게뜨 부산기장점",
      "description": "부산 기장군 기장읍 읍내로 107-1",
      "url": "http://place.map.kakao.com/8620609",
      "region": "부산광역시"
    },
    {
      "lat": 35.1447749442638,
      "lng": 129.062686165461,
      "title": "파리바게뜨 부산금융단지점",
      "description": "부산 부산진구 중앙번영로 32",
      "url": "http://place.map.kakao.com/13039236",
      "region": "부산광역시"
    },
    {
      "lat": 35.0983251857509,
      "lng": 128.920314060799,
      "title": "파리바게뜨 명지국제신도시점",
      "description": "부산 강서구 명지국제8로 251",
      "url": "http://place.map.kakao.com/391745456",
      "region": "부산광역시"
    },
    {
      "lat": 35.13566803930634,
      "lng": 129.08713559142416,
      "title": "파리바게뜨 부산남구청점",
      "description": "부산 남구 못골로 42",
      "url": "http://place.map.kakao.com/13024690",
      "region": "부산광역시"
    },
    {
      "lat": 35.14805330756058,
      "lng": 129.0234768779373,
      "title": "파리바게뜨 가야벽산점",
      "description": "부산 부산진구 엄광로 67",
      "url": "http://place.map.kakao.com/13024681",
      "region": "부산광역시"
    },
    {
      "lat": 35.18250875738948,
      "lng": 129.07174002928005,
      "title": "파리바게뜨 거제시장점",
      "description": "부산 연제구 거제천로87번길 29",
      "url": "http://place.map.kakao.com/21657890",
      "region": "부산광역시"
    },
    {
      "lat": 35.13909587889795,
      "lng": 129.10842784429164,
      "title": "파리바게뜨 부산남천점",
      "description": "부산 수영구 황령대로489번길 24",
      "url": "http://place.map.kakao.com/25746189",
      "region": "부산광역시"
    },
    {
      "lat": 35.1972255195493,
      "lng": 129.06583529056383,
      "title": "파리바게뜨 사직롯데점",
      "description": "부산 동래구 아시아드대로 144",
      "url": "http://place.map.kakao.com/1245634543",
      "region": "부산광역시"
    },
    {
      "lat": 35.113336850113924,
      "lng": 129.01588846134396,
      "title": "파리바게뜨 동대신점",
      "description": "부산 서구 구덕로 331-1",
      "url": "http://place.map.kakao.com/8568356",
      "region": "부산광역시"
    },
    {
      "lat": 35.12711064600315,
      "lng": 129.10909279465992,
      "title": "파리바게뜨 LG메트로점",
      "description": "부산 남구 분포로 113",
      "url": "http://place.map.kakao.com/10890857",
      "region": "부산광역시"
    },
    {
      "lat": 35.2118105509746,
      "lng": 129.013063261691,
      "title": "파리바게뜨 덕천포레나점",
      "description": "부산 북구 만덕대로 74",
      "url": "http://place.map.kakao.com/771230728",
      "region": "부산광역시"
    },
    {
      "lat": 35.13889586169909,
      "lng": 129.06135627221695,
      "title": "파리바게뜨 부산범일조방점",
      "description": "부산 동구 범일로102번길 16-3",
      "url": "http://place.map.kakao.com/1815014769",
      "region": "부산광역시"
    },
    {
      "lat": 35.1762157967507,
      "lng": 129.10720655098,
      "title": "파리바게뜨 부산망미점",
      "description": "부산 수영구 과정로 53-1",
      "url": "http://place.map.kakao.com/13024652",
      "region": "부산광역시"
    },
    {
      "lat": 35.169898796826786,
      "lng": 129.17758839913915,
      "title": "파리바게뜨 해운대장산점",
      "description": "부산 해운대구 해운대로 814",
      "url": "http://place.map.kakao.com/10891285",
      "region": "부산광역시"
    },
    {
      "lat": 35.1132844747602,
      "lng": 128.963981583293,
      "title": "파리바게뜨 동아대점",
      "description": "부산 사하구 낙동대로 552",
      "url": "http://place.map.kakao.com/8125157",
      "region": "부산광역시"
    },
    {
      "lat": 35.1722583915959,
      "lng": 129.049428954851,
      "title": "파리바게뜨 연지한신점",
      "description": "부산 부산진구 새싹로 177",
      "url": "http://place.map.kakao.com/911337388",
      "region": "부산광역시"
    },
    {
      "lat": 35.10414833688261,
      "lng": 129.0357340947339,
      "title": "파리바게뜨 중앙반도점",
      "description": "부산 중구 해관로 60",
      "url": "http://place.map.kakao.com/14500177",
      "region": "부산광역시"
    },
    {
      "lat": 35.87706585378002,
      "lng": 128.62912981050883,
      "title": "파리바게뜨 동대구터미널점",
      "description": "대구 동구 동부로 154",
      "url": "http://place.map.kakao.com/8114431",
      "region": "대구광역시"
    },
    {
      "lat": 35.86305222483437,
      "lng": 128.62645889427057,
      "title": "파리바게뜨 대구법원점",
      "description": "대구 수성구 동대구로 365",
      "url": "http://place.map.kakao.com/8561205",
      "region": "대구광역시"
    },
    {
      "lat": 35.86311654819494,
      "lng": 128.5773781792478,
      "title": "파리바게뜨 대구남산점",
      "description": "대구 중구 달구벌대로 1950",
      "url": "http://place.map.kakao.com/8116884",
      "region": "대구광역시"
    },
    {
      "lat": 35.86959637878073,
      "lng": 128.59391997211316,
      "title": "파리바게뜨 대구중앙로점",
      "description": "대구 중구 중앙대로 410",
      "url": "http://place.map.kakao.com/11223961",
      "region": "대구광역시"
    },
    {
      "lat": 35.86957484936513,
      "lng": 128.58205322339055,
      "title": "파리바게뜨 서문시장역점",
      "description": "대구 중구 달성로 51",
      "url": "http://place.map.kakao.com/26848226",
      "region": "대구광역시"
    },
    {
      "lat": 35.881907194528225,
      "lng": 128.61708349991375,
      "title": "파리바게뜨 대구신암점",
      "description": "대구 동구 아양로 29",
      "url": "http://place.map.kakao.com/8567547",
      "region": "대구광역시"
    },
    {
      "lat": 35.9209330391164,
      "lng": 128.599028761404,
      "title": "파리바게뜨 대구서변점",
      "description": "대구 북구 호국로 215",
      "url": "http://place.map.kakao.com/8619796",
      "region": "대구광역시"
    },
    {
      "lat": 35.885411946362524,
      "lng": 128.63397546297173,
      "title": "파리바게뜨 대구동구청점",
      "description": "대구 동구 아양로 190",
      "url": "http://place.map.kakao.com/10892361",
      "region": "대구광역시"
    },
    {
      "lat": 35.877775819582716,
      "lng": 128.62939182054183,
      "title": "파리바게뜨 신세계터미널점",
      "description": "대구 동구 동부로 149",
      "url": "http://place.map.kakao.com/2100380111",
      "region": "대구광역시"
    },
    {
      "lat": 35.85845367676098,
      "lng": 128.63237360134568,
      "title": "파리바게뜨 대구범어점",
      "description": "대구 수성구 달구벌대로 2466",
      "url": "http://place.map.kakao.com/8116886",
      "region": "대구광역시"
    },
    {
      "lat": 35.8656431580042,
      "lng": 128.603053931409,
      "title": "파리바게뜨 경대병원점",
      "description": "대구 중구 동덕로 123",
      "url": "http://place.map.kakao.com/8124646",
      "region": "대구광역시"
    },
    {
      "lat": 35.8387862324715,
      "lng": 128.628193299825,
      "title": "파리바게뜨 대구황금점",
      "description": "대구 수성구 청수로 184",
      "url": "http://place.map.kakao.com/10896285",
      "region": "대구광역시"
    },
    {
      "lat": 35.8587288676465,
      "lng": 128.601486664085,
      "title": "파리바게뜨 대구대봉점",
      "description": "대구 중구 대봉로 226",
      "url": "http://place.map.kakao.com/186691014",
      "region": "대구광역시"
    },
    {
      "lat": 35.85501663229312,
      "lng": 128.5832316717876,
      "title": "파리바게뜨 대명계대점",
      "description": "대구 남구 현충로 254",
      "url": "http://place.map.kakao.com/13084289",
      "region": "대구광역시"
    },
    {
      "lat": 35.885008107019,
      "lng": 128.588858149789,
      "title": "파리바게뜨 침산푸르지오점",
      "description": "대구 북구 침산로21길 23",
      "url": "http://place.map.kakao.com/11225718",
      "region": "대구광역시"
    },
    {
      "lat": 35.876581987479426,
      "lng": 128.63983953624702,
      "title": "파리바게뜨 대구효목점",
      "description": "대구 동구 효목로 36",
      "url": "http://place.map.kakao.com/11263226",
      "region": "대구광역시"
    },
    {
      "lat": 35.87378043034072,
      "lng": 128.6152973669206,
      "title": "파리바게뜨 대구신천점",
      "description": "대구 동구 동부로 26",
      "url": "http://place.map.kakao.com/17754627",
      "region": "대구광역시"
    },
    {
      "lat": 35.87898236524665,
      "lng": 128.559210139686,
      "title": "파리바게뜨 대구대평리점",
      "description": "대구 서구 북비산로 240",
      "url": "http://place.map.kakao.com/657659713",
      "region": "대구광역시"
    },
    {
      "lat": 35.8625324600896,
      "lng": 128.618104547882,
      "title": "파리바게뜨 수성데시앙점",
      "description": "대구 수성구 들안로 364",
      "url": "http://place.map.kakao.com/12354611",
      "region": "대구광역시"
    },
    {
      "lat": 35.834966984042026,
      "lng": 128.55612278307672,
      "title": "파리바게뜨 대구서부점",
      "description": "대구 남구 월배로 470",
      "url": "http://place.map.kakao.com/8121859",
      "region": "대구광역시"
    },
    {
      "lat": 35.889123534799616,
      "lng": 128.61433548956876,
      "title": "파리바게뜨 대구경북대점",
      "description": "대구 북구 대학로 80",
      "url": "http://place.map.kakao.com/12354670",
      "region": "대구광역시"
    },
    {
      "lat": 35.891382226270274,
      "lng": 128.5897850952436,
      "title": "파리바게뜨 침산명성점",
      "description": "대구 북구 침산로 173",
      "url": "http://place.map.kakao.com/8621309",
      "region": "대구광역시"
    },
    {
      "lat": 35.88315173619609,
      "lng": 128.62482241458312,
      "title": "파리바게뜨 동대구역화성파크점",
      "description": "대구 동구 동대구로 590",
      "url": "http://place.map.kakao.com/535274062",
      "region": "대구광역시"
    },
    {
      "lat": 35.8480899909238,
      "lng": 128.53669722459713,
      "title": "파리바게뜨 대구월드마크점",
      "description": "대구 달서구 와룡로 169",
      "url": "http://place.map.kakao.com/13024630",
      "region": "대구광역시"
    },
    {
      "lat": 35.8612067358358,
      "lng": 128.614566135477,
      "title": "파리바게뜨 대구코오롱점",
      "description": "대구 수성구 수성로 400",
      "url": "http://place.map.kakao.com/8112954",
      "region": "대구광역시"
    },
    {
      "lat": 35.9167385336332,
      "lng": 128.602724112345,
      "title": "파리바게뜨 대구동변점",
      "description": "대구 북구 동변로 55",
      "url": "http://place.map.kakao.com/18418016",
      "region": "대구광역시"
    },
    {
      "lat": 35.85542784284256,
      "lng": 128.49327134144795,
      "title": "파리바게뜨 성서계대점",
      "description": "대구 달서구 계대동문로 10",
      "url": "http://place.map.kakao.com/21401108",
      "region": "대구광역시"
    },
    {
      "lat": 35.8704774432017,
      "lng": 128.636157569206,
      "title": "파리바게뜨 메트로팔레스점",
      "description": "대구 수성구 동원로 135",
      "url": "http://place.map.kakao.com/11224641",
      "region": "대구광역시"
    },
    {
      "lat": 35.876551304690594,
      "lng": 128.58575836754474,
      "title": "파리바게뜨 대구수창점",
      "description": "대구 중구 서성로 99",
      "url": "http://place.map.kakao.com/245164147",
      "region": "대구광역시"
    },
    {
      "lat": 35.81678575691614,
      "lng": 128.51768175866872,
      "title": "파리바게뜨 대구월배점",
      "description": "대구 달서구 조암남로 158",
      "url": "http://place.map.kakao.com/12354614",
      "region": "대구광역시"
    },
    {
      "lat": 35.85931348387874,
      "lng": 128.62924517110298,
      "title": "파리바게뜨 대구두산위브점",
      "description": "대구 수성구 달구벌대로 2435",
      "url": "http://place.map.kakao.com/13024667",
      "region": "대구광역시"
    },
    {
      "lat": 35.91042924356149,
      "lng": 128.6412401469941,
      "title": "파리바게뜨 대구불로점",
      "description": "대구 동구 팔공로 130",
      "url": "http://place.map.kakao.com/13024629",
      "region": "대구광역시"
    },
    {
      "lat": 35.859549692896614,
      "lng": 128.61287756568683,
      "title": "파리바게뜨 대구수성교점",
      "description": "대구 수성구 달구벌대로 2288",
      "url": "http://place.map.kakao.com/8124986",
      "region": "대구광역시"
    },
    {
      "lat": 35.867054504057826,
      "lng": 128.5711944398668,
      "title": "파리바게뜨 대구비산점",
      "description": "대구 서구 달서로 58",
      "url": "http://place.map.kakao.com/12354804",
      "region": "대구광역시"
    },
    {
      "lat": 35.89274429178651,
      "lng": 128.62202609677362,
      "title": "파리바게뜨 대구복현점",
      "description": "대구 북구 동북로 291",
      "url": "http://place.map.kakao.com/2043776955",
      "region": "대구광역시"
    },
    {
      "lat": 35.884691372986524,
      "lng": 128.5571771182062,
      "title": "파리바게뜨 북부터미널점",
      "description": "대구 서구 서대구로 304",
      "url": "http://place.map.kakao.com/8121706",
      "region": "대구광역시"
    },
    {
      "lat": 35.8616473534032,
      "lng": 128.582267597278,
      "title": "파리바게뜨 보성황실점",
      "description": "대구 중구 남산로 57",
      "url": "http://place.map.kakao.com/12354663",
      "region": "대구광역시"
    },
    {
      "lat": 35.854794017957055,
      "lng": 128.59094146474484,
      "title": "파리바게뜨 대구교대점",
      "description": "대구 남구 중앙대로 242",
      "url": "http://place.map.kakao.com/1380715849",
      "region": "대구광역시"
    },
    {
      "lat": 35.87931046016434,
      "lng": 128.61095622077121,
      "title": "파리바게뜨 대구청아람점",
      "description": "대구 동구 신암로20길 8",
      "url": "http://place.map.kakao.com/15792566",
      "region": "대구광역시"
    },
    {
      "lat": 35.886918422842776,
      "lng": 128.63980904958976,
      "title": "파리바게뜨 대구아양교역점",
      "description": "대구 동구 아양로 246",
      "url": "http://place.map.kakao.com/14083172",
      "region": "대구광역시"
    },
    {
      "lat": 35.8991685949097,
      "lng": 128.621884733958,
      "title": "파리바게뜨 대구공항교점",
      "description": "대구 북구 복현로 105",
      "url": "http://place.map.kakao.com/12354721",
      "region": "대구광역시"
    },
    {
      "lat": 35.8779144865648,
      "lng": 128.571035773112,
      "title": "파리바게뜨 대구신비산점",
      "description": "대구 서구 달서로 175-1",
      "url": "http://place.map.kakao.com/12354718",
      "region": "대구광역시"
    },
    {
      "lat": 35.86105834752472,
      "lng": 128.59233420484537,
      "title": "파리바게뜨 대구명덕점",
      "description": "대구 중구 중앙대로 313",
      "url": "http://place.map.kakao.com/19633356",
      "region": "대구광역시"
    },
    {
      "lat": 35.881922971996,
      "lng": 128.593726261803,
      "title": "파리바게뜨 대구삼성점",
      "description": "대구 북구 호암로 40",
      "url": "http://place.map.kakao.com/21439134",
      "region": "대구광역시"
    },
    {
      "lat": 35.81690068518895,
      "lng": 128.5325564053501,
      "title": "파리바게뜨 대구월배역점",
      "description": "대구 달서구 월배로 170",
      "url": "http://place.map.kakao.com/12354665",
      "region": "대구광역시"
    },
    {
      "lat": 37.63917722315255,
      "lng": 126.49066273041382,
      "title": "파리바게뜨 강화길상점",
      "description": "인천 강화군 길상면 온수길 35",
      "url": "http://place.map.kakao.com/1896995913",
      "region": "인천광역시"
    },
    {
      "lat": 37.4921924901775,
      "lng": 126.724669284781,
      "title": "파리바게뜨 부평역점",
      "description": "인천 부평구 시장로 12",
      "url": "http://place.map.kakao.com/8125497",
      "region": "인천광역시"
    },
    {
      "lat": 37.379178233188846,
      "lng": 126.64724228461046,
      "title": "파리바게뜨 송도웰카운티점",
      "description": "인천 연수구 해송로 143",
      "url": "http://place.map.kakao.com/10897797",
      "region": "인천광역시"
    },
    {
      "lat": 37.47172018800451,
      "lng": 126.62836771082384,
      "title": "파리바게뜨 신포시장점",
      "description": "인천 중구 우현로 49-1",
      "url": "http://place.map.kakao.com/13024863",
      "region": "인천광역시"
    },
    {
      "lat": 37.4926964989953,
      "lng": 126.488556276912,
      "title": "파리바게뜨 공항신도시점",
      "description": "인천 중구 흰바위로 31",
      "url": "http://place.map.kakao.com/8113284",
      "region": "인천광역시"
    },
    {
      "lat": 37.5439965370838,
      "lng": 126.6763967845,
      "title": "파리바게뜨 인천서구청점",
      "description": "인천 서구 탁옥로 61",
      "url": "http://place.map.kakao.com/8118031",
      "region": "인천광역시"
    },
    {
      "lat": 37.46334806029622,
      "lng": 126.680108576661,
      "title": "파리바게뜨 주안역점",
      "description": "인천 미추홀구 미추홀대로 735",
      "url": "http://place.map.kakao.com/10897804",
      "region": "인천광역시"
    },
    {
      "lat": 37.48520443237041,
      "lng": 126.50671716463967,
      "title": "파리바게뜨 영종운서점",
      "description": "인천 중구 넙디로 13",
      "url": "http://place.map.kakao.com/1858334673",
      "region": "인천광역시"
    },
    {
      "lat": 37.5391473402235,
      "lng": 126.622369126301,
      "title": "파리바게뜨 청라6단지점",
      "description": "인천 서구 차오름로 27",
      "url": "http://place.map.kakao.com/1689764972",
      "region": "인천광역시"
    },
    {
      "lat": 37.52315264513268,
      "lng": 126.6796203719189,
      "title": "파리바게뜨 루원시티점",
      "description": "인천 서구 봉오대로 270",
      "url": "http://place.map.kakao.com/1172951126",
      "region": "인천광역시"
    },
    {
      "lat": 37.46734507980723,
      "lng": 126.656102215399,
      "title": "파리바게뜨 제물포북부점",
      "description": "인천 미추홀구 석정로162번길 55-7",
      "url": "http://place.map.kakao.com/17877132",
      "region": "인천광역시"
    },
    {
      "lat": 37.49346178297229,
      "lng": 126.73763709834455,
      "title": "파리바게뜨 인천부개역점",
      "description": "인천 부평구 부평문화로 192",
      "url": "http://place.map.kakao.com/11701957",
      "region": "인천광역시"
    },
    {
      "lat": 37.4986586410026,
      "lng": 126.72490338431,
      "title": "파리바게뜨 부평시장점",
      "description": "인천 부평구 부흥로 297",
      "url": "http://place.map.kakao.com/12353511",
      "region": "인천광역시"
    },
    {
      "lat": 37.45811937160088,
      "lng": 126.64895488422493,
      "title": "파리바게뜨 인천숭의점",
      "description": "인천 미추홀구 독배로 433",
      "url": "http://place.map.kakao.com/17992526",
      "region": "인천광역시"
    },
    {
      "lat": 37.471641948499226,
      "lng": 126.66233964622117,
      "title": "파리바게뜨 인천도화점",
      "description": "인천 미추홀구 숙골로112번길 2",
      "url": "http://place.map.kakao.com/2053686196",
      "region": "인천광역시"
    },
    {
      "lat": 37.37495550166682,
      "lng": 126.65376403311679,
      "title": "파리바게뜨 송도글로벌점",
      "description": "인천 연수구 송도문화로28번길 28",
      "url": "http://place.map.kakao.com/22960143",
      "region": "인천광역시"
    },
    {
      "lat": 37.488701588761,
      "lng": 126.56360424143,
      "title": "파리바게뜨 영종현대점",
      "description": "인천 중구 하늘별빛로65번길 7-4",
      "url": "http://place.map.kakao.com/26848269",
      "region": "인천광역시"
    },
    {
      "lat": 37.44431725765052,
      "lng": 126.70123120878152,
      "title": "파리바게뜨 인천신세계점",
      "description": "인천 남동구 인하로489번길 16",
      "url": "http://place.map.kakao.com/8126170",
      "region": "인천광역시"
    },
    {
      "lat": 37.449727515519186,
      "lng": 126.63385596961842,
      "title": "파리바게뜨 용현금호점",
      "description": "인천 미추홀구 매소홀로 71",
      "url": "http://place.map.kakao.com/12353509",
      "region": "인천광역시"
    },
    {
      "lat": 37.50067429286381,
      "lng": 126.48926522028042,
      "title": "파리바게뜨 운서프라자점",
      "description": "인천 중구 신도시북로 89",
      "url": "http://place.map.kakao.com/1470985163",
      "region": "인천광역시"
    },
    {
      "lat": 37.6015449970427,
      "lng": 126.65366221812,
      "title": "파리바게뜨 검단왕길점",
      "description": "인천 서구 봉수대로1440번안길 28-18",
      "url": "http://place.map.kakao.com/12353559",
      "region": "인천광역시"
    },
    {
      "lat": 37.54254942558188,
      "lng": 126.72817074797152,
      "title": "파리바게뜨 인천계산점",
      "description": "인천 계양구 주부토로 541",
      "url": "http://place.map.kakao.com/10891280",
      "region": "인천광역시"
    },
    {
      "lat": 37.53823021758647,
      "lng": 126.73700058021811,
      "title": "파리바게뜨 계양구청점",
      "description": "인천 계양구 계양문화로 86",
      "url": "http://place.map.kakao.com/11224210",
      "region": "인천광역시"
    },
    {
      "lat": 37.5039539904208,
      "lng": 126.739681339973,
      "title": "파리바게뜨 부개점",
      "description": "인천 부평구 길주남로 159",
      "url": "http://place.map.kakao.com/8121549",
      "region": "인천광역시"
    },
    {
      "lat": 37.41370322588917,
      "lng": 126.68111505639567,
      "title": "파리바게뜨 연수대동점",
      "description": "인천 연수구 용담로149번길 17",
      "url": "http://place.map.kakao.com/8119699",
      "region": "인천광역시"
    },
    {
      "lat": 37.4911335424636,
      "lng": 126.53300886927244,
      "title": "파리바게뜨 영종하늘점",
      "description": "인천 중구 운남로 150",
      "url": "http://place.map.kakao.com/1110859154",
      "region": "인천광역시"
    },
    {
      "lat": 37.48637352206267,
      "lng": 126.55866426576554,
      "title": "파리바게뜨 영종스카이점",
      "description": "인천 중구 하늘달빛로 78",
      "url": "http://place.map.kakao.com/195722159",
      "region": "인천광역시"
    },
    {
      "lat": 37.4612505680785,
      "lng": 126.638558380085,
      "title": "파리바게뜨 숭의역점",
      "description": "인천 미추홀구 인주대로 5",
      "url": "http://place.map.kakao.com/1371657366",
      "region": "인천광역시"
    },
    {
      "lat": 37.50668192015329,
      "lng": 126.67126148919338,
      "title": "파리바게뜨 석남로데오점",
      "description": "인천 서구 길주로 83",
      "url": "http://place.map.kakao.com/1148206540",
      "region": "인천광역시"
    },
    {
      "lat": 37.45109872336751,
      "lng": 126.63732111795166,
      "title": "파리바게뜨 인천용현점",
      "description": "인천 미추홀구 낙섬중로32번길 10",
      "url": "http://place.map.kakao.com/8126298",
      "region": "인천광역시"
    },
    {
      "lat": 37.406757853840304,
      "lng": 126.67177199984204,
      "title": "파리바게뜨 연수로얄점",
      "description": "인천 연수구 앵고개로264번길 30-4",
      "url": "http://place.map.kakao.com/8566793",
      "region": "인천광역시"
    },
    {
      "lat": 37.4715048525066,
      "lng": 126.7021585330625,
      "title": "파리바게뜨 동암북부점",
      "description": "인천 부평구 동암광장로 16",
      "url": "http://place.map.kakao.com/8567674",
      "region": "인천광역시"
    },
    {
      "lat": 37.452700904232636,
      "lng": 126.70834173204632,
      "title": "파리바게뜨 인천길병원점",
      "description": "인천 남동구 구월남로 172",
      "url": "http://place.map.kakao.com/8562584",
      "region": "인천광역시"
    },
    {
      "lat": 37.4245090045467,
      "lng": 126.646245676238,
      "title": "파리바게뜨 인천옥련점",
      "description": "인천 연수구 독배로40번길 25",
      "url": "http://place.map.kakao.com/8115274",
      "region": "인천광역시"
    },
    {
      "lat": 37.537153717188616,
      "lng": 126.65670062173838,
      "title": "파리바게뜨 청라초교점",
      "description": "인천 서구 청라에메랄드로 134",
      "url": "http://place.map.kakao.com/17757488",
      "region": "인천광역시"
    },
    {
      "lat": 37.5297418871588,
      "lng": 126.665728746846,
      "title": "파리바게뜨 서구가정점",
      "description": "인천 서구 봉오재3로 40",
      "url": "http://place.map.kakao.com/24267321",
      "region": "인천광역시"
    },
    {
      "lat": 37.4617330261665,
      "lng": 126.644338743312,
      "title": "파리바게뜨 숭의로터리점",
      "description": "인천 미추홀구 독배로 494",
      "url": "http://place.map.kakao.com/100562847",
      "region": "인천광역시"
    },
    {
      "lat": 37.4151061606923,
      "lng": 126.622403118132,
      "title": "파리바게뜨 송도랜드마크시티점",
      "description": "인천 연수구 랜드마크로 68",
      "url": "http://place.map.kakao.com/716605583",
      "region": "인천광역시"
    },
    {
      "lat": 37.4499312965631,
      "lng": 126.730786864277,
      "title": "파리바게뜨 만수삼환점",
      "description": "인천 남동구 하촌로19번길 5",
      "url": "http://place.map.kakao.com/13024916",
      "region": "인천광역시"
    },
    {
      "lat": 37.4483689276342,
      "lng": 126.676849835199,
      "title": "파리바게뜨 신기시장점",
      "description": "인천 미추홀구 인하로 259",
      "url": "http://place.map.kakao.com/8119532",
      "region": "인천광역시"
    },
    {
      "lat": 37.47678138168647,
      "lng": 126.63364036055043,
      "title": "파리바게뜨 동인천역북부점",
      "description": "인천 동구 송현로 4",
      "url": "http://place.map.kakao.com/21653230",
      "region": "인천광역시"
    },
    {
      "lat": 37.4845422050298,
      "lng": 126.732978314541,
      "title": "파리바게뜨 부개부일점",
      "description": "인천 부평구 동수로126번길 3",
      "url": "http://place.map.kakao.com/12353557",
      "region": "인천광역시"
    },
    {
      "lat": 37.411951794772015,
      "lng": 126.65609355275527,
      "title": "파리바게뜨 연수동춘점",
      "description": "인천 연수구 능허대로289번길 11",
      "url": "http://place.map.kakao.com/2113578401",
      "region": "인천광역시"
    },
    {
      "lat": 37.5032099472924,
      "lng": 126.714043222897,
      "title": "파리바게뜨 부평GM점",
      "description": "인천 부평구 원적로432번길 10",
      "url": "http://place.map.kakao.com/10893048",
      "region": "인천광역시"
    },
    {
      "lat": 37.74737208007904,
      "lng": 126.48432606762711,
      "title": "파리바게뜨 강화읍점",
      "description": "인천 강화군 강화읍 북문길 1",
      "url": "http://place.map.kakao.com/8124483",
      "region": "인천광역시"
    },
    {
      "lat": 35.2203129686585,
      "lng": 126.84209194237,
      "title": "파리바게뜨 첨단쌍암점",
      "description": "광주 광산구 첨단중앙로 170",
      "url": "http://place.map.kakao.com/13024719",
      "region": "광주광역시"
    },
    {
      "lat": 35.220021327628466,
      "lng": 126.83628318102733,
      "title": "파리바게뜨 첨단점",
      "description": "광주 광산구 첨단중앙로181번길 48",
      "url": "http://place.map.kakao.com/10891545",
      "region": "광주광역시"
    },
    {
      "lat": 35.19694156765278,
      "lng": 126.83847402909117,
      "title": "파리바게뜨 광주신창1호점",
      "description": "광주 광산구 신창로 129",
      "url": "http://place.map.kakao.com/8125963",
      "region": "광주광역시"
    },
    {
      "lat": 35.18494777505557,
      "lng": 126.83684651279717,
      "title": "파리바게뜨 광주신가점",
      "description": "광주 광산구 수등로258번길 2",
      "url": "http://place.map.kakao.com/21240758",
      "region": "광주광역시"
    },
    {
      "lat": 35.13756910374077,
      "lng": 126.8939421160985,
      "title": "파리바게뜨 광주주월점",
      "description": "광주 남구 군분로 44",
      "url": "http://place.map.kakao.com/12353504",
      "region": "광주광역시"
    },
    {
      "lat": 35.2206170708022,
      "lng": 126.824662150664,
      "title": "파리바게뜨 광주비아점",
      "description": "광주 광산구 비아중앙로 17",
      "url": "http://place.map.kakao.com/10192281",
      "region": "광주광역시"
    },
    {
      "lat": 35.15648871541279,
      "lng": 126.90370858987944,
      "title": "파리바게뜨 임동제니스점",
      "description": "광주 북구 유동길 46",
      "url": "http://place.map.kakao.com/388442070",
      "region": "광주광역시"
    },
    {
      "lat": 35.1560503233153,
      "lng": 126.84797160323343,
      "title": "파리바게뜨 상무시청점",
      "description": "광주 서구 상무중앙로 101",
      "url": "http://place.map.kakao.com/12353548",
      "region": "광주광역시"
    },
    {
      "lat": 35.1873765205048,
      "lng": 126.902691705672,
      "title": "파리바게뜨 광주오치점",
      "description": "광주 북구 안산로 2",
      "url": "http://place.map.kakao.com/12353640",
      "region": "광주광역시"
    },
    {
      "lat": 35.17303485824455,
      "lng": 126.91567100082376,
      "title": "파리바게뜨 광주북구청점",
      "description": "광주 북구 서방로 26",
      "url": "http://place.map.kakao.com/8116550",
      "region": "광주광역시"
    },
    {
      "lat": 35.175324402300994,
      "lng": 126.81165089889183,
      "title": "파리바게뜨 광주월곡점",
      "description": "광주 광산구 풍영로 37",
      "url": "http://place.map.kakao.com/10456613",
      "region": "광주광역시"
    },
    {
      "lat": 35.17113794976752,
      "lng": 126.90415456090884,
      "title": "파리바게뜨 용봉캠퍼스점",
      "description": "광주 북구 자미로 57",
      "url": "http://place.map.kakao.com/1440850703",
      "region": "광주광역시"
    },
    {
      "lat": 35.180356473473694,
      "lng": 126.81740956238741,
      "title": "파리바게뜨 수완임방울점",
      "description": "광주 광산구 임방울대로 213",
      "url": "http://place.map.kakao.com/12538285",
      "region": "광주광역시"
    },
    {
      "lat": 35.2178013053554,
      "lng": 126.87745487011355,
      "title": "파리바게뜨 광주본촌점",
      "description": "광주 북구 하서로483번길 2",
      "url": "http://place.map.kakao.com/1376719842",
      "region": "광주광역시"
    },
    {
      "lat": 35.212730019473625,
      "lng": 126.87110234435745,
      "title": "파리바게뜨 광주용두점",
      "description": "광주 북구 임방울대로 1039",
      "url": "http://place.map.kakao.com/1552450040",
      "region": "광주광역시"
    },
    {
      "lat": 35.167510993588365,
      "lng": 126.91779301826895,
      "title": "파리바게뜨 광주우산자이점",
      "description": "광주 북구 서양로 155",
      "url": "http://place.map.kakao.com/1472975881",
      "region": "광주광역시"
    },
    {
      "lat": 35.2135975471139,
      "lng": 126.843198846692,
      "title": "파리바게뜨 광주첨단LC점",
      "description": "광주 광산구 첨단중앙로 96",
      "url": "http://place.map.kakao.com/8562589",
      "region": "광주광역시"
    },
    {
      "lat": 35.1459641335125,
      "lng": 126.922107657679,
      "title": "파리바게뜨 광주서석점",
      "description": "광주 동구 제봉로 84",
      "url": "http://place.map.kakao.com/10903092",
      "region": "광주광역시"
    },
    {
      "lat": 35.1727417592308,
      "lng": 126.889672343433,
      "title": "파리바게뜨 광주동운점",
      "description": "광주 북구 서암대로 43",
      "url": "http://place.map.kakao.com/21317460",
      "region": "광주광역시"
    },
    {
      "lat": 35.125870714066565,
      "lng": 126.89755691548216,
      "title": "파리바게뜨 광주빅스포점",
      "description": "광주 남구 서문대로 745",
      "url": "http://place.map.kakao.com/8561203",
      "region": "광주광역시"
    },
    {
      "lat": 35.19508770787213,
      "lng": 126.81530020735823,
      "title": "파리바게뜨 광주수완1호점",
      "description": "광주 광산구 장덕로 55",
      "url": "http://place.map.kakao.com/12353727",
      "region": "광주광역시"
    },
    {
      "lat": 35.157660688955,
      "lng": 126.868457491289,
      "title": "파리바게뜨 광주쌍촌점",
      "description": "광주 서구 내방로 256",
      "url": "http://place.map.kakao.com/10890862",
      "region": "광주광역시"
    },
    {
      "lat": 35.132173564194304,
      "lng": 126.92840225768272,
      "title": "파리바게뜨 학동삼성점",
      "description": "광주 동구 남문로 689",
      "url": "http://place.map.kakao.com/13105516",
      "region": "광주광역시"
    },
    {
      "lat": 35.141062164054595,
      "lng": 126.79510331662055,
      "title": "파리바게뜨 광주송정지구점",
      "description": "광주 광산구 내상로 5",
      "url": "http://place.map.kakao.com/8116678",
      "region": "광주광역시"
    },
    {
      "lat": 35.148129386099534,
      "lng": 126.77704087570034,
      "title": "파리바게뜨 광주선운점",
      "description": "광주 광산구 선운중앙로 46",
      "url": "http://place.map.kakao.com/26848221",
      "region": "광주광역시"
    },
    {
      "lat": 35.189728992558585,
      "lng": 126.82427177610388,
      "title": "파리바게뜨 광주수완노블점",
      "description": "광주 광산구 임방울대로 334",
      "url": "http://place.map.kakao.com/14884737",
      "region": "광주광역시"
    },
    {
      "lat": 35.20536137110287,
      "lng": 126.89740007854293,
      "title": "파리바게뜨 광주일곡점",
      "description": "광주 북구 설죽로 517",
      "url": "http://place.map.kakao.com/11294833",
      "region": "광주광역시"
    },
    {
      "lat": 35.1784130456554,
      "lng": 126.9294408929169,
      "title": "파리바게뜨 동광주점",
      "description": "광주 북구 동문대로 182",
      "url": "http://place.map.kakao.com/26863525",
      "region": "광주광역시"
    },
    {
      "lat": 35.15286869718111,
      "lng": 126.88027624406163,
      "title": "파리바게뜨 광주화정역점",
      "description": "광주 서구 상무대로 1083",
      "url": "http://place.map.kakao.com/12353639",
      "region": "광주광역시"
    },
    {
      "lat": 35.14694399097906,
      "lng": 126.88297903090422,
      "title": "파리바게뜨 화정현대점",
      "description": "광주 서구 화운로 94",
      "url": "http://place.map.kakao.com/19591884",
      "region": "광주광역시"
    },
    {
      "lat": 35.133781579983975,
      "lng": 126.91072243127387,
      "title": "파리바게뜨 광주봉선점",
      "description": "광주 남구 대남대로 131",
      "url": "http://place.map.kakao.com/285668442",
      "region": "광주광역시"
    },
    {
      "lat": 35.14779383208258,
      "lng": 126.84794306368838,
      "title": "파리바게뜨 상무역점",
      "description": "광주 서구 상무중앙로 9",
      "url": "http://place.map.kakao.com/8568359",
      "region": "광주광역시"
    },
    {
      "lat": 35.12472683472521,
      "lng": 126.78728353411387,
      "title": "파리바게뜨",
      "description": "광주 광산구 황룡동 1-4",
      "url": "http://place.map.kakao.com/219158107",
      "region": "광주광역시"
    },
    {
      "lat": 35.15985861524958,
      "lng": 126.85920143784706,
      "title": "파리바게뜨 쌍촌공원점",
      "description": "광주 서구 상무민주로 103-1",
      "url": "http://place.map.kakao.com/19952220",
      "region": "광주광역시"
    },
    {
      "lat": 35.17597186623294,
      "lng": 126.79947825833982,
      "title": "파리바게뜨 하남2지구점",
      "description": "광주 광산구 손재로110번길 46",
      "url": "http://place.map.kakao.com/13024705",
      "region": "광주광역시"
    },
    {
      "lat": 35.17137711171098,
      "lng": 126.86397315236682,
      "title": "파리바게뜨 광주동림2호점",
      "description": "광주 서구 유림로 100",
      "url": "http://place.map.kakao.com/21228395",
      "region": "광주광역시"
    },
    {
      "lat": 35.1292596704892,
      "lng": 126.855003730462,
      "title": "파리바게뜨 마재종원점",
      "description": "광주 서구 화개1로 57",
      "url": "http://place.map.kakao.com/13566817",
      "region": "광주광역시"
    },
    {
      "lat": 35.1391195888912,
      "lng": 126.9061343117278,
      "title": "파리바게뜨 광주백운점",
      "description": "광주 남구 백운로 66",
      "url": "http://place.map.kakao.com/12353595",
      "region": "광주광역시"
    },
    {
      "lat": 35.1934835235698,
      "lng": 126.901977297709,
      "title": "파리바게뜨 광주삼각점",
      "description": "광주 북구 설죽로370번길 32",
      "url": "http://place.map.kakao.com/8116551",
      "region": "광주광역시"
    },
    {
      "lat": 35.1975934127885,
      "lng": 126.870914331702,
      "title": "파리바게뜨 광주연제점",
      "description": "광주 북구 양일1로 3",
      "url": "http://place.map.kakao.com/852016237",
      "region": "광주광역시"
    },
    {
      "lat": 35.19083236703156,
      "lng": 126.83725637659465,
      "title": "파리바게뜨 광주신창2호점",
      "description": "광주 광산구 신창로 64",
      "url": "http://place.map.kakao.com/10897801",
      "region": "광주광역시"
    },
    {
      "lat": 35.16279597501716,
      "lng": 126.92617252840496,
      "title": "파리바게뜨 광주계림아이파크점",
      "description": "광주 동구 필문대로 70",
      "url": "http://place.map.kakao.com/270827286",
      "region": "광주광역시"
    },
    {
      "lat": 35.1755426869136,
      "lng": 126.87611315915558,
      "title": "파리바게뜨 광주블루밍점",
      "description": "광주 북구 황계로 34",
      "url": "http://place.map.kakao.com/8561892",
      "region": "광주광역시"
    },
    {
      "lat": 35.112264805130614,
      "lng": 126.89995428889539,
      "title": "파리바게뜨 진월효덕점",
      "description": "광주 남구 화산로 29-1",
      "url": "http://place.map.kakao.com/8640067",
      "region": "광주광역시"
    },
    {
      "lat": 35.157310935820824,
      "lng": 126.91738182679872,
      "title": "파리바게뜨 광주계림센트럴점",
      "description": "광주 동구 경양로243번길 1",
      "url": "http://place.map.kakao.com/706492131",
      "region": "광주광역시"
    },
    {
      "lat": 36.3513297817246,
      "lng": 127.426860626056,
      "title": "파리바게뜨 한남대점",
      "description": "대전 동구 한남로 12",
      "url": "http://place.map.kakao.com/8567482",
      "region": "대전광역시"
    },
    {
      "lat": 36.35168162024429,
      "lng": 127.3769084069305,
      "title": "파리바게뜨 둔산타임월드점",
      "description": "대전 서구 둔산로 26",
      "url": "http://place.map.kakao.com/1660560390",
      "region": "대전광역시"
    },
    {
      "lat": 36.35590775425942,
      "lng": 127.34261181234034,
      "title": "파리바게뜨 유성푸르지오점",
      "description": "대전 유성구 온천로 45",
      "url": "http://place.map.kakao.com/26851312",
      "region": "대전광역시"
    },
    {
      "lat": 36.3506410718125,
      "lng": 127.389458610834,
      "title": "파리바게뜨 대전시청점",
      "description": "대전 서구 둔산남로105번길 34",
      "url": "http://place.map.kakao.com/56295632",
      "region": "대전광역시"
    },
    {
      "lat": 36.30644449999055,
      "lng": 127.4564785643001,
      "title": "파리바게뜨 대전가오점",
      "description": "대전 동구 은어송로 62",
      "url": "http://place.map.kakao.com/8121212",
      "region": "대전광역시"
    },
    {
      "lat": 36.36207958135401,
      "lng": 127.37684043645969,
      "title": "파리바게뜨 대전월평점",
      "description": "대전 서구 청사서로 46",
      "url": "http://place.map.kakao.com/12354404",
      "region": "대전광역시"
    },
    {
      "lat": 36.34259223535674,
      "lng": 127.38430561787843,
      "title": "파리바게뜨 대전괴정점",
      "description": "대전 서구 계룡로 546",
      "url": "http://place.map.kakao.com/11382234",
      "region": "대전광역시"
    },
    {
      "lat": 36.34642076488358,
      "lng": 127.39416308993663,
      "title": "파리바게뜨 대전탄방점",
      "description": "대전 서구 문정로 134",
      "url": "http://place.map.kakao.com/12354452",
      "region": "대전광역시"
    },
    {
      "lat": 36.36165864579932,
      "lng": 127.33673177130417,
      "title": "파리바게뜨 유성장대점",
      "description": "대전 유성구 유성대로 782",
      "url": "http://place.map.kakao.com/8118540",
      "region": "대전광역시"
    },
    {
      "lat": 36.34507945867238,
      "lng": 127.3682857262786,
      "title": "파리바게뜨 대전갈마점",
      "description": "대전 서구 신갈마로127번길 2",
      "url": "http://place.map.kakao.com/12354361",
      "region": "대전광역시"
    },
    {
      "lat": 36.34000274561251,
      "lng": 127.39082361689141,
      "title": "파리바게뜨 대전롯데점",
      "description": "대전 서구 계룡로 616",
      "url": "http://place.map.kakao.com/12354308",
      "region": "대전광역시"
    },
    {
      "lat": 36.3539740207601,
      "lng": 127.448938386045,
      "title": "파리바게뜨 대전비래점",
      "description": "대전 대덕구 비래서로 40",
      "url": "http://place.map.kakao.com/8121213",
      "region": "대전광역시"
    },
    {
      "lat": 36.32263345560322,
      "lng": 127.39873503449418,
      "title": "파리바게뜨 대전태평점",
      "description": "대전 중구 평촌로 108",
      "url": "http://place.map.kakao.com/12354402",
      "region": "대전광역시"
    },
    {
      "lat": 36.3653505375771,
      "lng": 127.317388686398,
      "title": "파리바게뜨 노은스타돔점",
      "description": "대전 유성구 왕가봉로24번길 34",
      "url": "http://place.map.kakao.com/11868971",
      "region": "대전광역시"
    },
    {
      "lat": 36.362897812025956,
      "lng": 127.35659242205774,
      "title": "파리바게뜨 대전한빛점",
      "description": "대전 유성구 어은로51번길 2",
      "url": "http://place.map.kakao.com/12354301",
      "region": "대전광역시"
    },
    {
      "lat": 36.31771277078323,
      "lng": 127.40656731713486,
      "title": "파리바게뜨 서대전점",
      "description": "대전 중구 서문로105번길 4",
      "url": "http://place.map.kakao.com/12354351",
      "region": "대전광역시"
    },
    {
      "lat": 36.3675658133659,
      "lng": 127.376303065126,
      "title": "파리바게뜨 대전만년점",
      "description": "대전 서구 만년로 25",
      "url": "http://place.map.kakao.com/12354358",
      "region": "대전광역시"
    },
    {
      "lat": 36.3079026917368,
      "lng": 127.348282832277,
      "title": "파리바게뜨 도안우미린점",
      "description": "대전 서구 원도안로 42",
      "url": "http://place.map.kakao.com/25132899",
      "region": "대전광역시"
    },
    {
      "lat": 36.3537808695822,
      "lng": 127.392181473206,
      "title": "파리바게뜨 대전둔산점",
      "description": "대전 서구 둔산북로 160",
      "url": "http://place.map.kakao.com/12354309",
      "region": "대전광역시"
    },
    {
      "lat": 36.386598504346075,
      "lng": 127.3502406693972,
      "title": "파리바게뜨 대전신성점",
      "description": "대전 유성구 신성남로 49",
      "url": "http://place.map.kakao.com/12354455",
      "region": "대전광역시"
    },
    {
      "lat": 36.31281634367914,
      "lng": 127.38122869271767,
      "title": "파리바게뜨 대전도마시장점",
      "description": "대전 서구 도산로 38",
      "url": "http://place.map.kakao.com/21436123",
      "region": "대전광역시"
    },
    {
      "lat": 36.32844308071218,
      "lng": 127.42471323654073,
      "title": "파리바게뜨 대전은행점",
      "description": "대전 중구 중앙로 135",
      "url": "http://place.map.kakao.com/12354353",
      "region": "대전광역시"
    },
    {
      "lat": 36.3287124865831,
      "lng": 127.443095609884,
      "title": "파리바게뜨 대전대동점",
      "description": "대전 동구 계족로 167",
      "url": "http://place.map.kakao.com/13124093",
      "region": "대전광역시"
    },
    {
      "lat": 36.318127775927366,
      "lng": 127.39213196615373,
      "title": "파리바게뜨 대전버드내점",
      "description": "대전 중구 태평로 14",
      "url": "http://place.map.kakao.com/12354307",
      "region": "대전광역시"
    },
    {
      "lat": 36.280623717895025,
      "lng": 127.4677112242942,
      "title": "파리바게뜨 대전산내점",
      "description": "대전 동구 산내로 1313",
      "url": "http://place.map.kakao.com/877062957",
      "region": "대전광역시"
    },
    {
      "lat": 36.4496812960384,
      "lng": 127.42935312411893,
      "title": "파리바게뜨 대전신탄진점",
      "description": "대전 대덕구 신탄진로 810",
      "url": "http://place.map.kakao.com/12073221",
      "region": "대전광역시"
    },
    {
      "lat": 36.3424857475675,
      "lng": 127.448970462906,
      "title": "파리바게뜨 대전자양점",
      "description": "대전 동구 충정로 139",
      "url": "http://place.map.kakao.com/21239972",
      "region": "대전광역시"
    },
    {
      "lat": 36.36691816904602,
      "lng": 127.43833358745329,
      "title": "파리바게뜨 대전선비점",
      "description": "대전 대덕구 동춘당로114번길 9",
      "url": "http://place.map.kakao.com/8619797",
      "region": "대전광역시"
    },
    {
      "lat": 36.3342525446742,
      "lng": 127.384928478656,
      "title": "파리바게뜨 대전가장점",
      "description": "대전 서구 가장로 100",
      "url": "http://place.map.kakao.com/12354311",
      "region": "대전광역시"
    },
    {
      "lat": 36.32240383475014,
      "lng": 127.40802827216325,
      "title": "파리바게뜨 대전삼성점",
      "description": "대전 중구 계룡로874번길 59",
      "url": "http://place.map.kakao.com/11222485",
      "region": "대전광역시"
    },
    {
      "lat": 36.3913718950447,
      "lng": 127.312260165383,
      "title": "파리바게뜨 노은반석점",
      "description": "대전 유성구 반석로 23",
      "url": "http://place.map.kakao.com/66772802",
      "region": "대전광역시"
    },
    {
      "lat": 36.32800333456121,
      "lng": 127.45435792412076,
      "title": "파리바게뜨 대전용운점",
      "description": "대전 동구 백룡로 145",
      "url": "http://place.map.kakao.com/8561206",
      "region": "대전광역시"
    },
    {
      "lat": 36.3779588615672,
      "lng": 127.303870594652,
      "title": "파리바게뜨 노은휴먼시아점",
      "description": "대전 유성구 지족로148번길 27",
      "url": "http://place.map.kakao.com/27277474",
      "region": "대전광역시"
    },
    {
      "lat": 36.304444776153005,
      "lng": 127.3858775057166,
      "title": "파리바게뜨 대전산성점",
      "description": "대전 중구 보문산로 50",
      "url": "http://place.map.kakao.com/12354306",
      "region": "대전광역시"
    },
    {
      "lat": 36.3160396750771,
      "lng": 127.446609488514,
      "title": "파리바게뜨 대전천동점",
      "description": "대전 동구 대전로542번길 80-47",
      "url": "http://place.map.kakao.com/12354568",
      "region": "대전광역시"
    },
    {
      "lat": 36.3707658763937,
      "lng": 127.427974131141,
      "title": "파리바게뜨 대덕제일점",
      "description": "대전 대덕구 계족로663번길 14",
      "url": "http://place.map.kakao.com/13024685",
      "region": "대전광역시"
    },
    {
      "lat": 36.35451600208488,
      "lng": 127.37997914572401,
      "title": "파리바게뜨 을지대학병원점",
      "description": "대전 서구 대덕대로 244",
      "url": "http://place.map.kakao.com/12354350",
      "region": "대전광역시"
    },
    {
      "lat": 36.3354860519133,
      "lng": 127.420812993561,
      "title": "파리바게뜨 대전선화",
      "description": "대전 중구 대종로594번길 52",
      "url": "http://place.map.kakao.com/1653832319",
      "region": "대전광역시"
    },
    {
      "lat": 36.32016934199544,
      "lng": 127.41367150627298,
      "title": "파리바게뜨 문화센트럴점",
      "description": "대전 중구 계룡로918번길 24",
      "url": "http://place.map.kakao.com/21437394",
      "region": "대전광역시"
    },
    {
      "lat": 36.42013868129659,
      "lng": 127.3918380538573,
      "title": "파리바게뜨 테크노운암점",
      "description": "대전 유성구 배울2로 78",
      "url": "http://place.map.kakao.com/1911338554",
      "region": "대전광역시"
    },
    {
      "lat": 36.43292133401576,
      "lng": 127.38418055467639,
      "title": "파리바게뜨 대전송강그린점",
      "description": "대전 유성구 구즉로 25",
      "url": "http://place.map.kakao.com/12354305",
      "region": "대전광역시"
    },
    {
      "lat": 36.30191050002363,
      "lng": 127.34990394152379,
      "title": "파리바게뜨 대전가수원점",
      "description": "대전 서구 가수원로 83",
      "url": "http://place.map.kakao.com/12354412",
      "region": "대전광역시"
    },
    {
      "lat": 36.300908454915735,
      "lng": 127.33541500590411,
      "title": "파리바게뜨 대전관저점",
      "description": "대전 서구 관저중로 98",
      "url": "http://place.map.kakao.com/12354411",
      "region": "대전광역시"
    },
    {
      "lat": 36.36668047563016,
      "lng": 127.4258145944935,
      "title": "파리바게뜨 대전중리점",
      "description": "대전 대덕구 중리북로 46",
      "url": "http://place.map.kakao.com/8117015",
      "region": "대전광역시"
    },
    {
      "lat": 36.3504924237918,
      "lng": 127.437127456298,
      "title": "파리바게뜨 복합터미널승차장점",
      "description": "대전 동구 동서대로 1689",
      "url": "http://place.map.kakao.com/21443468",
      "region": "대전광역시"
    },
    {
      "lat": 35.53791834973116,
      "lng": 129.3354112518046,
      "title": "파리바게뜨 삼산중앙점",
      "description": "울산 남구 삼산중로 49",
      "url": "http://place.map.kakao.com/13024919",
      "region": "울산광역시"
    },
    {
      "lat": 35.54889960572207,
      "lng": 129.26261702519238,
      "title": "파리바게뜨 울산무거점",
      "description": "울산 남구 대학로 159",
      "url": "http://place.map.kakao.com/12354677",
      "region": "울산광역시"
    },
    {
      "lat": 35.53294828174702,
      "lng": 129.30930498496525,
      "title": "파리바게뜨 울산공업탑",
      "description": "울산 남구 삼산로 11",
      "url": "http://place.map.kakao.com/719142345",
      "region": "울산광역시"
    },
    {
      "lat": 35.63048842052129,
      "lng": 129.3514531738322,
      "title": "파리바게뜨 울산호계점",
      "description": "울산 북구 호계로 304",
      "url": "http://place.map.kakao.com/12354621",
      "region": "울산광역시"
    },
    {
      "lat": 35.53433839183828,
      "lng": 129.31457882296587,
      "title": "파리바게뜨 울산달동점",
      "description": "울산 남구 삼산로 63",
      "url": "http://place.map.kakao.com/12354671",
      "region": "울산광역시"
    },
    {
      "lat": 35.56513418871454,
      "lng": 129.3368214010641,
      "title": "파리바게뜨 울산약사점",
      "description": "울산 중구 번영로 487",
      "url": "http://place.map.kakao.com/12354624",
      "region": "울산광역시"
    },
    {
      "lat": 35.5369350401153,
      "lng": 129.324376517076,
      "title": "파리바게뜨 울산번영점",
      "description": "울산 남구 삼산로 157",
      "url": "http://place.map.kakao.com/13024925",
      "region": "울산광역시"
    },
    {
      "lat": 35.5552044575081,
      "lng": 129.321596162854,
      "title": "파리바게뜨 울산성남점",
      "description": "울산 중구 학성로 98",
      "url": "http://place.map.kakao.com/12354779",
      "region": "울산광역시"
    },
    {
      "lat": 35.56485187399644,
      "lng": 129.1225828950551,
      "title": "파리바게뜨 울산언양점",
      "description": "울산 울주군 언양읍 남문길 22",
      "url": "http://place.map.kakao.com/12354780",
      "region": "울산광역시"
    },
    {
      "lat": 35.5445161109821,
      "lng": 129.335307163407,
      "title": "파리바게뜨 울산삼산현대점",
      "description": "울산 남구 돋질로 279",
      "url": "http://place.map.kakao.com/22708375",
      "region": "울산광역시"
    },
    {
      "lat": 35.5467886291594,
      "lng": 129.317847404785,
      "title": "파리바게뜨 울산팔등로점",
      "description": "울산 남구 신정로 170",
      "url": "http://place.map.kakao.com/713453350",
      "region": "울산광역시"
    },
    {
      "lat": 35.5613963717369,
      "lng": 129.116063676875,
      "title": "파리바게뜨 울산언양교동점",
      "description": "울산 울주군 삼남읍 교동로 127",
      "url": "http://place.map.kakao.com/13085071",
      "region": "울산광역시"
    },
    {
      "lat": 35.53592074991848,
      "lng": 129.34705276036556,
      "title": "파리바게뜨 삼산한화점",
      "description": "울산 남구 갈밭로 60",
      "url": "http://place.map.kakao.com/17154454",
      "region": "울산광역시"
    },
    {
      "lat": 35.60157557338292,
      "lng": 129.3654929609743,
      "title": "파리바게뜨 울산송정점",
      "description": "울산 북구 박상진12로 11",
      "url": "http://place.map.kakao.com/722964799",
      "region": "울산광역시"
    },
    {
      "lat": 35.5427778115811,
      "lng": 129.259922496807,
      "title": "파리바게뜨 울산대점",
      "description": "울산 남구 대학로 88",
      "url": "http://place.map.kakao.com/12354723",
      "region": "울산광역시"
    },
    {
      "lat": 35.537458447406,
      "lng": 129.340354262577,
      "title": "파리바게뜨 울산터미널점",
      "description": "울산 남구 화합로 142",
      "url": "http://place.map.kakao.com/13024830",
      "region": "울산광역시"
    },
    {
      "lat": 35.53582890139619,
      "lng": 129.29056117237877,
      "title": "파리바게뜨 울산옥동점",
      "description": "울산 남구 문수로335번길 8",
      "url": "http://place.map.kakao.com/19587574",
      "region": "울산광역시"
    },
    {
      "lat": 35.564980608456956,
      "lng": 129.35070672940788,
      "title": "파리바게뜨 울산남외점",
      "description": "울산 중구 남외3길 7",
      "url": "http://place.map.kakao.com/15982289",
      "region": "울산광역시"
    },
    {
      "lat": 35.5382006377454,
      "lng": 129.304829893163,
      "title": "파리바게뜨 울산신정점",
      "description": "울산 남구 거마로134번길 17",
      "url": "http://place.map.kakao.com/12354623",
      "region": "울산광역시"
    },
    {
      "lat": 35.6390495901271,
      "lng": 129.329605170829,
      "title": "파리바게뜨 울산천곡점",
      "description": "울산 북구 천곡길 141",
      "url": "http://place.map.kakao.com/14599340",
      "region": "울산광역시"
    },
    {
      "lat": 35.5637546511884,
      "lng": 129.336650652691,
      "title": "파리바게뜨 울산반구점",
      "description": "울산 중구 화합로 434",
      "url": "http://place.map.kakao.com/13024896",
      "region": "울산광역시"
    },
    {
      "lat": 35.5586573163541,
      "lng": 129.32701513373,
      "title": "파리바게뜨 울산복산점",
      "description": "울산 중구 중앙길 261",
      "url": "http://place.map.kakao.com/72680723",
      "region": "울산광역시"
    },
    {
      "lat": 35.5563235197681,
      "lng": 129.307995215787,
      "title": "파리바게뜨 울산우정점",
      "description": "울산 중구 화진길 2",
      "url": "http://place.map.kakao.com/12354620",
      "region": "울산광역시"
    },
    {
      "lat": 35.5736321927613,
      "lng": 129.241501520625,
      "title": "파리바게뜨 울산구영점",
      "description": "울산 울주군 범서읍 구영로 100",
      "url": "http://place.map.kakao.com/9553223",
      "region": "울산광역시"
    },
    {
      "lat": 35.5419916367265,
      "lng": 129.311076909119,
      "title": "파리바게뜨 울산시청점",
      "description": "울산 남구 중앙로 237",
      "url": "http://place.map.kakao.com/12354627",
      "region": "울산광역시"
    },
    {
      "lat": 35.55171266600732,
      "lng": 129.29668157028942,
      "title": "파리바게뜨 울산태화점",
      "description": "울산 중구 태화로 194",
      "url": "http://place.map.kakao.com/10887190",
      "region": "울산광역시"
    },
    {
      "lat": 35.557984485792666,
      "lng": 129.31216246530659,
      "title": "파리바게뜨 우정현대점",
      "description": "울산 중구 명륜로 78",
      "url": "http://place.map.kakao.com/13024895",
      "region": "울산광역시"
    },
    {
      "lat": 35.56893573001021,
      "lng": 129.34333096615882,
      "title": "파리바게뜨 울산병영점",
      "description": "울산 중구 곽남길 4",
      "url": "http://place.map.kakao.com/21087705",
      "region": "울산광역시"
    },
    {
      "lat": 35.57716772987986,
      "lng": 129.31752497182367,
      "title": "파리바게뜨 울산성안점",
      "description": "울산 중구 함월로 113",
      "url": "http://place.map.kakao.com/12354811",
      "region": "울산광역시"
    },
    {
      "lat": 35.551018702075,
      "lng": 129.265411028967,
      "title": "파리바게뜨 울산삼호점",
      "description": "울산 남구 북부순환도로 12",
      "url": "http://place.map.kakao.com/12354730",
      "region": "울산광역시"
    },
    {
      "lat": 35.562771937900024,
      "lng": 129.22646157424427,
      "title": "파리바게뜨 울산천상점",
      "description": "울산 울주군 범서읍 천상중앙길 92",
      "url": "http://place.map.kakao.com/12354806",
      "region": "울산광역시"
    },
    {
      "lat": 35.5593404262033,
      "lng": 129.3440714733277,
      "title": "파리바게뜨 반구로터리점",
      "description": "울산 중구 염포로 24",
      "url": "http://place.map.kakao.com/1177537863",
      "region": "울산광역시"
    },
    {
      "lat": 35.56010302916702,
      "lng": 129.29405067858227,
      "title": "파리바게뜨 유곡혁신점",
      "description": "울산 중구 종가4길 21",
      "url": "http://place.map.kakao.com/26848255",
      "region": "울산광역시"
    },
    {
      "lat": 35.52387929788165,
      "lng": 129.33255403167584,
      "title": "파리바게뜨 야음시장점",
      "description": "울산 남구 수암로 245",
      "url": "http://place.map.kakao.com/17868218",
      "region": "울산광역시"
    },
    {
      "lat": 35.5629719595712,
      "lng": 129.267441393473,
      "title": "파리바게뜨 울산다운점",
      "description": "울산 중구 다운로 110-1",
      "url": "http://place.map.kakao.com/12734261",
      "region": "울산광역시"
    },
    {
      "lat": 35.6412708129406,
      "lng": 129.356956018188,
      "title": "파리바게뜨 매곡월드점",
      "description": "울산 북구 매곡본길 3",
      "url": "http://place.map.kakao.com/18232375",
      "region": "울산광역시"
    },
    {
      "lat": 35.55357098131065,
      "lng": 129.35576197466875,
      "title": "파리바게뜨 울산명촌점",
      "description": "울산 북구 명촌로 83",
      "url": "http://place.map.kakao.com/12354675",
      "region": "울산광역시"
    },
    {
      "lat": 35.4846128350691,
      "lng": 129.413517180092,
      "title": "파리바게뜨 울산방어진점",
      "description": "울산 동구 문현로 41",
      "url": "http://place.map.kakao.com/12354726",
      "region": "울산광역시"
    },
    {
      "lat": 35.5456775826273,
      "lng": 129.348614984616,
      "title": "파리바게뜨 세양청구점",
      "description": "울산 남구 남중로 126",
      "url": "http://place.map.kakao.com/18883113",
      "region": "울산광역시"
    },
    {
      "lat": 35.6345561695365,
      "lng": 129.329739599609,
      "title": "파리바게뜨 울산달천점",
      "description": "울산 북구 달천로 50",
      "url": "http://place.map.kakao.com/12354725",
      "region": "울산광역시"
    },
    {
      "lat": 35.5497524811423,
      "lng": 129.273318354095,
      "title": "파리바게뜨 울산삼호시영점",
      "description": "울산 남구 어은로 6",
      "url": "http://place.map.kakao.com/14103094",
      "region": "울산광역시"
    },
    {
      "lat": 35.522095402697246,
      "lng": 129.31927949612353,
      "title": "파리바게뜨 야음롯데점",
      "description": "울산 남구 중앙로 4",
      "url": "http://place.map.kakao.com/12354729",
      "region": "울산광역시"
    },
    {
      "lat": 35.48763846364193,
      "lng": 129.30339663134433,
      "title": "파리바게뜨 울산덕하점",
      "description": "울산 울주군 청량읍 삼정로 811",
      "url": "http://place.map.kakao.com/27277482",
      "region": "울산광역시"
    },
    {
      "lat": 35.5471796886932,
      "lng": 129.30779917702,
      "title": "파리바게뜨 신정태화점",
      "description": "울산 남구 봉월로 166",
      "url": "http://place.map.kakao.com/13024832",
      "region": "울산광역시"
    },
    {
      "lat": 35.53355928618902,
      "lng": 129.298315579925,
      "title": "파리바게뜨 울산문수점",
      "description": "울산 남구 문수로 414",
      "url": "http://place.map.kakao.com/11859260",
      "region": "울산광역시"
    },
    {
      "lat": 36.50477008187673,
      "lng": 127.24970506280722,
      "title": "파리바게뜨 세종종촌점",
      "description": "세종특별자치시 도움3로 105-5",
      "url": "http://place.map.kakao.com/26848254",
      "region": "세종특별자치시"
    },
    {
      "lat": 36.6040759424984,
      "lng": 127.292365695857,
      "title": "파리바게뜨 세종조치원욱일점",
      "description": "세종특별자치시 조치원읍 행복3길 22",
      "url": "http://place.map.kakao.com/1762430315",
      "region": "세종특별자치시"
    },
    {
      "lat": 36.48288166719748,
      "lng": 127.29736883786926,
      "title": "파리바게뜨 세종소담점",
      "description": "세종특별자치시 시청대로 236",
      "url": "http://place.map.kakao.com/611829809",
      "region": "세종특별자치시"
    },
    {
      "lat": 36.5083303086703,
      "lng": 127.262000247166,
      "title": "파리바게뜨 정부세종청사점",
      "description": "세종특별자치시 절재로 194",
      "url": "http://place.map.kakao.com/24995686",
      "region": "세종특별자치시"
    },
    {
      "lat": 36.60167778171656,
      "lng": 127.30042936676824,
      "title": "파리바게뜨 조치원점",
      "description": "세종특별자치시 조치원읍 조치원로 33",
      "url": "http://place.map.kakao.com/12354315",
      "region": "세종특별자치시"
    },
    {
      "lat": 36.4911647089384,
      "lng": 127.258875511629,
      "title": "파리바게뜨 세종나성점",
      "description": "세종특별자치시 나성북1로 22",
      "url": "http://place.map.kakao.com/871530089",
      "region": "세종특별자치시"
    },
    {
      "lat": 36.59479610473993,
      "lng": 127.28825500804962,
      "title": "파리바게뜨 조치원신흥점",
      "description": "세종특별자치시 조치원읍 대첩로 75",
      "url": "http://place.map.kakao.com/12354365",
      "region": "세종특별자치시"
    },
    {
      "lat": 36.52950887752625,
      "lng": 127.3658597350054,
      "title": "파리바게뜨 세종부강점",
      "description": "세종특별자치시 부강면 부강로 41",
      "url": "http://place.map.kakao.com/12363209",
      "region": "세종특별자치시"
    },
    {
      "lat": 36.5194453899241,
      "lng": 127.235975110643,
      "title": "파리바게뜨 세종고운두루점",
      "description": "세종특별자치시 마음로 272-5",
      "url": "http://place.map.kakao.com/1491001878",
      "region": "세종특별자치시"
    },
    {
      "lat": 36.49230654748253,
      "lng": 127.32545720729841,
      "title": "파리바게뜨 세종집현테크노점",
      "description": "세종특별자치시 남세종로 73",
      "url": "http://place.map.kakao.com/1497230987",
      "region": "세종특별자치시"
    },
    {
      "lat": 36.5285827183279,
      "lng": 127.264493765061,
      "title": "파리바게뜨 세종해밀점",
      "description": "세종특별자치시 해밀3로 43",
      "url": "http://place.map.kakao.com/963972954",
      "region": "세종특별자치시"
    },
    {
      "lat": 36.4861183205781,
      "lng": 127.250386201417,
      "title": "파리바게뜨 세종새롬점",
      "description": "세종특별자치시 새롬중앙로 59",
      "url": "http://place.map.kakao.com/1211718052",
      "region": "세종특별자치시"
    },
    {
      "lat": 36.4939048342207,
      "lng": 127.249279546583,
      "title": "파리바게뜨 세종다정중앙점",
      "description": "세종특별자치시 다정중앙로 40",
      "url": "http://place.map.kakao.com/2003158018",
      "region": "세종특별자치시"
    },
    {
      "lat": 36.48815580949908,
      "lng": 127.26378375075655,
      "title": "파리바게뜨 세종리더스포레점",
      "description": "세종특별자치시 국세청로 46",
      "url": "http://place.map.kakao.com/2000104175",
      "region": "세종특별자치시"
    },
    {
      "lat": 36.495836264932805,
      "lng": 127.24436588192856,
      "title": "파리바게뜨 세종다정점",
      "description": "세종특별자치시 다정북로 110",
      "url": "http://place.map.kakao.com/849335843",
      "region": "세종특별자치시"
    },
    {
      "lat": 36.498077524138445,
      "lng": 127.31162547437526,
      "title": "파리바게뜨 세종반곡점",
      "description": "세종특별자치시 한누리대로 1828",
      "url": "http://place.map.kakao.com/1389094096",
      "region": "세종특별자치시"
    },
    {
      "lat": 36.482464132289046,
      "lng": 127.26007296853284,
      "title": "파리바게뜨 세종첫마을점",
      "description": "세종특별자치시 한누리대로 201",
      "url": "http://place.map.kakao.com/20140067",
      "region": "세종특별자치시"
    },
    {
      "lat": 36.511800538224335,
      "lng": 127.2498727702075,
      "title": "파리바게뜨 세종해피라움점",
      "description": "세종특별자치시 보듬3로 92",
      "url": "http://place.map.kakao.com/26565923",
      "region": "세종특별자치시"
    },
    {
      "lat": 36.47356204204541,
      "lng": 127.27786254059052,
      "title": "파리바게뜨 세종대평점",
      "description": "세종특별자치시 한누리대로 2236",
      "url": "http://place.map.kakao.com/26898667",
      "region": "세종특별자치시"
    },
    {
      "lat": 36.505042971138444,
      "lng": 127.23423357376068,
      "title": "파리바게뜨 세종고운점",
      "description": "세종특별자치시 마음로 70",
      "url": "http://place.map.kakao.com/1188324553",
      "region": "세종특별자치시"
    },
    {
      "lat": 36.475691898365746,
      "lng": 127.25167937982448,
      "title": "파리바게뜨 세종한솔점",
      "description": "세종특별자치시 누리로 27",
      "url": "http://place.map.kakao.com/17950941",
      "region": "세종특별자치시"
    },
    {
      "lat": 36.51350370485671,
      "lng": 127.22923761935823,
      "title": "파리바게뜨 세종이지더원점",
      "description": "세종특별자치시 마음로 181",
      "url": "http://place.map.kakao.com/187529899",
      "region": "세종특별자치시"
    },
    {
      "lat": 36.465236213079805,
      "lng": 127.28133048361666,
      "title": "파리바게뜨 세종금남점",
      "description": "세종특별자치시 금남면 용포로 74-1",
      "url": "http://place.map.kakao.com/17373044",
      "region": "세종특별자치시"
    },
    {
      "lat": 37.267115704052145,
      "lng": 127.00293688790217,
      "title": "파리바게뜨 뉴수원역점",
      "description": "경기 수원시 팔달구 매산로 12-1",
      "url": "http://place.map.kakao.com/2009876923",
      "region": "경기도"
    },
    {
      "lat": 37.3439859865779,
      "lng": 126.737259709519,
      "title": "파리바게뜨 시화정왕점",
      "description": "경기 시흥시 중심상가로 199",
      "url": "http://place.map.kakao.com/12363661",
      "region": "경기도"
    },
    {
      "lat": 37.2919104526127,
      "lng": 127.05082877511367,
      "title": "파리바게뜨 광교센트럴점",
      "description": "경기 수원시 영통구 센트럴타운로 94",
      "url": "http://place.map.kakao.com/19208554",
      "region": "경기도"
    },
    {
      "lat": 37.61464189069355,
      "lng": 126.83444578277559,
      "title": "파리바게뜨 행신역점",
      "description": "경기 고양시 덕양구 충장로 20",
      "url": "http://place.map.kakao.com/12363087",
      "region": "경기도"
    },
    {
      "lat": 37.1462910540536,
      "lng": 127.068666602652,
      "title": "파리바게뜨 오산점",
      "description": "경기 오산시 대원로 2",
      "url": "http://place.map.kakao.com/12363260",
      "region": "경기도"
    },
    {
      "lat": 37.27445560596579,
      "lng": 127.04386027908245,
      "title": "파리바게뜨 아주대삼거리점",
      "description": "경기 수원시 영통구 중부대로256번길 3",
      "url": "http://place.map.kakao.com/26018541",
      "region": "경기도"
    },
    {
      "lat": 37.39555823946597,
      "lng": 127.11170040301809,
      "title": "랩오브 파리바게뜨 판교테크원타워",
      "description": "경기 성남시 분당구 분당내곡로 131",
      "url": "http://place.map.kakao.com/788403626",
      "region": "경기도"
    },
    {
      "lat": 37.20769381810785,
      "lng": 127.03486916083388,
      "title": "파리바게뜨 병점역점",
      "description": "경기 화성시 병점3로 12",
      "url": "http://place.map.kakao.com/17347035",
      "region": "경기도"
    },
    {
      "lat": 37.4111749338877,
      "lng": 127.129185437823,
      "title": "파리바게뜨 분당야탑점",
      "description": "경기 성남시 분당구 성남대로 912",
      "url": "http://place.map.kakao.com/11083299",
      "region": "경기도"
    },
    {
      "lat": 37.30691011211585,
      "lng": 127.00043991923495,
      "title": "파리바게뜨 수원송죽동점",
      "description": "경기 수원시 장안구 경수대로 1020",
      "url": "http://place.map.kakao.com/21324701",
      "region": "경기도"
    },
    {
      "lat": 37.17441217990766,
      "lng": 127.05076009272895,
      "title": "파리바게뜨 오산휴먼시아점",
      "description": "경기 오산시 문헌공로 3",
      "url": "http://place.map.kakao.com/25659209",
      "region": "경기도"
    },
    {
      "lat": 37.3248242594761,
      "lng": 127.094905190574,
      "title": "파리바게뜨 용인수지점",
      "description": "경기 용인시 수지구 정평로 132",
      "url": "http://place.map.kakao.com/12363272",
      "region": "경기도"
    },
    {
      "lat": 37.386160270907,
      "lng": 127.124630290822,
      "title": "파리바게뜨 분당서현점",
      "description": "경기 성남시 분당구 서현로210번길 14",
      "url": "http://place.map.kakao.com/13282138",
      "region": "경기도"
    },
    {
      "lat": 37.20092594239259,
      "lng": 127.071257262443,
      "title": "파리바게뜨 동탄다은솔빛점",
      "description": "경기 화성시 동탄반석로 134",
      "url": "http://place.map.kakao.com/12363529",
      "region": "경기도"
    },
    {
      "lat": 37.19656165051715,
      "lng": 127.0983813926603,
      "title": "파리바게뜨 동탄역점",
      "description": "경기 화성시 동탄역로 102",
      "url": "http://place.map.kakao.com/345016584",
      "region": "경기도"
    },
    {
      "lat": 37.432372606359905,
      "lng": 127.12970205659438,
      "title": "파리바게뜨 모란역점",
      "description": "경기 성남시 중원구 성남대로1148번길 4",
      "url": "http://place.map.kakao.com/12364501",
      "region": "경기도"
    },
    {
      "lat": 37.48517303879037,
      "lng": 126.78222805564427,
      "title": "파리바게뜨 부천역북부점",
      "description": "경기 부천시 원미구 부천로 7",
      "url": "http://place.map.kakao.com/12527458",
      "region": "경기도"
    },
    {
      "lat": 37.4364786627491,
      "lng": 126.80211714878698,
      "title": "파리바게뜨 시흥은계점",
      "description": "경기 시흥시 은계번영길 2",
      "url": "http://place.map.kakao.com/1904211216",
      "region": "경기도"
    },
    {
      "lat": 37.201537634799024,
      "lng": 126.82532486597498,
      "title": "파리바게뜨 화성시청뉴타운점",
      "description": "경기 화성시 남양읍 역골중앙로 2",
      "url": "http://place.map.kakao.com/1611460122",
      "region": "경기도"
    },
    {
      "lat": 37.24324394774354,
      "lng": 127.03097467373426,
      "title": "파리바게뜨 수원아이파크시티점",
      "description": "경기 수원시 권선구 동수원로146번길 9",
      "url": "http://place.map.kakao.com/21214999",
      "region": "경기도"
    },
    {
      "lat": 37.370596100980165,
      "lng": 126.72932639474689,
      "title": "파리바게뜨 배곧센터점",
      "description": "경기 시흥시 배곧3로 80",
      "url": "http://place.map.kakao.com/683286307",
      "region": "경기도"
    },
    {
      "lat": 37.703405327521,
      "lng": 126.901869972493,
      "title": "파리바게뜨 고양",
      "description": "경기 고양시 덕양구 혜음로 29-2",
      "url": "http://place.map.kakao.com/12363311",
      "region": "경기도"
    },
    {
      "lat": 37.7428904131076,
      "lng": 127.05706717792044,
      "title": "파리바게뜨 의정부신곡점",
      "description": "경기 의정부시 추동로 9",
      "url": "http://place.map.kakao.com/12363081",
      "region": "경기도"
    },
    {
      "lat": 36.98986712766812,
      "lng": 127.08422215223852,
      "title": "파리바게뜨 평택원평점",
      "description": "경기 평택시 원평로 45-1",
      "url": "http://place.map.kakao.com/12363257",
      "region": "경기도"
    },
    {
      "lat": 37.368183278295625,
      "lng": 126.81099380322256,
      "title": "파리바게뜨 능곡지구점",
      "description": "경기 시흥시 능곡로 182",
      "url": "http://place.map.kakao.com/19829969",
      "region": "경기도"
    },
    {
      "lat": 37.378957932588186,
      "lng": 126.78925805451172,
      "title": "파리바게뜨 시흥장곡역점",
      "description": "경기 시흥시 장현장곡로 2",
      "url": "http://place.map.kakao.com/1525764621",
      "region": "경기도"
    },
    {
      "lat": 37.6931993847319,
      "lng": 126.768146771575,
      "title": "파리바게뜨 일산탄현점",
      "description": "경기 고양시 일산서구 현중로 28",
      "url": "http://place.map.kakao.com/12363120",
      "region": "경기도"
    },
    {
      "lat": 37.24515438604536,
      "lng": 126.96348270726187,
      "title": "파리바게뜨 오목천동점",
      "description": "경기 수원시 권선구 삼천병마로 1599",
      "url": "http://place.map.kakao.com/12364450",
      "region": "경기도"
    },
    {
      "lat": 37.39883013306997,
      "lng": 126.92106804034569,
      "title": "파리바게뜨 안양중앙점",
      "description": "경기 안양시 만안구 안양로 303",
      "url": "http://place.map.kakao.com/12363777",
      "region": "경기도"
    },
    {
      "lat": 37.587346529356495,
      "lng": 127.13814508267617,
      "title": "파리바게뜨 구리토평점",
      "description": "경기 구리시 장자대로 70",
      "url": "http://place.map.kakao.com/12363084",
      "region": "경기도"
    },
    {
      "lat": 37.5787352469387,
      "lng": 126.867715784291,
      "title": "파리바게뜨 고양덕은점",
      "description": "경기 고양시 덕양구 으뜸로 110",
      "url": "http://place.map.kakao.com/1274537549",
      "region": "경기도"
    },
    {
      "lat": 37.6496678463179,
      "lng": 127.113637980423,
      "title": "파리바게뜨 별내신안점",
      "description": "경기 남양주시 별내5로5번길 1",
      "url": "http://place.map.kakao.com/21354926",
      "region": "경기도"
    },
    {
      "lat": 37.3913045915054,
      "lng": 126.950569974157,
      "title": "파리바게뜨 평촌범계점",
      "description": "경기 안양시 동안구 시민대로 175",
      "url": "http://place.map.kakao.com/12363733",
      "region": "경기도"
    },
    {
      "lat": 37.26339726354868,
      "lng": 127.03221173550884,
      "title": "파리바게뜨 수원시청역",
      "description": "경기 수원시 팔달구 권광로 181",
      "url": "http://place.map.kakao.com/13007147",
      "region": "경기도"
    },
    {
      "lat": 37.5686340293027,
      "lng": 127.184751769848,
      "title": "파리바게뜨 하남미사점",
      "description": "경기 하남시 미사강변대로 212",
      "url": "http://place.map.kakao.com/1219201530",
      "region": "경기도"
    },
    {
      "lat": 37.650157149404485,
      "lng": 126.79294743015636,
      "title": "파리바게뜨 백석1동점",
      "description": "경기 고양시 일산동구 일산로 142",
      "url": "http://place.map.kakao.com/13024554",
      "region": "경기도"
    },
    {
      "lat": 37.299075842922306,
      "lng": 126.97178041681804,
      "title": "파리바게뜨 성균관대점",
      "description": "경기 수원시 장안구 서부로 2135",
      "url": "http://place.map.kakao.com/12364442",
      "region": "경기도"
    },
    {
      "lat": 37.26996656482384,
      "lng": 127.2181574101922,
      "title": "파리바게뜨 용인둔전",
      "description": "경기 용인시 처인구 포곡읍 포곡로 113",
      "url": "http://place.map.kakao.com/21249798",
      "region": "경기도"
    },
    {
      "lat": 37.41604213738904,
      "lng": 126.91310075855607,
      "title": "파리바게뜨 안양석수대림점",
      "description": "경기 안양시 만안구 경수대로1201번길 26",
      "url": "http://place.map.kakao.com/12363695",
      "region": "경기도"
    },
    {
      "lat": 37.4414759709474,
      "lng": 126.79128185547,
      "title": "파리바게뜨 시흥대야점",
      "description": "경기 시흥시 비둘기공원1길 25",
      "url": "http://place.map.kakao.com/12363783",
      "region": "경기도"
    },
    {
      "lat": 37.412109339267545,
      "lng": 127.13868674942901,
      "title": "파리바게뜨 분당중탑점",
      "description": "경기 성남시 분당구 벌말로 48",
      "url": "http://place.map.kakao.com/12364436",
      "region": "경기도"
    },
    {
      "lat": 37.3040923086545,
      "lng": 127.046856416703,
      "title": "파리바게뜨 뉴웰빙타운점",
      "description": "경기 수원시 영통구 웰빙타운로49번길 32",
      "url": "http://place.map.kakao.com/758420405",
      "region": "경기도"
    },
    {
      "lat": 37.6350212456982,
      "lng": 126.831862797583,
      "title": "파리바게뜨 카페화정역점",
      "description": "경기 고양시 덕양구 화정로 53",
      "url": "http://place.map.kakao.com/21655383",
      "region": "경기도"
    },
    {
      "lat": 37.3880434326294,
      "lng": 127.122885388222,
      "title": "파리바게뜨 분당제생병원점",
      "description": "경기 성남시 분당구 서현로180번길 13",
      "url": "http://place.map.kakao.com/12364429",
      "region": "경기도"
    },
    {
      "lat": 37.391424765225665,
      "lng": 127.07598020626708,
      "title": "파리바게뜨 서판교점",
      "description": "경기 성남시 분당구 운중로 118",
      "url": "http://place.map.kakao.com/15736611",
      "region": "경기도"
    },
    {
      "lat": 38.18699697389943,
      "lng": 128.59241270287544,
      "title": "파리바게뜨 속초조양점",
      "description": "강원특별자치도 속초시 선사로 1",
      "url": "http://place.map.kakao.com/1897085341",
      "region": "강원특별자치도"
    },
    {
      "lat": 37.8774417014873,
      "lng": 127.75146062408,
      "title": "파리바게뜨 춘천후평점",
      "description": "강원특별자치도 춘천시 후석로 293",
      "url": "http://place.map.kakao.com/12354710",
      "region": "강원특별자치도"
    },
    {
      "lat": 37.78345061710436,
      "lng": 128.9160083298953,
      "title": "파리바게뜨 강릉초당점",
      "description": "강원특별자치도 강릉시 연당길 62",
      "url": "http://place.map.kakao.com/12354699",
      "region": "강원특별자치도"
    },
    {
      "lat": 37.768233091474,
      "lng": 128.879077958035,
      "title": "파리바게뜨 강릉솔올점",
      "description": "강원특별자치도 강릉시 솔올로 74",
      "url": "http://place.map.kakao.com/17289096",
      "region": "강원특별자치도"
    },
    {
      "lat": 37.351833794821,
      "lng": 127.931435143524,
      "title": "파리바게뜨 원주단계점",
      "description": "강원특별자치도 원주시 백간길 74",
      "url": "http://place.map.kakao.com/12354603",
      "region": "강원특별자치도"
    },
    {
      "lat": 37.8549689586795,
      "lng": 127.750318870737,
      "title": "파리바게뜨 춘천거두점",
      "description": "강원특별자치도 춘천시 동내면 춘천순환로 58",
      "url": "http://place.map.kakao.com/12354512",
      "region": "강원특별자치도"
    },
    {
      "lat": 37.34960487411282,
      "lng": 127.94797539417378,
      "title": "파리바게뜨 원주1호점",
      "description": "강원특별자치도 원주시 원일로115번길 5",
      "url": "http://place.map.kakao.com/12354704",
      "region": "강원특별자치도"
    },
    {
      "lat": 38.20267666210314,
      "lng": 128.58981585425934,
      "title": "파리바게뜨 속초중앙로점",
      "description": "강원특별자치도 속초시 중앙로 125-1",
      "url": "http://place.map.kakao.com/27277651",
      "region": "강원특별자치도"
    },
    {
      "lat": 38.17378735242722,
      "lng": 128.60537816079847,
      "title": "파리바게뜨 속초대포항점",
      "description": "강원특별자치도 속초시 대포항길 10",
      "url": "http://place.map.kakao.com/22251530",
      "region": "강원특별자치도"
    },
    {
      "lat": 37.87222728385999,
      "lng": 127.72044833832365,
      "title": "파리바게뜨 춘천신성점",
      "description": "강원특별자치도 춘천시 공지로439번길 24",
      "url": "http://place.map.kakao.com/18388258",
      "region": "강원특별자치도"
    },
    {
      "lat": 37.7702022712639,
      "lng": 128.91233328436,
      "title": "파리바게뜨 강릉포남점",
      "description": "강원특별자치도 강릉시 하평길 34",
      "url": "http://place.map.kakao.com/21450012",
      "region": "강원특별자치도"
    },
    {
      "lat": 37.3262871841971,
      "lng": 127.98415174147,
      "title": "파리바게뜨 원주혁신도시중앙점",
      "description": "강원특별자치도 원주시 양지로 50",
      "url": "http://place.map.kakao.com/27550375",
      "region": "강원특별자치도"
    },
    {
      "lat": 37.38401715327012,
      "lng": 127.94767229663823,
      "title": "파리바게뜨 원주태장점",
      "description": "강원특별자치도 원주시 북원로 2694",
      "url": "http://place.map.kakao.com/19007089",
      "region": "강원특별자치도"
    },
    {
      "lat": 37.8800985444361,
      "lng": 127.72779963514,
      "title": "파리바게뜨 춘천명동점",
      "description": "강원특별자치도 춘천시 금강로 54",
      "url": "http://place.map.kakao.com/8118201",
      "region": "강원특별자치도"
    },
    {
      "lat": 37.38037016958082,
      "lng": 128.66362678655676,
      "title": "파리바게뜨 강원정선점",
      "description": "강원특별자치도 정선군 정선읍 봉양6길 32",
      "url": "http://place.map.kakao.com/12354651",
      "region": "강원특별자치도"
    },
    {
      "lat": 38.189501697179686,
      "lng": 128.5805148140037,
      "title": "파리바게뜨 속초엑스포점",
      "description": "강원특별자치도 속초시 동해대로 4147",
      "url": "http://place.map.kakao.com/18453254",
      "region": "강원특별자치도"
    },
    {
      "lat": 38.20688354900768,
      "lng": 128.57376796721877,
      "title": "파리바게뜨 속초동부점",
      "description": "강원특별자치도 속초시 미시령로3359번길 11",
      "url": "http://place.map.kakao.com/12354655",
      "region": "강원특별자치도"
    },
    {
      "lat": 37.76357199460954,
      "lng": 128.87756084786838,
      "title": "파리바게뜨 강릉교동점",
      "description": "강원특별자치도 강릉시 솔올로 17",
      "url": "http://place.map.kakao.com/12354596",
      "region": "강원특별자치도"
    },
    {
      "lat": 37.33634943708368,
      "lng": 127.92802795725021,
      "title": "파리바게뜨 원주무실점",
      "description": "강원특별자치도 원주시 시청로 84",
      "url": "http://place.map.kakao.com/12354756",
      "region": "강원특별자치도"
    },
    {
      "lat": 37.44206600154896,
      "lng": 129.16386341452068,
      "title": "파리바게뜨 삼척사랑점",
      "description": "강원특별자치도 삼척시 진주로 15",
      "url": "http://place.map.kakao.com/12354752",
      "region": "강원특별자치도"
    },
    {
      "lat": 37.74457890006138,
      "lng": 128.8834110226794,
      "title": "파리바게뜨 강릉내곡점",
      "description": "강원특별자치도 강릉시 범일로 647",
      "url": "http://place.map.kakao.com/12354597",
      "region": "강원특별자치도"
    },
    {
      "lat": 37.32540805005422,
      "lng": 127.9404765708916,
      "title": "파리바게뜨 원주청구점",
      "description": "강원특별자치도 원주시 남원로 441-3",
      "url": "http://place.map.kakao.com/12354755",
      "region": "강원특별자치도"
    },
    {
      "lat": 37.75774927331239,
      "lng": 128.87012006075662,
      "title": "파리바게뜨 강릉유천점",
      "description": "강원특별자치도 강릉시 선수촌로 77",
      "url": "http://place.map.kakao.com/45902956",
      "region": "강원특별자치도"
    },
    {
      "lat": 37.2271279036928,
      "lng": 128.818428755418,
      "title": "파리바게뜨 정선사북점",
      "description": "강원특별자치도 정선군 사북읍 사북중앙로 33",
      "url": "http://place.map.kakao.com/12354650",
      "region": "강원특별자치도"
    },
    {
      "lat": 38.07783557487386,
      "lng": 128.62636659983275,
      "title": "파리바게뜨 양양점",
      "description": "강원특별자치도 양양군 양양읍 양양로 17",
      "url": "http://place.map.kakao.com/12354802",
      "region": "강원특별자치도"
    },
    {
      "lat": 37.9089646323653,
      "lng": 127.733545413899,
      "title": "파리바게뜨 춘천우두점",
      "description": "강원특별자치도 춘천시 우두1길 101",
      "url": "http://place.map.kakao.com/1552123410",
      "region": "강원특별자치도"
    },
    {
      "lat": 37.89099452578564,
      "lng": 128.82590307382947,
      "title": "파리바게뜨 주문진점",
      "description": "강원특별자치도 강릉시 주문진읍 주문로 79-1",
      "url": "http://place.map.kakao.com/12354604",
      "region": "강원특별자치도"
    },
    {
      "lat": 37.3372073218777,
      "lng": 127.964009963055,
      "title": "파리바게뜨 원주반곡점",
      "description": "강원특별자치도 원주시 늘품로 187-58",
      "url": "http://place.map.kakao.com/12354652",
      "region": "강원특별자치도"
    },
    {
      "lat": 37.1589399670529,
      "lng": 128.98748818403,
      "title": "파리바게뜨 태백점",
      "description": "강원특별자치도 태백시 반딧불길 3",
      "url": "http://place.map.kakao.com/12354801",
      "region": "강원특별자치도"
    },
    {
      "lat": 37.88105424868642,
      "lng": 127.74610608711625,
      "title": "파리바게뜨 춘천포스코점",
      "description": "강원특별자치도 춘천시 춘천로296번길 3",
      "url": "http://place.map.kakao.com/12354763",
      "region": "강원특별자치도"
    },
    {
      "lat": 38.1981618571828,
      "lng": 128.574169196027,
      "title": "파리바게뜨 속초노학점",
      "description": "강원특별자치도 속초시 동해대로 4270",
      "url": "http://place.map.kakao.com/12393005",
      "region": "강원특별자치도"
    },
    {
      "lat": 37.330772117845115,
      "lng": 127.92637744638691,
      "title": "파리바게뜨 원주무실세영점",
      "description": "강원특별자치도 원주시 무실로 382-1",
      "url": "http://place.map.kakao.com/25448621",
      "region": "강원특별자치도"
    },
    {
      "lat": 37.86897257518931,
      "lng": 127.71566270753783,
      "title": "파리바게뜨 춘천온의점",
      "description": "강원특별자치도 춘천시 영서로 2347-1",
      "url": "http://place.map.kakao.com/9556385",
      "region": "강원특별자치도"
    },
    {
      "lat": 37.44835092237924,
      "lng": 129.17516051978143,
      "title": "파리바게뜨 삼척교동점",
      "description": "강원특별자치도 삼척시 정상로 74",
      "url": "http://place.map.kakao.com/12354649",
      "region": "강원특별자치도"
    },
    {
      "lat": 37.33079013049327,
      "lng": 127.9485513063063,
      "title": "파리바게뜨 원주시범점",
      "description": "강원특별자치도 원주시 서원대로 396",
      "url": "http://place.map.kakao.com/27277654",
      "region": "강원특별자치도"
    },
    {
      "lat": 37.1785657764593,
      "lng": 128.458203697381,
      "title": "파리바게뜨 영월행복점",
      "description": "강원특별자치도 영월군 영월읍 하송로 126",
      "url": "http://place.map.kakao.com/19625027",
      "region": "강원특별자치도"
    },
    {
      "lat": 37.5494395816263,
      "lng": 129.10852406188218,
      "title": "파리바게뜨 동해묵호점",
      "description": "강원특별자치도 동해시 발한로 225",
      "url": "http://place.map.kakao.com/11649565",
      "region": "강원특별자치도"
    },
    {
      "lat": 37.68195726506762,
      "lng": 127.87764596939155,
      "title": "파리바게뜨 홍천연봉점",
      "description": "강원특별자치도 홍천군 홍천읍 연봉로 33",
      "url": "http://place.map.kakao.com/12354658",
      "region": "강원특별자치도"
    },
    {
      "lat": 37.744916036706705,
      "lng": 128.8905972769213,
      "title": "파리바게뜨 강릉자이점",
      "description": "강원특별자치도 강릉시 동해대로 2768",
      "url": "http://place.map.kakao.com/1427828316",
      "region": "강원특별자치도"
    },
    {
      "lat": 37.86733336706691,
      "lng": 127.7538411222672,
      "title": "파리바게뜨 춘천석사점",
      "description": "강원특별자치도 춘천시 후석로186번길 14",
      "url": "http://place.map.kakao.com/21349377",
      "region": "강원특별자치도"
    },
    {
      "lat": 37.4661923959796,
      "lng": 129.16411023556256,
      "title": "파리바게뜨 삼척해변하나로점",
      "description": "강원특별자치도 삼척시 새천년도로 599",
      "url": "http://place.map.kakao.com/611386008",
      "region": "강원특별자치도"
    },
    {
      "lat": 37.18382354167185,
      "lng": 128.46560394559066,
      "title": "파리바게뜨 영월점",
      "description": "강원특별자치도 영월군 영월읍 중앙1로 29",
      "url": "http://place.map.kakao.com/12354753",
      "region": "강원특별자치도"
    },
    {
      "lat": 37.52196309371045,
      "lng": 129.11390868896032,
      "title": "파리바게뜨 동해점",
      "description": "강원특별자치도 동해시 중앙로 237",
      "url": "http://place.map.kakao.com/12354700",
      "region": "강원특별자치도"
    },
    {
      "lat": 38.20645621411007,
      "lng": 127.21905402053115,
      "title": "파리바게뜨 철원동송점",
      "description": "강원특별자치도 철원군 동송읍 금학로 197-1",
      "url": "http://place.map.kakao.com/12354530",
      "region": "강원특별자치도"
    },
    {
      "lat": 37.858107626176164,
      "lng": 127.73837613278839,
      "title": "파리바게뜨 퇴계주공랜드마크점",
      "description": "강원특별자치도 춘천시 퇴계로 175",
      "url": "http://place.map.kakao.com/12354493",
      "region": "강원특별자치도"
    },
    {
      "lat": 36.6218031795173,
      "lng": 127.429491867933,
      "title": "파리바게뜨 청주강서점",
      "description": "충북 청주시 흥덕구 서현북로 64",
      "url": "http://place.map.kakao.com/12363617",
      "region": "충청북도"
    },
    {
      "lat": 36.6372099004175,
      "lng": 127.489076253966,
      "title": "파리바게뜨 청주북문점",
      "description": "충북 청주시 상당구 사직대로 375",
      "url": "http://place.map.kakao.com/12363153",
      "region": "충청북도"
    },
    {
      "lat": 36.70960533839891,
      "lng": 127.42671866952853,
      "title": "파리바게뜨 오창중앙점",
      "description": "충북 청주시 청원구 오창읍 오창중앙로 12",
      "url": "http://place.map.kakao.com/12363242",
      "region": "충청북도"
    },
    {
      "lat": 37.1374032067391,
      "lng": 128.211361769977,
      "title": "파리바게뜨 충북제천점",
      "description": "충북 제천시 풍양로15길 1",
      "url": "http://place.map.kakao.com/12363286",
      "region": "충청북도"
    },
    {
      "lat": 36.9817895563964,
      "lng": 127.918570861157,
      "title": "파리바게뜨 충주칠금점",
      "description": "충북 충주시 칠금중앙로 30",
      "url": "http://place.map.kakao.com/12363235",
      "region": "충청북도"
    },
    {
      "lat": 36.6681498325415,
      "lng": 127.4858266967,
      "title": "파리바게뜨 청주율량점",
      "description": "충북 청주시 청원구 율봉로 150",
      "url": "http://place.map.kakao.com/8569878",
      "region": "충청북도"
    },
    {
      "lat": 36.6257824224422,
      "lng": 127.433516327755,
      "title": "파리바게뜨 청주터미널점",
      "description": "충북 청주시 흥덕구 풍년로 148-1",
      "url": "http://place.map.kakao.com/13024915",
      "region": "충청북도"
    },
    {
      "lat": 36.9615574251997,
      "lng": 127.940876653372,
      "title": "파리바게뜨 충주용산점",
      "description": "충북 충주시 남산로 78",
      "url": "http://place.map.kakao.com/77118679",
      "region": "충청북도"
    },
    {
      "lat": 37.14322034549926,
      "lng": 128.19857663063104,
      "title": "파리바게뜨 제천하소점",
      "description": "충북 제천시 용두대로21길 18",
      "url": "http://place.map.kakao.com/21274389",
      "region": "충청북도"
    },
    {
      "lat": 36.97099911044053,
      "lng": 127.93351494068371,
      "title": "파리바게뜨 충북충주점",
      "description": "충북 충주시 예성로 158",
      "url": "http://place.map.kakao.com/24545464",
      "region": "충청북도"
    },
    {
      "lat": 36.6300522719419,
      "lng": 127.50356110375905,
      "title": "파리바게뜨 청주금천점",
      "description": "충북 청주시 상당구 중고개로 333",
      "url": "http://place.map.kakao.com/12363238",
      "region": "충청북도"
    },
    {
      "lat": 36.9694476058225,
      "lng": 127.537402239408,
      "title": "파리바게뜨 음성성본점",
      "description": "충북 음성군 대소면 성본상가로 61",
      "url": "http://place.map.kakao.com/993321772",
      "region": "충청북도"
    },
    {
      "lat": 36.6291674660797,
      "lng": 127.436370617704,
      "title": "파리바게뜨 청주가경점",
      "description": "충북 청주시 흥덕구 가경로161번길 2",
      "url": "http://place.map.kakao.com/8118200",
      "region": "충청북도"
    },
    {
      "lat": 36.3009076961992,
      "lng": 127.56890105959386,
      "title": "파리바게뜨 충북옥천점",
      "description": "충북 옥천군 옥천읍 중앙로 42",
      "url": "http://place.map.kakao.com/19339046",
      "region": "충청북도"
    },
    {
      "lat": 36.483724320345814,
      "lng": 127.71829495954331,
      "title": "파리바게뜨 충북보은점",
      "description": "충북 보은군 보은읍 삼산로 36-1",
      "url": "http://place.map.kakao.com/12363293",
      "region": "충청북도"
    },
    {
      "lat": 36.631058244565274,
      "lng": 127.32987467955894,
      "title": "파리바게뜨 청원오송점",
      "description": "충북 청주시 흥덕구 오송읍 오송생명로 186",
      "url": "http://place.map.kakao.com/15623657",
      "region": "충청북도"
    },
    {
      "lat": 36.6339528198588,
      "lng": 127.448410483455,
      "title": "파리바게뜨 공단오거리점",
      "description": "충북 청주시 흥덕구 사직대로 10",
      "url": "http://place.map.kakao.com/12363239",
      "region": "충청북도"
    },
    {
      "lat": 37.118602730590894,
      "lng": 127.6410858992925,
      "title": "파리바게뜨 음성감곡점",
      "description": "충북 음성군 감곡면 장감로 169",
      "url": "http://place.map.kakao.com/12363217",
      "region": "충청북도"
    },
    {
      "lat": 36.6210362394941,
      "lng": 127.487364271148,
      "title": "파리바게뜨 청주모충점",
      "description": "충북 청주시 서원구 청남로 2115-1",
      "url": "http://place.map.kakao.com/12813849",
      "region": "충청북도"
    },
    {
      "lat": 36.6393657382162,
      "lng": 127.432615134523,
      "title": "파리바게뜨 청주복대점",
      "description": "충북 청주시 흥덕구 대신로73번길 49",
      "url": "http://place.map.kakao.com/794944205",
      "region": "충청북도"
    },
    {
      "lat": 36.60163473916761,
      "lng": 127.50129978229465,
      "title": "파리바게뜨 청주방서점",
      "description": "충북 청주시 상당구 단재로 312",
      "url": "http://place.map.kakao.com/570855321",
      "region": "충청북도"
    },
    {
      "lat": 36.967696459451,
      "lng": 127.486052654948,
      "title": "파리바게뜨 충북대소점",
      "description": "충북 음성군 대소면 오태로 97",
      "url": "http://place.map.kakao.com/12363156",
      "region": "충청북도"
    },
    {
      "lat": 36.9874494317008,
      "lng": 127.930900016017,
      "title": "파리바게뜨 충주연수점",
      "description": "충북 충주시 번영대로 119",
      "url": "http://place.map.kakao.com/10894191",
      "region": "충청북도"
    },
    {
      "lat": 36.6470254539245,
      "lng": 127.465569252802,
      "title": "파리바게뜨 청주신봉점",
      "description": "충북 청주시 흥덕구 1순환로 507",
      "url": "http://place.map.kakao.com/26848922",
      "region": "충청북도"
    },
    {
      "lat": 36.74081893169268,
      "lng": 127.45451763604756,
      "title": "파리바게뜨 청원오창점",
      "description": "충북 청주시 청원구 오창읍 두릉유리로 1130",
      "url": "http://place.map.kakao.com/13024942",
      "region": "충청북도"
    },
    {
      "lat": 36.6163481395602,
      "lng": 127.472704400483,
      "title": "파리바게뜨 청주산남점",
      "description": "충북 청주시 서원구 수곡로 49",
      "url": "http://place.map.kakao.com/12363229",
      "region": "충청북도"
    },
    {
      "lat": 36.7837676040059,
      "lng": 127.581204898727,
      "title": "파리바게뜨 충북증평점",
      "description": "충북 증평군 증평읍 중앙로 200-2",
      "url": "http://place.map.kakao.com/12364652",
      "region": "충청북도"
    },
    {
      "lat": 36.65091461629389,
      "lng": 127.4876654435118,
      "title": "파리바게뜨 청주대점",
      "description": "충북 청주시 청원구 중앙로 153-1",
      "url": "http://place.map.kakao.com/12363289",
      "region": "충청북도"
    },
    {
      "lat": 36.64372029702876,
      "lng": 127.42703708653734,
      "title": "파리바게뜨 복대지웰점",
      "description": "충북 청주시 흥덕구 대농로 43",
      "url": "http://place.map.kakao.com/13083658",
      "region": "충청북도"
    },
    {
      "lat": 36.6719722929899,
      "lng": 127.497636813937,
      "title": "파리바게뜨 청주율량칸타빌점",
      "description": "충북 청주시 청원구 주성로279번길 36",
      "url": "http://place.map.kakao.com/24885972",
      "region": "충청북도"
    },
    {
      "lat": 36.636084108605075,
      "lng": 127.47782074560081,
      "title": "파리바게뜨 사직위브점",
      "description": "충북 청주시 서원구 사직대로 273-1",
      "url": "http://place.map.kakao.com/12363168",
      "region": "충청북도"
    },
    {
      "lat": 36.9727956729005,
      "lng": 127.927554626014,
      "title": "파리바게뜨 충주문화점",
      "description": "충북 충주시 중앙로 38",
      "url": "http://place.map.kakao.com/12363159",
      "region": "충청북도"
    },
    {
      "lat": 36.62283903187605,
      "lng": 127.50625536540795,
      "title": "파리바게뜨 금천뉴타운점",
      "description": "충북 청주시 상당구 쇠내로 121-2",
      "url": "http://place.map.kakao.com/12363284",
      "region": "충청북도"
    },
    {
      "lat": 37.153237720088796,
      "lng": 128.22518509607073,
      "title": "파리바게뜨 제천장락주공점",
      "description": "충북 제천시 장락로 125",
      "url": "http://place.map.kakao.com/21484691",
      "region": "충청북도"
    },
    {
      "lat": 36.6096199948625,
      "lng": 127.504000520599,
      "title": "파리바게뜨 청주용암현대점",
      "description": "충북 청주시 상당구 월평로184번길 17",
      "url": "http://place.map.kakao.com/24709909",
      "region": "충청북도"
    },
    {
      "lat": 36.62042983265469,
      "lng": 127.31600083456837,
      "title": "파리바게뜨 오송파라곤점",
      "description": "충북 청주시 흥덕구 오송읍 오송생명7로 146",
      "url": "http://place.map.kakao.com/1737495504",
      "region": "충청북도"
    },
    {
      "lat": 36.62472107653281,
      "lng": 127.46639652713593,
      "title": "파리바게뜨 청주개신점",
      "description": "충북 청주시 서원구 모충로12번길 9-13",
      "url": "http://place.map.kakao.com/12363230",
      "region": "충청북도"
    },
    {
      "lat": 36.63101355458575,
      "lng": 127.46849278898613,
      "title": "파리바게뜨 사직캐슬점",
      "description": "충북 청주시 서원구 예체로 55",
      "url": "http://place.map.kakao.com/13024875",
      "region": "충청북도"
    },
    {
      "lat": 36.67324045810251,
      "lng": 127.49149230993437,
      "title": "파리바게뜨 청주율량타운점",
      "description": "충북 청주시 청원구 율량로48번길 1",
      "url": "http://place.map.kakao.com/22399169",
      "region": "충청북도"
    },
    {
      "lat": 36.6314212105712,
      "lng": 127.50714333698,
      "title": "파리바게뜨 금천부영점",
      "description": "충북 청주시 상당구 수영로 306-1",
      "url": "http://place.map.kakao.com/18945540",
      "region": "충청북도"
    },
    {
      "lat": 37.01427594672348,
      "lng": 127.91741676472085,
      "title": "파리바게뜨 충주목행점",
      "description": "충북 충주시 행정9길 40",
      "url": "http://place.map.kakao.com/21346969",
      "region": "충청북도"
    },
    {
      "lat": 36.8093867059735,
      "lng": 127.792871066678,
      "title": "파리바게뜨 충북괴산점",
      "description": "충북 괴산군 괴산읍 읍내로2길 55-4",
      "url": "http://place.map.kakao.com/12363214",
      "region": "충청북도"
    },
    {
      "lat": 36.9831861236757,
      "lng": 128.369401632387,
      "title": "파리바게뜨 충북단양점",
      "description": "충북 단양군 단양읍 삼봉로 298",
      "url": "http://place.map.kakao.com/12363285",
      "region": "충청북도"
    },
    {
      "lat": 36.6435054560431,
      "lng": 127.455832808692,
      "title": "파리바게뜨 청주봉명점",
      "description": "충북 청주시 흥덕구 직지대로 567",
      "url": "http://place.map.kakao.com/12363206",
      "region": "충청북도"
    },
    {
      "lat": 37.1352871457991,
      "lng": 128.197936041745,
      "title": "파리바게뜨 제천시청로점",
      "description": "충북 제천시 용두대로7길 16",
      "url": "http://place.map.kakao.com/15602919",
      "region": "충청북도"
    },
    {
      "lat": 36.9261142250396,
      "lng": 127.037653037397,
      "title": "파리바게뜨 아산둔포점",
      "description": "충남 아산시 둔포면 둔포중앙로 162-1",
      "url": "http://place.map.kakao.com/12353899",
      "region": "충청남도"
    },
    {
      "lat": 36.7714746282889,
      "lng": 126.447902700201,
      "title": "파리바게뜨 서산예천점",
      "description": "충남 서산시 호수공원10로 3",
      "url": "http://place.map.kakao.com/12353979",
      "region": "충청남도"
    },
    {
      "lat": 36.47397769551696,
      "lng": 127.1372757159713,
      "title": "파리바게뜨 공주신관점",
      "description": "충남 공주시 번영1로 88",
      "url": "http://place.map.kakao.com/12354320",
      "region": "충청남도"
    },
    {
      "lat": 36.7723500935069,
      "lng": 127.077606228903,
      "title": "파리바게뜨 아산북수점",
      "description": "충남 아산시 배방읍 월천2길 8-36",
      "url": "http://place.map.kakao.com/1688052575",
      "region": "충청남도"
    },
    {
      "lat": 36.6018154228433,
      "lng": 126.665967065982,
      "title": "파리바게뜨 충남홍성점",
      "description": "충남 홍성군 홍성읍 조양로 143",
      "url": "http://place.map.kakao.com/17735820",
      "region": "충청남도"
    },
    {
      "lat": 36.82890023937244,
      "lng": 127.13350970628194,
      "title": "파리바게뜨 천안극동점",
      "description": "충남 천안시 서북구 성정중7길 3",
      "url": "http://place.map.kakao.com/12354417",
      "region": "충청남도"
    },
    {
      "lat": 36.10331437520498,
      "lng": 127.4909142412502,
      "title": "파리바게뜨 충남금산점",
      "description": "충남 금산군 금산읍 비범로 6",
      "url": "http://place.map.kakao.com/12354415",
      "region": "충청남도"
    },
    {
      "lat": 36.8242345452543,
      "lng": 127.137253160942,
      "title": "파리바게뜨 천안성정점",
      "description": "충남 천안시 서북구 쌍용대로 302",
      "url": "http://place.map.kakao.com/12354419",
      "region": "충청남도"
    },
    {
      "lat": 36.753200727758276,
      "lng": 126.2989553949773,
      "title": "파리바게뜨 충남태안점",
      "description": "충남 태안군 태안읍 중앙로 91-1",
      "url": "http://place.map.kakao.com/12353920",
      "region": "충청남도"
    },
    {
      "lat": 36.81652680993097,
      "lng": 127.15801940939338,
      "title": "파리바게뜨 천안신안점",
      "description": "충남 천안시 동남구 충절로 28",
      "url": "http://place.map.kakao.com/13622060",
      "region": "충청남도"
    },
    {
      "lat": 36.1801923177285,
      "lng": 127.10478206552,
      "title": "파리바게뜨 논산시민점",
      "description": "충남 논산시 시민로132번길 36-6",
      "url": "http://place.map.kakao.com/1979039587",
      "region": "충청남도"
    },
    {
      "lat": 36.823054943375126,
      "lng": 127.15558936663166,
      "title": "파리바게뜨 천안신부점",
      "description": "충남 천안시 동남구 터미널9길 25",
      "url": "http://place.map.kakao.com/11905272",
      "region": "충청남도"
    },
    {
      "lat": 36.192397461194325,
      "lng": 127.09025264036174,
      "title": "파리바게뜨 논산취암점",
      "description": "충남 논산시 시민로307번길 14",
      "url": "http://place.map.kakao.com/12353948",
      "region": "충청남도"
    },
    {
      "lat": 36.840705229823975,
      "lng": 127.12981149219793,
      "title": "파리바게뜨 성성레이크타운점",
      "description": "충남 천안시 서북구 성성8로 14-13",
      "url": "http://place.map.kakao.com/1007870492",
      "region": "충청남도"
    },
    {
      "lat": 36.878803776663,
      "lng": 127.153336783035,
      "title": "파리바게뜨 천안직산점",
      "description": "충남 천안시 서북구 직산읍 삼은3길 34",
      "url": "http://place.map.kakao.com/12354420",
      "region": "충청남도"
    },
    {
      "lat": 36.6915294744456,
      "lng": 126.8298869660301,
      "title": "파리바게뜨 예산산성점",
      "description": "충남 예산군 예산읍 역전로 137",
      "url": "http://place.map.kakao.com/12354418",
      "region": "충청남도"
    },
    {
      "lat": 36.77441787585198,
      "lng": 127.13372320922103,
      "title": "파리바게뜨 천안신방통정점",
      "description": "충남 천안시 동남구 통정5로 62",
      "url": "http://place.map.kakao.com/14744887",
      "region": "충청남도"
    },
    {
      "lat": 36.447672276162216,
      "lng": 126.80201089812944,
      "title": "파리바게뜨 충남청양점",
      "description": "충남 청양군 청양읍 고리섬들길 77",
      "url": "http://place.map.kakao.com/60335828",
      "region": "충청남도"
    },
    {
      "lat": 36.81213134077017,
      "lng": 127.15308715836208,
      "title": "파리바게뜨 천안에듀시티",
      "description": "충남 천안시 동남구 성황로 40",
      "url": "http://place.map.kakao.com/656314419",
      "region": "충청남도"
    },
    {
      "lat": 36.77377439248457,
      "lng": 126.93370797139526,
      "title": "파리바게뜨 아산순천향대점",
      "description": "충남 아산시 신창면 순천향로 17",
      "url": "http://place.map.kakao.com/21272396",
      "region": "충청남도"
    },
    {
      "lat": 36.350038721696244,
      "lng": 126.59657779640808,
      "title": "파리바게뜨 충남대천점",
      "description": "충남 보령시 대천로 15",
      "url": "http://place.map.kakao.com/12353944",
      "region": "충청남도"
    },
    {
      "lat": 36.7906307368255,
      "lng": 127.139985190156,
      "title": "파리바게뜨 용곡눈들점",
      "description": "충남 천안시 동남구 용곡5길 39-4",
      "url": "http://place.map.kakao.com/13024877",
      "region": "충청남도"
    },
    {
      "lat": 36.8912380886813,
      "lng": 126.638351384924,
      "title": "파리바게뜨 당진문예의전당점",
      "description": "충남 당진시 시청1로 84",
      "url": "http://place.map.kakao.com/13725135",
      "region": "충청남도"
    },
    {
      "lat": 36.6577115350785,
      "lng": 126.679285826762,
      "title": "파리바게뜨 내포신도시점",
      "description": "충남 홍성군 홍북읍 청사로 152",
      "url": "http://place.map.kakao.com/628490263",
      "region": "충청남도"
    },
    {
      "lat": 36.28083633632882,
      "lng": 126.91072420070078,
      "title": "파리바게뜨 충남부여점",
      "description": "충남 부여군 부여읍 사비로 92",
      "url": "http://place.map.kakao.com/12353971",
      "region": "충청남도"
    },
    {
      "lat": 36.93826277986747,
      "lng": 126.43477273770998,
      "title": "파리바게뜨 충남대산점",
      "description": "충남 서산시 대산읍 구진로 31",
      "url": "http://place.map.kakao.com/12353846",
      "region": "충청남도"
    },
    {
      "lat": 36.788352098414535,
      "lng": 126.95121993679155,
      "title": "파리바게뜨 아산신창점",
      "description": "충남 아산시 신창면 남성길 72",
      "url": "http://place.map.kakao.com/674578761",
      "region": "충청남도"
    },
    {
      "lat": 36.878983147476,
      "lng": 126.752191233486,
      "title": "파리바게뜨 충남신평점",
      "description": "충남 당진시 신평면 덕평로 1390-1",
      "url": "http://place.map.kakao.com/12353898",
      "region": "충청남도"
    },
    {
      "lat": 36.7826229915931,
      "lng": 126.458070811627,
      "title": "파리바게뜨 서산터미널점",
      "description": "충남 서산시 시장6로 34",
      "url": "http://place.map.kakao.com/73592283",
      "region": "충청남도"
    },
    {
      "lat": 36.7812729795636,
      "lng": 127.003387628584,
      "title": "파리바게뜨 충남온양점",
      "description": "충남 아산시 온천대로 1492",
      "url": "http://place.map.kakao.com/12353873",
      "region": "충청남도"
    },
    {
      "lat": 36.77645384016774,
      "lng": 126.99786270148456,
      "title": "파리바게뜨 아산용화점",
      "description": "충남 아산시 어의정로 17",
      "url": "http://place.map.kakao.com/12353923",
      "region": "충청남도"
    },
    {
      "lat": 36.79132416214591,
      "lng": 127.15625231435153,
      "title": "파리바게뜨 천안청수점",
      "description": "충남 천안시 동남구 청수로 98",
      "url": "http://place.map.kakao.com/21289944",
      "region": "충청남도"
    },
    {
      "lat": 36.83476789215384,
      "lng": 127.1453411242443,
      "title": "파리바게뜨 천안두정점",
      "description": "충남 천안시 서북구 봉정로 365",
      "url": "http://place.map.kakao.com/8118198",
      "region": "충청남도"
    },
    {
      "lat": 36.4758201348196,
      "lng": 127.153254366267,
      "title": "파리바게뜨 공주월송점",
      "description": "충남 공주시 무령로 580-31",
      "url": "http://place.map.kakao.com/1646238104",
      "region": "충청남도"
    },
    {
      "lat": 36.8269061691677,
      "lng": 127.12342588333,
      "title": "파리바게뜨 천안백석점",
      "description": "충남 천안시 서북구 한들3로 35-4",
      "url": "http://place.map.kakao.com/26849081",
      "region": "충청남도"
    },
    {
      "lat": 36.64674346784251,
      "lng": 126.67647183870044,
      "title": "파리바게뜨 내포아이프라자점",
      "description": "충남 홍성군 홍북읍 홍학로 95",
      "url": "http://place.map.kakao.com/46600642",
      "region": "충청남도"
    },
    {
      "lat": 36.78848467385383,
      "lng": 127.12845958976948,
      "title": "파리바게뜨 신방초원점",
      "description": "충남 천안시 동남구 수곡로 81",
      "url": "http://place.map.kakao.com/19668067",
      "region": "충청남도"
    },
    {
      "lat": 36.907872528651055,
      "lng": 126.64471255436658,
      "title": "파리바게뜨 당진원당로점",
      "description": "충남 당진시 원당로 80",
      "url": "http://place.map.kakao.com/21248524",
      "region": "충청남도"
    },
    {
      "lat": 36.9650044963777,
      "lng": 126.69227726253958,
      "title": "파리바게뜨 당진유곡점",
      "description": "충남 당진시 송산면 유곡로 54",
      "url": "http://place.map.kakao.com/438703408",
      "region": "충청남도"
    },
    {
      "lat": 36.89363722706747,
      "lng": 126.63029169234878,
      "title": "파리바게뜨 당진로터리점",
      "description": "충남 당진시 당진중앙2로 96",
      "url": "http://place.map.kakao.com/12353922",
      "region": "충청남도"
    },
    {
      "lat": 36.78692282741618,
      "lng": 127.08564360143272,
      "title": "파리바게뜨 아산탕정역점",
      "description": "충남 아산시 탕정면 한들물빛도시로 70",
      "url": "http://place.map.kakao.com/105472508",
      "region": "충청남도"
    },
    {
      "lat": 36.28339114776049,
      "lng": 126.92224510780619,
      "title": "파리바게뜨 부여쌍북점",
      "description": "충남 부여군 부여읍 성왕로 318",
      "url": "http://place.map.kakao.com/499373376",
      "region": "충청남도"
    },
    {
      "lat": 36.81843442867087,
      "lng": 127.10712386347862,
      "title": "파리바게뜨 불당파크점",
      "description": "충남 천안시 서북구 불당26로 122",
      "url": "http://place.map.kakao.com/905548868",
      "region": "충청남도"
    },
    {
      "lat": 36.519191794325764,
      "lng": 126.34520165268873,
      "title": "파리바게뜨 안면도점",
      "description": "충남 태안군 안면읍 장터로 135",
      "url": "http://place.map.kakao.com/13024935",
      "region": "충청남도"
    },
    {
      "lat": 36.74833476742245,
      "lng": 126.30371043025357,
      "title": "파리바게뜨 태안터미널점",
      "description": "충남 태안군 태안읍 동백로 303",
      "url": "http://place.map.kakao.com/13105026",
      "region": "충청남도"
    },
    {
      "lat": 35.81560473463299,
      "lng": 127.10885148596185,
      "title": "파리바게뜨 전북도청점",
      "description": "전북특별자치도 전주시 완산구 홍산남로 62",
      "url": "http://place.map.kakao.com/26848274",
      "region": "전북특별자치도"
    },
    {
      "lat": 35.96429716148858,
      "lng": 126.71867455337744,
      "title": "파리바게뜨 군산수송점",
      "description": "전북특별자치도 군산시 수송로 211",
      "url": "http://place.map.kakao.com/12354078",
      "region": "전북특별자치도"
    },
    {
      "lat": 35.7263470700322,
      "lng": 126.73773313385,
      "title": "파리바게뜨 전북부안점",
      "description": "전북특별자치도 부안군 부안읍 번영로 158",
      "url": "http://place.map.kakao.com/12353936",
      "region": "전북특별자치도"
    },
    {
      "lat": 35.78698812369613,
      "lng": 127.13261352392698,
      "title": "파리바게뜨 전주평화현대점",
      "description": "전북특별자치도 전주시 완산구 소대배기로 22",
      "url": "http://place.map.kakao.com/12353908",
      "region": "전북특별자치도"
    },
    {
      "lat": 35.5816876764729,
      "lng": 126.855221029844,
      "title": "파리바게뜨 정읍수성점",
      "description": "전북특별자치도 정읍시 수성로 44",
      "url": "http://place.map.kakao.com/12353915",
      "region": "전북특별자치도"
    },
    {
      "lat": 35.6471268687234,
      "lng": 127.518536890198,
      "title": "파리바게뜨 전북장수점",
      "description": "전북특별자치도 장수군 장수읍 장천로 168",
      "url": "http://place.map.kakao.com/13024847",
      "region": "전북특별자치도"
    },
    {
      "lat": 35.79418497700737,
      "lng": 127.13360327395678,
      "title": "파리바게뜨 전주코오롱점",
      "description": "전북특별자치도 전주시 완산구 평화18길 23-10",
      "url": "http://place.map.kakao.com/12353884",
      "region": "전북특별자치도"
    },
    {
      "lat": 35.84562312123466,
      "lng": 127.15032247328168,
      "title": "파리바게뜨 전주어울림점",
      "description": "전북특별자치도 전주시 덕진구 백제대로 744",
      "url": "http://place.map.kakao.com/12353909",
      "region": "전북특별자치도"
    },
    {
      "lat": 35.84365117851808,
      "lng": 127.126874353418,
      "title": "파리바게뜨 전북대점",
      "description": "전북특별자치도 전주시 덕진구 명륜4길 19",
      "url": "http://place.map.kakao.com/10884114",
      "region": "전북특별자치도"
    },
    {
      "lat": 35.8048413231846,
      "lng": 127.114102584524,
      "title": "파리바게뜨 전주효자점",
      "description": "전북특별자치도 전주시 완산구 효자천변2길 13",
      "url": "http://place.map.kakao.com/8126301",
      "region": "전북특별자치도"
    },
    {
      "lat": 35.96974906556233,
      "lng": 126.7270123415294,
      "title": "파리바게뜨 군산미장점",
      "description": "전북특별자치도 군산시 문화로 194",
      "url": "http://place.map.kakao.com/12353893",
      "region": "전북특별자치도"
    },
    {
      "lat": 35.8412527368989,
      "lng": 127.058000500279,
      "title": "파리바게뜨 전주혁신호반점",
      "description": "전북특별자치도 전주시 덕진구 안전로 195",
      "url": "http://place.map.kakao.com/24927011",
      "region": "전북특별자치도"
    },
    {
      "lat": 35.866788507213734,
      "lng": 127.12742940789012,
      "title": "파리바게뜨 전주송천점",
      "description": "전북특별자치도 전주시 덕진구 솔내로 188",
      "url": "http://place.map.kakao.com/11084828",
      "region": "전북특별자치도"
    },
    {
      "lat": 35.83200244850874,
      "lng": 127.1133224611884,
      "title": "파리바게뜨 전주서신점",
      "description": "전북특별자치도 전주시 완산구 당산로 46",
      "url": "http://place.map.kakao.com/18634328",
      "region": "전북특별자치도"
    },
    {
      "lat": 35.9556097440733,
      "lng": 126.97332459600979,
      "title": "파리바게뜨 익산영등점",
      "description": "전북특별자치도 익산시 고봉로30길 28",
      "url": "http://place.map.kakao.com/12353913",
      "region": "전북특별자치도"
    },
    {
      "lat": 35.92901918486991,
      "lng": 126.95938252962259,
      "title": "파리바게뜨 익산동산점",
      "description": "전북특별자치도 익산시 평동로19길 2",
      "url": "http://place.map.kakao.com/21286106",
      "region": "전북특별자치도"
    },
    {
      "lat": 35.82632240214439,
      "lng": 127.14089042959142,
      "title": "파리바게뜨 전주태평점",
      "description": "전북특별자치도 전주시 완산구 공북로 83",
      "url": "http://place.map.kakao.com/19141907",
      "region": "전북특별자치도"
    },
    {
      "lat": 35.80043954227123,
      "lng": 127.11411620337408,
      "title": "파리바게뜨 전주삼천점",
      "description": "전북특별자치도 전주시 완산구 효자천변1길 27",
      "url": "http://place.map.kakao.com/12353935",
      "region": "전북특별자치도"
    },
    {
      "lat": 35.945879422464536,
      "lng": 126.94328306592529,
      "title": "파리바게뜨 익산모현점",
      "description": "전북특별자치도 익산시 고현로7길 4",
      "url": "http://place.map.kakao.com/12353851",
      "region": "전북특별자치도"
    },
    {
      "lat": 35.8348981411949,
      "lng": 127.165434276229,
      "title": "파리바게뜨 전주우아점",
      "description": "전북특별자치도 전주시 덕진구 건산로 260",
      "url": "http://place.map.kakao.com/12353880",
      "region": "전북특별자치도"
    },
    {
      "lat": 35.8430171456514,
      "lng": 127.139478759618,
      "title": "파리바게뜨 전주금암점",
      "description": "전북특별자치도 전주시 덕진구 백제대로 639",
      "url": "http://place.map.kakao.com/12353858",
      "region": "전북특별자치도"
    },
    {
      "lat": 36.00746460292766,
      "lng": 127.66294335749919,
      "title": "파리바게뜨 전북무주점",
      "description": "전북특별자치도 무주군 무주읍 향학로 36",
      "url": "http://place.map.kakao.com/12353937",
      "region": "전북특별자치도"
    },
    {
      "lat": 35.97688953333147,
      "lng": 126.74040715965202,
      "title": "파리바게뜨 군산디오션점",
      "description": "전북특별자치도 군산시 궁포1로 24-3",
      "url": "http://place.map.kakao.com/160160183",
      "region": "전북특별자치도"
    },
    {
      "lat": 35.801036164687424,
      "lng": 126.8849237630762,
      "title": "파리바게뜨 전북김제점",
      "description": "전북특별자치도 김제시 서낭당길 6",
      "url": "http://place.map.kakao.com/12353853",
      "region": "전북특별자치도"
    },
    {
      "lat": 35.8283034241806,
      "lng": 127.133742442152,
      "title": "파리바게뜨 전주덕진구청점",
      "description": "전북특별자치도 전주시 덕진구 벚꽃3길 9-1",
      "url": "http://place.map.kakao.com/1730912556",
      "region": "전북특별자치도"
    },
    {
      "lat": 35.985301234107666,
      "lng": 126.71519795594483,
      "title": "파리바게뜨 군산중앙점",
      "description": "전북특별자치도 군산시 중앙로 136",
      "url": "http://place.map.kakao.com/21247160",
      "region": "전북특별자치도"
    },
    {
      "lat": 35.825531488917626,
      "lng": 127.1160721672904,
      "title": "파리바게뜨 전주중화산점",
      "description": "전북특별자치도 전주시 완산구 유연로 277",
      "url": "http://place.map.kakao.com/12353934",
      "region": "전북특별자치도"
    },
    {
      "lat": 35.86443217799523,
      "lng": 127.14897730379784,
      "title": "파리바게뜨 전주더블진흥점",
      "description": "전북특별자치도 전주시 덕진구 동부대로 879",
      "url": "http://place.map.kakao.com/12353903",
      "region": "전북특별자치도"
    },
    {
      "lat": 35.9586350448286,
      "lng": 126.704567771062,
      "title": "파리바게뜨 군산지곡점",
      "description": "전북특별자치도 군산시 백토로 229",
      "url": "http://place.map.kakao.com/12353931",
      "region": "전북특별자치도"
    },
    {
      "lat": 35.9427170976957,
      "lng": 126.938081890881,
      "title": "파리바게뜨 익산송학점",
      "description": "전북특별자치도 익산시 군익로 477",
      "url": "http://place.map.kakao.com/11282655",
      "region": "전북특별자치도"
    },
    {
      "lat": 35.9607492673818,
      "lng": 126.981598155089,
      "title": "파리바게뜨 익산삼성점",
      "description": "전북특별자치도 익산시 하나로10길 3",
      "url": "http://place.map.kakao.com/12353876",
      "region": "전북특별자치도"
    },
    {
      "lat": 35.80644500060118,
      "lng": 127.1280897222653,
      "title": "파리바게뜨 전주완산점",
      "description": "전북특별자치도 전주시 완산구 용머리로 165",
      "url": "http://place.map.kakao.com/18399440",
      "region": "전북특별자치도"
    },
    {
      "lat": 35.566133218065715,
      "lng": 126.8533092439413,
      "title": "파리바게뜨 정읍시기제일점",
      "description": "전북특별자치도 정읍시 조곡천1길 84",
      "url": "http://place.map.kakao.com/26848275",
      "region": "전북특별자치도"
    },
    {
      "lat": 35.961967531937,
      "lng": 127.126349419718,
      "title": "파리바게뜨 완주첨단점",
      "description": "전북특별자치도 완주군 봉동읍 완주산단9로 24",
      "url": "http://place.map.kakao.com/12353914",
      "region": "전북특별자치도"
    },
    {
      "lat": 35.84306279136116,
      "lng": 127.07670850812235,
      "title": "파리바게뜨 전주만성점",
      "description": "전북특별자치도 전주시 덕진구 만성중앙로 45",
      "url": "http://place.map.kakao.com/1466719244",
      "region": "전북특별자치도"
    },
    {
      "lat": 35.83017109124952,
      "lng": 127.16864281902359,
      "title": "파리바게뜨 전주아중점",
      "description": "전북특별자치도 전주시 덕진구 석소로 31",
      "url": "http://place.map.kakao.com/20227730",
      "region": "전북특별자치도"
    },
    {
      "lat": 35.8505924748368,
      "lng": 127.156110435481,
      "title": "파리바게뜨 전주우아한시티점",
      "description": "전북특별자치도 전주시 덕진구 우아로 30",
      "url": "http://place.map.kakao.com/1801607501",
      "region": "전북특별자치도"
    },
    {
      "lat": 35.8411865016963,
      "lng": 127.111139476101,
      "title": "파리바게뜨 전주하가점",
      "description": "전북특별자치도 전주시 덕진구 가련산로 18",
      "url": "http://place.map.kakao.com/15627323",
      "region": "전북특별자치도"
    },
    {
      "lat": 35.37676690305275,
      "lng": 127.14062739401759,
      "title": "파리바게뜨 전북순창점",
      "description": "전북특별자치도 순창군 순창읍 장류로 349",
      "url": "http://place.map.kakao.com/10905287",
      "region": "전북특별자치도"
    },
    {
      "lat": 35.83528146947237,
      "lng": 127.11608913374032,
      "title": "파리바게뜨 전주서일점",
      "description": "전북특별자치도 전주시 완산구 서신로 112",
      "url": "http://place.map.kakao.com/12353932",
      "region": "전북특별자치도"
    },
    {
      "lat": 35.80878172186818,
      "lng": 127.10303619111528,
      "title": "파리바게뜨 전주휴먼시아점",
      "description": "전북특별자치도 전주시 완산구 호암로 77",
      "url": "http://place.map.kakao.com/13024929",
      "region": "전북특별자치도"
    },
    {
      "lat": 35.9642408067545,
      "lng": 126.71051553549,
      "title": "파리바게뜨 군산수송오투점",
      "description": "전북특별자치도 군산시 수송로 137",
      "url": "http://place.map.kakao.com/17710486",
      "region": "전북특별자치도"
    },
    {
      "lat": 35.406259867195146,
      "lng": 127.37822907769112,
      "title": "파리바게뜨 전북남원점",
      "description": "전북특별자치도 남원시 광한서로 58",
      "url": "http://place.map.kakao.com/1134464890",
      "region": "전북특별자치도"
    },
    {
      "lat": 35.97600985352432,
      "lng": 126.67891966539604,
      "title": "파리바게뜨 군산소룡신도시점",
      "description": "전북특별자치도 군산시 공항로 86",
      "url": "http://place.map.kakao.com/12353868",
      "region": "전북특별자치도"
    },
    {
      "lat": 35.83592060404065,
      "lng": 127.06042052333561,
      "title": "파리바게뜨 전북혁신1호점",
      "description": "전북특별자치도 전주시 덕진구 오정1길 1",
      "url": "http://place.map.kakao.com/23552655",
      "region": "전북특별자치도"
    },
    {
      "lat": 34.7407193752463,
      "lng": 127.736214077544,
      "title": "파리바게뜨 여수중앙점",
      "description": "전남 여수시 동문로 7",
      "url": "http://place.map.kakao.com/12353536",
      "region": "전라남도"
    },
    {
      "lat": 34.6790957665953,
      "lng": 126.907707226286,
      "title": "파리바게뜨 전남장흥점",
      "description": "전남 장흥군 장흥읍 중앙로 35",
      "url": "http://place.map.kakao.com/13283688",
      "region": "전라남도"
    },
    {
      "lat": 34.75322356948299,
      "lng": 127.74288546853478,
      "title": "파리바게뜨 여수엑스포점",
      "description": "전남 여수시 박람회길 46",
      "url": "http://place.map.kakao.com/461926635",
      "region": "전라남도"
    },
    {
      "lat": 34.9351936200657,
      "lng": 127.494261858481,
      "title": "파리바게뜨 순천오천점",
      "description": "전남 순천시 오천7길 28",
      "url": "http://place.map.kakao.com/1425644602",
      "region": "전라남도"
    },
    {
      "lat": 35.021410017050286,
      "lng": 126.78527457170696,
      "title": "파리바게뜨 나주혁신이화점",
      "description": "전남 나주시 전력로 2",
      "url": "http://place.map.kakao.com/26542130",
      "region": "전라남도"
    },
    {
      "lat": 34.63910684499191,
      "lng": 126.7682753076038,
      "title": "파리바게뜨 전남강진점",
      "description": "전남 강진군 강진읍 중앙로 104",
      "url": "http://place.map.kakao.com/12353485",
      "region": "전라남도"
    },
    {
      "lat": 34.768323502209,
      "lng": 127.08315715970234,
      "title": "파리바게뜨 전남보성점",
      "description": "전남 보성군 보성읍 현충로 108",
      "url": "http://place.map.kakao.com/12353528",
      "region": "전라남도"
    },
    {
      "lat": 34.8075324372922,
      "lng": 126.372219540546,
      "title": "파리바게뜨 목포북항점",
      "description": "전남 목포시 청호로 192-1",
      "url": "http://place.map.kakao.com/12353490",
      "region": "전라남도"
    },
    {
      "lat": 35.060561756992634,
      "lng": 126.99220901873404,
      "title": "파리바게뜨 화순광덕점",
      "description": "전남 화순군 화순읍 광덕로 177",
      "url": "http://place.map.kakao.com/12353577",
      "region": "전라남도"
    },
    {
      "lat": 34.731001489703495,
      "lng": 127.71716481552508,
      "title": "파리바게뜨 여수국동점",
      "description": "전남 여수시 신월로 655",
      "url": "http://place.map.kakao.com/12353492",
      "region": "전라남도"
    },
    {
      "lat": 34.9464258094598,
      "lng": 127.51993657934,
      "title": "파리바게뜨 순천연향점",
      "description": "전남 순천시 연향중앙상가길 80",
      "url": "http://place.map.kakao.com/13283206",
      "region": "전라남도"
    },
    {
      "lat": 34.77724327415195,
      "lng": 127.65053402939827,
      "title": "파리바게뜨 여수무선점",
      "description": "전남 여수시 화산로 131",
      "url": "http://place.map.kakao.com/619498473",
      "region": "전라남도"
    },
    {
      "lat": 35.208607294254826,
      "lng": 127.4646316242797,
      "title": "파리바게뜨 구례중앙점",
      "description": "전남 구례군 구례읍 봉성로 72",
      "url": "http://place.map.kakao.com/12353486",
      "region": "전라남도"
    },
    {
      "lat": 35.0261797610252,
      "lng": 126.71659190132,
      "title": "파리바게뜨 나주송월점",
      "description": "전남 나주시 나주로 81",
      "url": "http://place.map.kakao.com/12353585",
      "region": "전라남도"
    },
    {
      "lat": 34.79138250527702,
      "lng": 126.38500023622089,
      "title": "파리바게뜨 목포죽동점",
      "description": "전남 목포시 수문로 7",
      "url": "http://place.map.kakao.com/13282864",
      "region": "전라남도"
    },
    {
      "lat": 35.0326111210249,
      "lng": 126.719326891436,
      "title": "파리바게뜨 전남나주점",
      "description": "전남 나주시 중앙로 37",
      "url": "http://place.map.kakao.com/2035294573",
      "region": "전라남도"
    },
    {
      "lat": 35.28038799912708,
      "lng": 127.29309329982704,
      "title": "파리바게뜨 전남곡성점",
      "description": "전남 곡성군 곡성읍 중앙로 93",
      "url": "http://place.map.kakao.com/13024868",
      "region": "전라남도"
    },
    {
      "lat": 34.7592643802522,
      "lng": 127.668438588579,
      "title": "파리바게뜨 전남여천점",
      "description": "전남 여수시 망마로 51",
      "url": "http://place.map.kakao.com/12353583",
      "region": "전라남도"
    },
    {
      "lat": 34.9357119727767,
      "lng": 127.695461895251,
      "title": "파리바게뜨 광양중마점",
      "description": "전남 광양시 공영로 58",
      "url": "http://place.map.kakao.com/12353576",
      "region": "전라남도"
    },
    {
      "lat": 35.275726323286705,
      "lng": 126.50404737459684,
      "title": "파리바게뜨 영광터미널점",
      "description": "전남 영광군 영광읍 신남로4길 1",
      "url": "http://place.map.kakao.com/12353626",
      "region": "전라남도"
    },
    {
      "lat": 34.607651520308,
      "lng": 127.284036855929,
      "title": "파리바게뜨 고흥중앙점",
      "description": "전남 고흥군 고흥읍 봉황길 42",
      "url": "http://place.map.kakao.com/17143593",
      "region": "전라남도"
    },
    {
      "lat": 34.8173959084904,
      "lng": 126.399084682343,
      "title": "파리바게뜨 목포용해점",
      "description": "전남 목포시 용해지구로 2",
      "url": "http://place.map.kakao.com/12353533",
      "region": "전라남도"
    },
    {
      "lat": 35.06377031490622,
      "lng": 126.5202277455652,
      "title": "파리바게뜨 전남함평점",
      "description": "전남 함평군 함평읍 광남길 83",
      "url": "http://place.map.kakao.com/13024927",
      "region": "전라남도"
    },
    {
      "lat": 35.31618612959017,
      "lng": 126.98316391336915,
      "title": "파리바게뜨 전남담양점",
      "description": "전남 담양군 담양읍 중앙로 33",
      "url": "http://place.map.kakao.com/19411871",
      "region": "전라남도"
    },
    {
      "lat": 34.5711217851337,
      "lng": 126.606853258959,
      "title": "파리바게뜨 해남터미널점",
      "description": "전남 해남군 해남읍 중앙1로 2",
      "url": "http://place.map.kakao.com/12353575",
      "region": "전라남도"
    },
    {
      "lat": 34.74745479833382,
      "lng": 127.67145362334347,
      "title": "파리바게뜨 여수웅천점",
      "description": "전남 여수시 예울마루로 32",
      "url": "http://place.map.kakao.com/15598207",
      "region": "전라남도"
    },
    {
      "lat": 34.74132540495521,
      "lng": 127.73242811616693,
      "title": "파리바게뜨 여수교동점",
      "description": "전남 여수시 진남상가길 42",
      "url": "http://place.map.kakao.com/12353494",
      "region": "전라남도"
    },
    {
      "lat": 35.3000492134423,
      "lng": 126.781686857753,
      "title": "파리바게뜨 전남장성점",
      "description": "전남 장성군 장성읍 영천로 161",
      "url": "http://place.map.kakao.com/21258813",
      "region": "전라남도"
    },
    {
      "lat": 34.9527863310026,
      "lng": 127.484072035271,
      "title": "파리바게뜨 순천중앙시장점",
      "description": "전남 순천시 중앙로 80-1",
      "url": "http://place.map.kakao.com/12353618",
      "region": "전라남도"
    },
    {
      "lat": 34.97486931255328,
      "lng": 127.58816562192459,
      "title": "파리바게뜨 광양읍점",
      "description": "전남 광양시 광양읍 매천로 850-1",
      "url": "http://place.map.kakao.com/12353531",
      "region": "전라남도"
    },
    {
      "lat": 34.971234856967364,
      "lng": 127.60885757923738,
      "title": "파리바게뜨 광양창덕점",
      "description": "전남 광양시 광양읍 용강로 18",
      "url": "http://place.map.kakao.com/9556985",
      "region": "전라남도"
    },
    {
      "lat": 34.95644841965411,
      "lng": 127.48435194848052,
      "title": "파리바게뜨 순천중앙점",
      "description": "전남 순천시 중앙로 122",
      "url": "http://place.map.kakao.com/12353483",
      "region": "전라남도"
    },
    {
      "lat": 34.93614285638813,
      "lng": 127.5456333863739,
      "title": "파리바게뜨 신대메가타운점",
      "description": "전남 순천시 해룡면 좌야로 135",
      "url": "http://place.map.kakao.com/27277492",
      "region": "전라남도"
    },
    {
      "lat": 34.75309770752841,
      "lng": 127.70523312735394,
      "title": "파리바게뜨 여수여서점",
      "description": "전남 여수시 여서동1길 46",
      "url": "http://place.map.kakao.com/24481736",
      "region": "전라남도"
    },
    {
      "lat": 34.94648284227801,
      "lng": 127.68906350200588,
      "title": "파리바게뜨 광양무등점",
      "description": "전남 광양시 구마3길 23",
      "url": "http://place.map.kakao.com/11325795",
      "region": "전라남도"
    },
    {
      "lat": 34.95551625713801,
      "lng": 127.53179180454411,
      "title": "파리바게뜨 순천왕지점",
      "description": "전남 순천시 왕궁길 55",
      "url": "http://place.map.kakao.com/12353617",
      "region": "전라남도"
    },
    {
      "lat": 34.7998914648948,
      "lng": 126.6978548848137,
      "title": "파리바게뜨 전남영암점",
      "description": "전남 영암군 영암읍 중앙로 41",
      "url": "http://place.map.kakao.com/12353624",
      "region": "전라남도"
    },
    {
      "lat": 35.058697443372346,
      "lng": 126.98142243456182,
      "title": "파리바게뜨 전남화순점",
      "description": "전남 화순군 화순읍 쌍충로 77",
      "url": "http://place.map.kakao.com/1476812530",
      "region": "전라남도"
    },
    {
      "lat": 35.27633946317874,
      "lng": 126.51208484703766,
      "title": "파리바게뜨 전남영광점",
      "description": "전남 영광군 영광읍 중앙로 193-5",
      "url": "http://place.map.kakao.com/12353491",
      "region": "전라남도"
    },
    {
      "lat": 34.76618583208209,
      "lng": 127.66190776563552,
      "title": "파리바게뜨 여수학동점",
      "description": "전남 여수시 쌍봉로 54",
      "url": "http://place.map.kakao.com/12353582",
      "region": "전라남도"
    },
    {
      "lat": 34.8119629022204,
      "lng": 126.381217790462,
      "title": "파리바게뜨 목포연산점",
      "description": "전남 목포시 원산중앙로 96",
      "url": "http://place.map.kakao.com/12353530",
      "region": "전라남도"
    },
    {
      "lat": 34.94603369319504,
      "lng": 127.52871139287534,
      "title": "파리바게뜨 순천대석점",
      "description": "전남 순천시 해룡면 조례못등길 150",
      "url": "http://place.map.kakao.com/12353526",
      "region": "전라남도"
    },
    {
      "lat": 34.7466742935727,
      "lng": 126.466090561752,
      "title": "파리바게뜨 삼호읍점",
      "description": "전남 영암군 삼호읍 대불주거로 54",
      "url": "http://place.map.kakao.com/17015123",
      "region": "전라남도"
    },
    {
      "lat": 35.00968656436288,
      "lng": 126.78725530740637,
      "title": "파리바게뜨 나주빛가람점",
      "description": "전남 나주시 월정1길 41",
      "url": "http://place.map.kakao.com/26773392",
      "region": "전라남도"
    },
    {
      "lat": 34.8016974969882,
      "lng": 126.4229819377829,
      "title": "파리바게뜨 목포하당점",
      "description": "전남 목포시 신흥로 16",
      "url": "http://place.map.kakao.com/12353622",
      "region": "전라남도"
    },
    {
      "lat": 36.0161982327262,
      "lng": 129.353125118663,
      "title": "파리바게뜨 포항쌍용점",
      "description": "경북 포항시 북구 중흥로 132",
      "url": "http://place.map.kakao.com/12354439",
      "region": "경상북도"
    },
    {
      "lat": 36.14855319546359,
      "lng": 128.31069536492788,
      "title": "파리바게뜨 구미봉곡점",
      "description": "경북 구미시 봉곡로 108",
      "url": "http://place.map.kakao.com/12354293",
      "region": "경상북도"
    },
    {
      "lat": 35.673163344847225,
      "lng": 129.33628795515781,
      "title": "파리바게뜨 경주외동모화점",
      "description": "경북 경주시 외동읍 산업로 1768-5",
      "url": "http://place.map.kakao.com/2076952962",
      "region": "경상북도"
    },
    {
      "lat": 36.81490494897016,
      "lng": 128.6058370012115,
      "title": "파리바게뜨 영주가흥점",
      "description": "경북 영주시 대동로34번길 2",
      "url": "http://place.map.kakao.com/26848220",
      "region": "경상북도"
    },
    {
      "lat": 36.09905031198471,
      "lng": 128.42538112003461,
      "title": "파리바게뜨 구미진평점",
      "description": "경북 구미시 인동16길 5",
      "url": "http://place.map.kakao.com/6506990",
      "region": "경상북도"
    },
    {
      "lat": 35.804072266574096,
      "lng": 128.738978349467,
      "title": "파리바게뜨 경산백천점",
      "description": "경북 경산시 경청로221길 1",
      "url": "http://place.map.kakao.com/12354388",
      "region": "경상북도"
    },
    {
      "lat": 36.4267919633508,
      "lng": 128.159172194082,
      "title": "파리바게뜨 상주냉림점",
      "description": "경북 상주시 상산로 402",
      "url": "http://place.map.kakao.com/460429329",
      "region": "경상북도"
    },
    {
      "lat": 36.08929019329875,
      "lng": 128.35501065423352,
      "title": "파리바게뜨 구미상모점",
      "description": "경북 구미시 상사서로 77",
      "url": "http://place.map.kakao.com/12354391",
      "region": "경상북도"
    },
    {
      "lat": 36.565132087682294,
      "lng": 128.6996676502566,
      "title": "파리바게뜨 안동옥동점",
      "description": "경북 안동시 경북대로 407",
      "url": "http://place.map.kakao.com/12354395",
      "region": "경상북도"
    },
    {
      "lat": 35.84438980405789,
      "lng": 129.2118905609593,
      "title": "파리바게뜨 경주중앙점",
      "description": "경북 경주시 화랑로 102",
      "url": "http://place.map.kakao.com/12354438",
      "region": "경상북도"
    },
    {
      "lat": 35.87525571512606,
      "lng": 128.80080164861891,
      "title": "파리바게뜨 경산진량점",
      "description": "경북 경산시 진량읍 대학로 950",
      "url": "http://place.map.kakao.com/25817706",
      "region": "경상북도"
    },
    {
      "lat": 35.9632267880117,
      "lng": 128.934914836705,
      "title": "파리바게뜨 경북영천점",
      "description": "경북 영천시 시장로 42-1",
      "url": "http://place.map.kakao.com/12354334",
      "region": "경상북도"
    },
    {
      "lat": 36.08824465749956,
      "lng": 129.3874262743199,
      "title": "파리바게뜨 포항법원점",
      "description": "경북 포항시 북구 법원로 152",
      "url": "http://place.map.kakao.com/25136715",
      "region": "경상북도"
    },
    {
      "lat": 36.09663771701445,
      "lng": 129.335957946001,
      "title": "파리바게뜨 포항초곡점",
      "description": "경북 포항시 북구 흥해읍 초곡지구로58번길 36",
      "url": "http://place.map.kakao.com/607855843",
      "region": "경상북도"
    },
    {
      "lat": 36.1085018971542,
      "lng": 129.346190222565,
      "title": "파리바게뜨 포항흥해점",
      "description": "경북 포항시 북구 흥해읍 중성로 28",
      "url": "http://place.map.kakao.com/24525592",
      "region": "경상북도"
    },
    {
      "lat": 35.8423229970938,
      "lng": 129.207276031431,
      "title": "파리바게뜨 경주성건점",
      "description": "경북 경주시 금성로 278",
      "url": "http://place.map.kakao.com/12354387",
      "region": "경상북도"
    },
    {
      "lat": 36.4143601287828,
      "lng": 128.159548207328,
      "title": "파리바게뜨 경북상주점",
      "description": "경북 상주시 상산로 264",
      "url": "http://place.map.kakao.com/12412517",
      "region": "경상북도"
    },
    {
      "lat": 36.4075946593549,
      "lng": 128.150032121456,
      "title": "파리바게뜨 상주낙양점",
      "description": "경북 상주시 경상대로 2917",
      "url": "http://place.map.kakao.com/1523632323",
      "region": "경상북도"
    },
    {
      "lat": 35.81258734975102,
      "lng": 128.75575328651104,
      "title": "파리바게뜨 경산사동점",
      "description": "경북 경산시 백자로 78",
      "url": "http://place.map.kakao.com/19634909",
      "region": "경상북도"
    },
    {
      "lat": 35.842868908614705,
      "lng": 128.76509077698455,
      "title": "파리바게뜨 신대부적점",
      "description": "경북 경산시 압량읍 압독3로 37",
      "url": "http://place.map.kakao.com/1893289059",
      "region": "경상북도"
    },
    {
      "lat": 36.5625316934747,
      "lng": 128.701058218698,
      "title": "파리바게뜨 옥동사거리점",
      "description": "경북 안동시 광명로 163",
      "url": "http://place.map.kakao.com/13024595",
      "region": "경상북도"
    },
    {
      "lat": 36.0307569677145,
      "lng": 129.364180302196,
      "title": "파리바게뜨 포항오거리점",
      "description": "경북 포항시 북구 중흥로 319",
      "url": "http://place.map.kakao.com/12354287",
      "region": "경상북도"
    },
    {
      "lat": 36.019340202623155,
      "lng": 129.34156662980294,
      "title": "파리바게뜨 포항시청점",
      "description": "경북 포항시 남구 대이로 45",
      "url": "http://place.map.kakao.com/12354382",
      "region": "경상북도"
    },
    {
      "lat": 36.1250244468999,
      "lng": 128.081161653833,
      "title": "파리바게뜨 김천K1식자재점",
      "description": "경북 김천시 영남대로 1330",
      "url": "http://place.map.kakao.com/1505875938",
      "region": "경상북도"
    },
    {
      "lat": 35.833052853812575,
      "lng": 128.73733991899894,
      "title": "파리바게뜨 경산임당역점",
      "description": "경북 경산시 대학로28길 6-3",
      "url": "http://place.map.kakao.com/13024624",
      "region": "경상북도"
    },
    {
      "lat": 35.83374085077632,
      "lng": 128.72774839719267,
      "title": "파리바게뜨 경산정평역점",
      "description": "경북 경산시 대학로 46",
      "url": "http://place.map.kakao.com/15196657",
      "region": "경상북도"
    },
    {
      "lat": 36.52885585364027,
      "lng": 129.0520172542722,
      "title": "파리바게뜨 청송진보점",
      "description": "경북 청송군 진보면 진보로 186",
      "url": "http://place.map.kakao.com/1196454509",
      "region": "경상북도"
    },
    {
      "lat": 36.10759953065257,
      "lng": 128.42218188521034,
      "title": "파리바게뜨 구미인동점",
      "description": "경북 구미시 인동중앙로 32",
      "url": "http://place.map.kakao.com/564482179",
      "region": "경상북도"
    },
    {
      "lat": 36.060366618317346,
      "lng": 129.37295360120865,
      "title": "파리바게뜨 포항두호점",
      "description": "경북 포항시 북구 두호로 49-1",
      "url": "http://place.map.kakao.com/12354338",
      "region": "경상북도"
    },
    {
      "lat": 35.836942923358635,
      "lng": 128.75359744010504,
      "title": "파리바게뜨 경산영대점",
      "description": "경북 경산시 대학로 285",
      "url": "http://place.map.kakao.com/8116635",
      "region": "경상북도"
    },
    {
      "lat": 36.55052403586301,
      "lng": 128.73497790822032,
      "title": "파리바게뜨 안동정하점",
      "description": "경북 안동시 강남1길 133-33",
      "url": "http://place.map.kakao.com/12354343",
      "region": "경상북도"
    },
    {
      "lat": 36.2412678611298,
      "lng": 128.301448662988,
      "title": "파리바게뜨 경북선산점",
      "description": "경북 구미시 선산읍 남문로 39",
      "url": "http://place.map.kakao.com/15980994",
      "region": "경상북도"
    },
    {
      "lat": 35.968876846097814,
      "lng": 129.40243676392447,
      "title": "파리바게뜨 오천부영점",
      "description": "경북 포항시 남구 오천읍 원동로 65",
      "url": "http://place.map.kakao.com/13024598",
      "region": "경상북도"
    },
    {
      "lat": 35.91073840703772,
      "lng": 128.81577607922853,
      "title": "파리바게뜨 경산하양점",
      "description": "경북 경산시 하양읍 하양로 64",
      "url": "http://place.map.kakao.com/12354284",
      "region": "경상북도"
    },
    {
      "lat": 35.84209027484265,
      "lng": 129.1857079288839,
      "title": "파리바게뜨 경주충효점",
      "description": "경북 경주시 충효녹지길 46",
      "url": "http://place.map.kakao.com/13024704",
      "region": "경상북도"
    },
    {
      "lat": 36.56580613970196,
      "lng": 128.73245466242636,
      "title": "파리바게뜨 안동중앙점",
      "description": "경북 안동시 서동문로 188",
      "url": "http://place.map.kakao.com/13024674",
      "region": "경상북도"
    },
    {
      "lat": 35.856524261961,
      "lng": 129.224033190914,
      "title": "파리바게뜨 경주시청점",
      "description": "경북 경주시 백률로 44-1",
      "url": "http://place.map.kakao.com/12354434",
      "region": "경상북도"
    },
    {
      "lat": 35.805099738856654,
      "lng": 129.13896845662856,
      "title": "파리바게뜨 신경주역점",
      "description": "경북 경주시 건천읍 경주역세권1로 75",
      "url": "http://place.map.kakao.com/424072699",
      "region": "경상북도"
    },
    {
      "lat": 36.418570474165186,
      "lng": 128.15365363509662,
      "title": "파리바게뜨 상주터미널점",
      "description": "경북 상주시 삼백로 91",
      "url": "http://place.map.kakao.com/21473030",
      "region": "경상북도"
    },
    {
      "lat": 36.573534296193685,
      "lng": 128.69314141891005,
      "title": "파리바게뜨 안동송현점",
      "description": "경북 안동시 경동로 291",
      "url": "http://place.map.kakao.com/13024635",
      "region": "경상북도"
    },
    {
      "lat": 36.0295786432574,
      "lng": 129.347302719919,
      "title": "파리바게뜨 포항양학점",
      "description": "경북 포항시 북구 양학로 72",
      "url": "http://place.map.kakao.com/12354331",
      "region": "경상북도"
    },
    {
      "lat": 35.72957204239606,
      "lng": 128.26947649253674,
      "title": "파리바게뜨 경북고령점",
      "description": "경북 고령군 대가야읍 중앙로 16",
      "url": "http://place.map.kakao.com/12354348",
      "region": "경상북도"
    },
    {
      "lat": 36.106950728958594,
      "lng": 128.33680634436246,
      "title": "파리바게뜨 구미형곡점",
      "description": "경북 구미시 형곡로 191",
      "url": "http://place.map.kakao.com/21194685",
      "region": "경상북도"
    },
    {
      "lat": 35.9763560270211,
      "lng": 129.412800368989,
      "title": "파리바게뜨 포항오천점",
      "description": "경북 포항시 남구 오천읍 충무로 25",
      "url": "http://place.map.kakao.com/12354431",
      "region": "경상북도"
    },
    {
      "lat": 36.1194396275697,
      "lng": 128.348544664871,
      "title": "파리바게뜨 구미송정점",
      "description": "경북 구미시 백산로 141",
      "url": "http://place.map.kakao.com/12354392",
      "region": "경상북도"
    },
    {
      "lat": 35.2430238129614,
      "lng": 128.651518420688,
      "title": "파리바게뜨 명곡로타리점",
      "description": "경남 창원시 의창구 원이대로285번길 7",
      "url": "http://place.map.kakao.com/214983804",
      "region": "경상남도"
    },
    {
      "lat": 35.2231322189051,
      "lng": 128.685367904137,
      "title": "파리바게뜨 창원상남점",
      "description": "경남 창원시 성산구 마디미로9번길 4",
      "url": "http://place.map.kakao.com/17125116",
      "region": "경상남도"
    },
    {
      "lat": 35.24231194917793,
      "lng": 128.69001821828428,
      "title": "파리바게뜨 창원대점",
      "description": "경남 창원시 의창구 퇴촌로45번길 1",
      "url": "http://place.map.kakao.com/11284433",
      "region": "경상남도"
    },
    {
      "lat": 35.23037476640436,
      "lng": 128.6813252737765,
      "title": "파리바게뜨 창원용호점",
      "description": "경남 창원시 성산구 용지로169번길 7",
      "url": "http://place.map.kakao.com/12354476",
      "region": "경상남도"
    },
    {
      "lat": 35.20752277885537,
      "lng": 128.6988004851297,
      "title": "파리바게뜨 창원가음정점",
      "description": "경남 창원시 성산구 대정로 36",
      "url": "http://place.map.kakao.com/9508816",
      "region": "경상남도"
    },
    {
      "lat": 35.2033615057109,
      "lng": 128.809343168411,
      "title": "파리바게뜨 경남장유점",
      "description": "경남 김해시 장유로 232",
      "url": "http://place.map.kakao.com/12354427",
      "region": "경상남도"
    },
    {
      "lat": 35.2250357414987,
      "lng": 128.677833476482,
      "title": "파리바게뜨 창원중앙점",
      "description": "경남 창원시 성산구 용지로 103",
      "url": "http://place.map.kakao.com/1193341091",
      "region": "경상남도"
    },
    {
      "lat": 35.30844373459737,
      "lng": 128.72939840214448,
      "title": "파리바게뜨 진영신도시점",
      "description": "경남 김해시 진영읍 장등로19번길 51",
      "url": "http://place.map.kakao.com/21287689",
      "region": "경상남도"
    },
    {
      "lat": 35.1799366494412,
      "lng": 128.562943530153,
      "title": "파리바게뜨 마산해운점",
      "description": "경남 창원시 마산합포구 월영동로 7",
      "url": "http://place.map.kakao.com/17075665",
      "region": "경상남도"
    },
    {
      "lat": 35.22440623066003,
      "lng": 128.5856916316682,
      "title": "파리바게뜨 창원메트로시티점",
      "description": "경남 창원시 마산회원구 삼호로 80",
      "url": "http://place.map.kakao.com/27433888",
      "region": "경상남도"
    },
    {
      "lat": 35.2323039064418,
      "lng": 128.881932329821,
      "title": "파리바게뜨 김해중앙점",
      "description": "경남 김해시 가락로64번길 1",
      "url": "http://place.map.kakao.com/12354323",
      "region": "경상남도"
    },
    {
      "lat": 35.231415559980945,
      "lng": 128.58345551647116,
      "title": "파리바게뜨 마산양덕점",
      "description": "경남 창원시 마산회원구 양덕로 145-1",
      "url": "http://place.map.kakao.com/12354529",
      "region": "경상남도"
    },
    {
      "lat": 35.25509724899138,
      "lng": 128.62799622710597,
      "title": "파리바게뜨 창원유니시티점",
      "description": "경남 창원시 의창구 중동로 46",
      "url": "http://place.map.kakao.com/172258780",
      "region": "경상남도"
    },
    {
      "lat": 35.2368622009479,
      "lng": 128.866216162084,
      "title": "파리바게뜨 김해내외점",
      "description": "경남 김해시 내외로77번길 26",
      "url": "http://place.map.kakao.com/12354275",
      "region": "경상남도"
    },
    {
      "lat": 35.22545714293432,
      "lng": 128.88369941751148,
      "title": "파리바게뜨 김해아이스퀘어점",
      "description": "경남 김해시 김해대로 2342",
      "url": "http://place.map.kakao.com/286998221",
      "region": "경상남도"
    },
    {
      "lat": 35.237134397484525,
      "lng": 128.58238253163418,
      "title": "파리바게뜨 마산합성점",
      "description": "경남 창원시 마산회원구 양덕북4길 10",
      "url": "http://place.map.kakao.com/12354547",
      "region": "경상남도"
    },
    {
      "lat": 35.21073308918656,
      "lng": 128.70097021952736,
      "title": "파리바게뜨 창원남양점",
      "description": "경남 창원시 성산구 대정로 77",
      "url": "http://place.map.kakao.com/12354537",
      "region": "경상남도"
    },
    {
      "lat": 35.25361005128786,
      "lng": 128.6159095130271,
      "title": "파리바게뜨 창원팔용점",
      "description": "경남 창원시 의창구 반계로 93",
      "url": "http://place.map.kakao.com/12354534",
      "region": "경상남도"
    },
    {
      "lat": 35.2769534038135,
      "lng": 128.40504919785198,
      "title": "파리바게뜨 경남함안점",
      "description": "경남 함안군 가야읍 함안대로 566",
      "url": "http://place.map.kakao.com/12354276",
      "region": "경상남도"
    },
    {
      "lat": 35.3328447602511,
      "lng": 129.016580181375,
      "title": "파리바게뜨 양산신범어점",
      "description": "경남 양산시 물금읍 신주로 47",
      "url": "http://place.map.kakao.com/12354561",
      "region": "경상남도"
    },
    {
      "lat": 35.26326565898208,
      "lng": 128.87055735682011,
      "title": "파리바게뜨 김해삼계2호점",
      "description": "경남 김해시 해반천로144번길 29-42",
      "url": "http://place.map.kakao.com/13024706",
      "region": "경상남도"
    },
    {
      "lat": 35.49827078226576,
      "lng": 128.74696570558743,
      "title": "파리바게뜨 경남밀양점",
      "description": "경남 밀양시 백민로6길 4",
      "url": "http://place.map.kakao.com/12354277",
      "region": "경상남도"
    },
    {
      "lat": 35.1956063442364,
      "lng": 128.802417059557,
      "title": "파리바게뜨 젤미삼문점",
      "description": "경남 김해시 번화1로84번길 28",
      "url": "http://place.map.kakao.com/8115279",
      "region": "경상남도"
    },
    {
      "lat": 35.2322010316871,
      "lng": 128.503787723613,
      "title": "파리바게뜨 마산삼계점",
      "description": "경남 창원시 마산회원구 내서읍 삼계로 10",
      "url": "http://place.map.kakao.com/12354422",
      "region": "경상남도"
    },
    {
      "lat": 35.30741064813146,
      "lng": 128.7380297224172,
      "title": "파리바게뜨 진영센텀점",
      "description": "경남 김해시 진영읍 본산로 23-1",
      "url": "http://place.map.kakao.com/1894656062",
      "region": "경상남도"
    },
    {
      "lat": 35.2346541288735,
      "lng": 128.669973559739,
      "title": "파리바게뜨 창원반송점",
      "description": "경남 창원시 성산구 원이대로473번길 14",
      "url": "http://place.map.kakao.com/18311709",
      "region": "경상남도"
    },
    {
      "lat": 35.24600985868864,
      "lng": 128.6709908074094,
      "title": "파리바게뜨 창원봉림점",
      "description": "경남 창원시 의창구 봉곡로123번길 6",
      "url": "http://place.map.kakao.com/13024850",
      "region": "경상남도"
    },
    {
      "lat": 35.2582585577497,
      "lng": 128.638356905592,
      "title": "파리바게뜨 창원도계중앙점",
      "description": "경남 창원시 의창구 도계로60번길 5-19",
      "url": "http://place.map.kakao.com/17734657",
      "region": "경상남도"
    },
    {
      "lat": 35.5408538515565,
      "lng": 128.499569701706,
      "title": "파리바게뜨 경남창녕점",
      "description": "경남 창녕군 창녕읍 종로 39",
      "url": "http://place.map.kakao.com/13281504",
      "region": "경상남도"
    },
    {
      "lat": 35.2490715018435,
      "lng": 128.647251007696,
      "title": "파리바게뜨 창원명서점",
      "description": "경남 창원시 의창구 명지로 85-1",
      "url": "http://place.map.kakao.com/21479498",
      "region": "경상남도"
    },
    {
      "lat": 35.1701727732413,
      "lng": 128.813146773307,
      "title": "파리바게뜨 장유율하점",
      "description": "경남 김해시 율하3로 22",
      "url": "http://place.map.kakao.com/12354554",
      "region": "경상남도"
    },
    {
      "lat": 35.21664158818903,
      "lng": 128.5705930544475,
      "title": "파리바게뜨 북마산환금점",
      "description": "경남 창원시 마산회원구 북성로 106",
      "url": "http://place.map.kakao.com/11224822",
      "region": "경상남도"
    },
    {
      "lat": 35.081915001145695,
      "lng": 128.0860429608302,
      "title": "파리바게뜨 경남사천점",
      "description": "경남 사천시 사천읍 진삼로 1461",
      "url": "http://place.map.kakao.com/12354327",
      "region": "경상남도"
    },
    {
      "lat": 35.35920494962174,
      "lng": 129.04696839762306,
      "title": "파리바게뜨 양산북정점",
      "description": "경남 양산시 북정로 59-1",
      "url": "http://place.map.kakao.com/26835128",
      "region": "경상남도"
    },
    {
      "lat": 35.26070736521241,
      "lng": 128.86885594248793,
      "title": "파리바게뜨 김해삼계점",
      "description": "경남 김해시 삼계중앙로 35",
      "url": "http://place.map.kakao.com/12354425",
      "region": "경상남도"
    },
    {
      "lat": 35.20638067064846,
      "lng": 128.57644240358715,
      "title": "파리바게뜨 마산창동점",
      "description": "경남 창원시 마산합포구 불종거리로 21-1",
      "url": "http://place.map.kakao.com/12354528",
      "region": "경상남도"
    },
    {
      "lat": 35.37458167014911,
      "lng": 129.15135776754025,
      "title": "파리바게뜨 양산덕계점",
      "description": "경남 양산시 덕계로 75",
      "url": "http://place.map.kakao.com/12354506",
      "region": "경상남도"
    },
    {
      "lat": 35.302024330883796,
      "lng": 128.59372505427896,
      "title": "파리바게뜨 창원감계점",
      "description": "경남 창원시 의창구 북면 감계로 300",
      "url": "http://place.map.kakao.com/27075579",
      "region": "경상남도"
    },
    {
      "lat": 35.2312458683247,
      "lng": 128.922181361596,
      "title": "파리바게뜨 김해지내점",
      "description": "경남 김해시 분성로727번길 10",
      "url": "http://place.map.kakao.com/13024666",
      "region": "경상남도"
    },
    {
      "lat": 35.20039948815023,
      "lng": 128.56760227457406,
      "title": "파리바게뜨 마산시청점",
      "description": "경남 창원시 마산합포구 3.15대로 250",
      "url": "http://place.map.kakao.com/12354321",
      "region": "경상남도"
    },
    {
      "lat": 35.23198808026146,
      "lng": 128.57791752372208,
      "title": "파리바게뜨 마산석전점",
      "description": "경남 창원시 마산회원구 양덕서8길 6",
      "url": "http://place.map.kakao.com/12354271",
      "region": "경상남도"
    },
    {
      "lat": 35.48511353224101,
      "lng": 128.75578948039785,
      "title": "파리바게뜨 밀양삼문점",
      "description": "경남 밀양시 삼문중앙로 33",
      "url": "http://place.map.kakao.com/12354488",
      "region": "경상남도"
    },
    {
      "lat": 35.56662100260061,
      "lng": 128.16203324148793,
      "title": "파리바게뜨 경남합천점",
      "description": "경남 합천군 합천읍 동서로 90-1",
      "url": "http://place.map.kakao.com/12354426",
      "region": "경상남도"
    },
    {
      "lat": 35.19240278698331,
      "lng": 128.56516395046444,
      "title": "파리바게뜨 마산중앙점",
      "description": "경남 창원시 마산합포구 3.15대로 156",
      "url": "http://place.map.kakao.com/215181582",
      "region": "경상남도"
    },
    {
      "lat": 35.2037487628327,
      "lng": 128.800778756281,
      "title": "파리바게뜨 장유월산점",
      "description": "경남 김해시 월산로 111-43",
      "url": "http://place.map.kakao.com/12354523",
      "region": "경상남도"
    },
    {
      "lat": 33.50721971135556,
      "lng": 126.49522308183847,
      "title": "파리바게뜨 제주공항점",
      "description": "제주특별자치도 제주시 공항로 2",
      "url": "http://place.map.kakao.com/12353496",
      "region": "제주특별자치도"
    },
    {
      "lat": 33.4353539277644,
      "lng": 126.732501900849,
      "title": "파리바게뜨 동화마을점",
      "description": "제주특별자치도 제주시 구좌읍 비자림로 1193",
      "url": "http://place.map.kakao.com/1129649745",
      "region": "제주특별자치도"
    },
    {
      "lat": 33.4877421991805,
      "lng": 126.49026924006,
      "title": "파리바게뜨 신제주점",
      "description": "제주특별자치도 제주시 신광로 47",
      "url": "http://place.map.kakao.com/19327682",
      "region": "제주특별자치도"
    },
    {
      "lat": 33.25268651230488,
      "lng": 126.56046320900327,
      "title": "파리바게뜨 서귀포1호광장점",
      "description": "제주특별자치도 서귀포시 중앙로 91",
      "url": "http://place.map.kakao.com/12353544",
      "region": "제주특별자치도"
    },
    {
      "lat": 33.2515864671301,
      "lng": 126.42437046918,
      "title": "파리바게뜨 제주중문점",
      "description": "제주특별자치도 서귀포시 천제연로 186",
      "url": "http://place.map.kakao.com/12353719",
      "region": "제주특별자치도"
    },
    {
      "lat": 33.48070242886756,
      "lng": 126.52944780964334,
      "title": "파리바게뜨 제주제스코본점",
      "description": "제주특별자치도 제주시 연북로 444",
      "url": "http://place.map.kakao.com/49044124",
      "region": "제주특별자치도"
    },
    {
      "lat": 33.48605819667956,
      "lng": 126.43164821363368,
      "title": "파리바게뜨 제주외도점",
      "description": "제주특별자치도 제주시 우정로15길 5",
      "url": "http://place.map.kakao.com/11227919",
      "region": "제주특별자치도"
    },
    {
      "lat": 33.499089478216355,
      "lng": 126.52990794450413,
      "title": "파리바게뜨 제주시청점",
      "description": "제주특별자치도 제주시 중앙로 230",
      "url": "http://place.map.kakao.com/8623645",
      "region": "제주특별자치도"
    },
    {
      "lat": 33.504697208252075,
      "lng": 126.49194991455421,
      "title": "파리바게뜨 PB제주공항렌터카하우스",
      "description": "제주특별자치도 제주시 용담이동 1999-8",
      "url": "http://place.map.kakao.com/483777957",
      "region": "제주특별자치도"
    },
    {
      "lat": 33.25000310229765,
      "lng": 126.51482581458505,
      "title": "파리바게뜨 서귀포월드컵점",
      "description": "제주특별자치도 서귀포시 서호남로32번길 45",
      "url": "http://place.map.kakao.com/19175776",
      "region": "제주특별자치도"
    },
    {
      "lat": 33.5415367332714,
      "lng": 126.667466079507,
      "title": "파리바게뜨 함덕해수욕장점",
      "description": "제주특별자치도 제주시 조천읍 함덕13길 1",
      "url": "http://place.map.kakao.com/606901559",
      "region": "제주특별자치도"
    },
    {
      "lat": 33.473810530548086,
      "lng": 126.54536535385208,
      "title": "파리바게뜨 제주아라점",
      "description": "제주특별자치도 제주시 중앙로 558",
      "url": "http://place.map.kakao.com/18271064",
      "region": "제주특별자치도"
    },
    {
      "lat": 33.3258359921156,
      "lng": 126.833561472696,
      "title": "파리바게뜨 제주표선점",
      "description": "제주특별자치도 서귀포시 표선면 표선중앙로 89",
      "url": "http://place.map.kakao.com/13024848",
      "region": "제주특별자치도"
    },
    {
      "lat": 33.490885869131205,
      "lng": 126.49639929013603,
      "title": "파리바게뜨 제주삼다점",
      "description": "제주특별자치도 제주시 신대로 72",
      "url": "http://place.map.kakao.com/1102429690",
      "region": "제주특별자치도"
    },
    {
      "lat": 33.5002339621689,
      "lng": 126.515952658993,
      "title": "파리바게뜨 제주서사라점",
      "description": "제주특별자치도 제주시 서광로 181",
      "url": "http://place.map.kakao.com/1985373221",
      "region": "제주특별자치도"
    },
    {
      "lat": 33.48613357828724,
      "lng": 126.47468131151241,
      "title": "파리바게뜨 신노형점",
      "description": "제주특별자치도 제주시 정존11길 31",
      "url": "http://place.map.kakao.com/12353587",
      "region": "제주특별자치도"
    },
    {
      "lat": 33.508806537739865,
      "lng": 126.51073674027049,
      "title": "파리바게뜨 제주용담점",
      "description": "제주특별자치도 제주시 용문로 162",
      "url": "http://place.map.kakao.com/13281617",
      "region": "제주특별자치도"
    },
    {
      "lat": 33.491136110488505,
      "lng": 126.4805757707255,
      "title": "파리바게뜨 제주노형점",
      "description": "제주특별자치도 제주시 남녕로 40",
      "url": "http://place.map.kakao.com/23383325",
      "region": "제주특별자치도"
    },
    {
      "lat": 33.464782939665795,
      "lng": 126.31689112833088,
      "title": "파리바게뜨 제주애월점",
      "description": "제주특별자치도 제주시 애월읍 애월로 89",
      "url": "http://place.map.kakao.com/1395157071",
      "region": "제주특별자치도"
    },
    {
      "lat": 33.48239406667779,
      "lng": 126.41363424865466,
      "title": "파리바게뜨 제주하귀점",
      "description": "제주특별자치도 제주시 애월읍 하광로 41",
      "url": "http://place.map.kakao.com/1936172176",
      "region": "제주특별자치도"
    },
    {
      "lat": 33.44610490835056,
      "lng": 126.91180155833025,
      "title": "파리바게뜨 제주성산점",
      "description": "제주특별자치도 서귀포시 성산읍 일주동로 4282",
      "url": "http://place.map.kakao.com/26848277",
      "region": "제주특별자치도"
    },
    {
      "lat": 33.53485578367712,
      "lng": 126.622740023054,
      "title": "파리바게뜨 제주신촌점",
      "description": "제주특별자치도 제주시 조천읍 신북로 86",
      "url": "http://place.map.kakao.com/667135325",
      "region": "제주특별자치도"
    },
    {
      "lat": 33.50383198474013,
      "lng": 126.4662877186528,
      "title": "파리바게뜨 제주도두점",
      "description": "제주특별자치도 제주시 서해안로 162",
      "url": "http://place.map.kakao.com/2045460259",
      "region": "제주특별자치도"
    },
    {
      "lat": 33.4146644671192,
      "lng": 126.264975832611,
      "title": "파리바게뜨 제주한림점",
      "description": "제주특별자치도 제주시 한림읍 한림로 672",
      "url": "http://place.map.kakao.com/8612196",
      "region": "제주특별자치도"
    },
    {
      "lat": 33.51156984926311,
      "lng": 126.52461505853749,
      "title": "파리바게뜨 제주중앙점",
      "description": "제주특별자치도 제주시 중앙로 73",
      "url": "http://place.map.kakao.com/12353499",
      "region": "제주특별자치도"
    },
    {
      "lat": 33.491577232212535,
      "lng": 126.59194722459296,
      "title": "파리바게뜨 제주봉개점",
      "description": "제주특별자치도 제주시 번영로 468",
      "url": "http://place.map.kakao.com/1302473345",
      "region": "제주특별자치도"
    },
    {
      "lat": 33.513294008041115,
      "lng": 126.53347339163945,
      "title": "파리바게뜨 제주동초교점",
      "description": "제주특별자치도 제주시 동문로 64",
      "url": "http://place.map.kakao.com/13574195",
      "region": "제주특별자치도"
    },
    {
      "lat": 33.3955072806326,
      "lng": 126.242746094709,
      "title": "파리바게뜨 협재해수욕장점점",
      "description": "제주특별자치도 제주시 한림읍 한림로 368",
      "url": "http://place.map.kakao.com/511289346",
      "region": "제주특별자치도"
    },
    {
      "lat": 33.48266947510335,
      "lng": 126.48494725976605,
      "title": "파리바게뜨 제주연동2호점",
      "description": "제주특별자치도 제주시 원노형남2길 35",
      "url": "http://place.map.kakao.com/12353588",
      "region": "제주특별자치도"
    },
    {
      "lat": 33.27884476376355,
      "lng": 126.71847057844128,
      "title": "파리바게뜨 제주남원점",
      "description": "제주특별자치도 서귀포시 남원읍 태위로 672-1",
      "url": "http://place.map.kakao.com/20620854",
      "region": "제주특별자치도"
    },
    {
      "lat": 33.5091631325443,
      "lng": 126.539798165882,
      "title": "파리바게뜨 제주인제점",
      "description": "제주특별자치도 제주시 고마로 57",
      "url": "http://place.map.kakao.com/12353542",
      "region": "제주특별자치도"
    },
    {
      "lat": 33.491220574829725,
      "lng": 126.53570083937788,
      "title": "파리바게뜨 제주법원점",
      "description": "제주특별자치도 제주시 구남로 56",
      "url": "http://place.map.kakao.com/12353541",
      "region": "제주특별자치도"
    },
    {
      "lat": 33.25266537535402,
      "lng": 126.50402422594568,
      "title": "파리바게뜨 서귀포강정지구점",
      "description": "제주특별자치도 서귀포시 대청로 39",
      "url": "http://place.map.kakao.com/502892174",
      "region": "제주특별자치도"
    },
    {
      "lat": 33.49600977930228,
      "lng": 126.52710197552203,
      "title": "파리바게뜨 도남점",
      "description": "제주특별자치도 제주시 도남로 49",
      "url": "http://place.map.kakao.com/17295761",
      "region": "제주특별자치도"
    },
    {
      "lat": 33.24887897357237,
      "lng": 126.56793792226635,
      "title": "파리바게뜨 제주서귀포점",
      "description": "제주특별자치도 서귀포시 동홍로 4",
      "url": "http://place.map.kakao.com/12353632",
      "region": "제주특별자치도"
    },
    {
      "lat": 33.48891562537286,
      "lng": 126.47568349622134,
      "title": "파리바게뜨 제주노형백록점",
      "description": "제주특별자치도 제주시 월랑로 39",
      "url": "http://place.map.kakao.com/12353543",
      "region": "제주특별자치도"
    },
    {
      "lat": 33.504196026377954,
      "lng": 126.54192412867737,
      "title": "파리바게뜨 제주일도점",
      "description": "제주특별자치도 제주시 고마로 115",
      "url": "http://place.map.kakao.com/26096181",
      "region": "제주특별자치도"
    },
    {
      "lat": 33.2223056067536,
      "lng": 126.254595695283,
      "title": "파리바게뜨 제주대정점",
      "description": "제주특별자치도 서귀포시 대정읍 상모로 326",
      "url": "http://place.map.kakao.com/12353500",
      "region": "제주특별자치도"
    },
    {
      "lat": 33.51724205022243,
      "lng": 126.58759771984349,
      "title": "파리바게뜨 제주삼화점",
      "description": "제주특별자치도 제주시 화삼북로 135",
      "url": "http://place.map.kakao.com/24482674",
      "region": "제주특별자치도"
    },
    {
      "lat": 33.50046147871462,
      "lng": 126.52653431100362,
      "title": "파리바게뜨 제주광양점",
      "description": "제주특별자치도 제주시 서광로 281",
      "url": "http://place.map.kakao.com/12353586",
      "region": "제주특별자치도"
    },
    {
      "lat": 33.2912312243736,
      "lng": 126.28393669447,
      "title": "파리바게뜨 제주영어도시점",
      "description": "제주특별자치도 서귀포시 대정읍 에듀시티로 44",
      "url": "http://place.map.kakao.com/27277510",
      "region": "제주특별자치도"
    },
    {
      "lat": 33.4895649526849,
      "lng": 126.524213458618,
      "title": "파리바게뜨 제주종합청사점",
      "description": "제주특별자치도 제주시 복지로5길 2",
      "url": "http://place.map.kakao.com/27524080",
      "region": "제주특별자치도"
    },
    {
      "lat": 33.48114269097886,
      "lng": 126.48964836042545,
      "title": "파리바게뜨 제주연동1호점",
      "description": "제주특별자치도 제주시 국기로 8",
      "url": "http://place.map.kakao.com/12353589",
      "region": "제주특별자치도"
    },
    {
      "lat": 33.5168862152238,
      "lng": 126.580969012181,
      "title": "파리바게뜨 삼화2지구점",
      "description": "제주특별자치도 제주시 건주로 31",
      "url": "http://place.map.kakao.com/177345327",
      "region": "제주특별자치도"
    },
    {
      "lat": 33.501077982604,
      "lng": 126.54846426609255,
      "title": "파리바게뜨 제주대유대림점",
      "description": "제주특별자치도 제주시 태성로 22",
      "url": "http://place.map.kakao.com/17589301",
      "region": "제주특별자치도"
    }
  ]
}