{
  "pins": [
    {
      "lat": 37.50365239823713,
      "lng": 127.04146067379646,
      "title": "스타벅스 본사",
      "description": "서울 강남구 테헤란로 231",
      "url": "http://place.map.kakao.com/15376650",
      "region": "서울특별시"
    },
    {
      "lat": 37.4976744709989,
      "lng": 127.028443419181,
      "title": "스타벅스 강남R점",
      "description": "서울 강남구 강남대로 390",
      "url": "http://place.map.kakao.com/35026031",
      "region": "서울특별시"
    },
    {
      "lat": 37.6554573891378,
      "lng": 126.947556601185,
      "title": "스타벅스 더북한산점",
      "description": "서울 은평구 대서문길 24-11",
      "url": "http://place.map.kakao.com/76206032",
      "region": "서울특별시"
    },
    {
      "lat": 37.57078754872737,
      "lng": 126.98343141859559,
      "title": "스타벅스 종로R점",
      "description": "서울 종로구 종로 51",
      "url": "http://place.map.kakao.com/1784996243",
      "region": "서울특별시"
    },
    {
      "lat": 37.57122962143047,
      "lng": 126.97629649901215,
      "title": "스타벅스 광화문점",
      "description": "서울 종로구 세종대로 167",
      "url": "http://place.map.kakao.com/7961649",
      "region": "서울특별시"
    },
    {
      "lat": 37.57978511855371,
      "lng": 127.0386612781175,
      "title": "스타벅스 경동1960점",
      "description": "서울 동대문구 고산자로36길 3",
      "url": "http://place.map.kakao.com/609996995",
      "region": "서울특별시"
    },
    {
      "lat": 37.5030694314321,
      "lng": 127.004455913484,
      "title": "스타벅스 파미에파크R점",
      "description": "서울 서초구 사평대로 205",
      "url": "http://place.map.kakao.com/25502514",
      "region": "서울특별시"
    },
    {
      "lat": 37.4761747005937,
      "lng": 126.980943666621,
      "title": "스타벅스 사당점",
      "description": "서울 관악구 남부순환로 2082-25",
      "url": "http://place.map.kakao.com/23447734",
      "region": "서울특별시"
    },
    {
      "lat": 37.523735555011335,
      "lng": 127.046872393057,
      "title": "스타벅스 청담사거리점",
      "description": "서울 강남구 도산대로 458",
      "url": "http://place.map.kakao.com/23522642",
      "region": "서울특별시"
    },
    {
      "lat": 37.5095241977995,
      "lng": 127.105340515353,
      "title": "스타벅스 석촌호수점",
      "description": "서울 송파구 석촌호수로 262",
      "url": "http://place.map.kakao.com/22547048",
      "region": "서울특별시"
    },
    {
      "lat": 37.57739393795513,
      "lng": 126.98569069000449,
      "title": "스타벅스 안국점",
      "description": "서울 종로구 북촌로 5-1",
      "url": "http://place.map.kakao.com/25115113",
      "region": "서울특별시"
    },
    {
      "lat": 37.564473589052284,
      "lng": 126.97912831504493,
      "title": "스타벅스 환구단점",
      "description": "서울 중구 소공로 112",
      "url": "http://place.map.kakao.com/22894118",
      "region": "서울특별시"
    },
    {
      "lat": 37.561098264309,
      "lng": 127.007443973952,
      "title": "스타벅스 장충라운지R점",
      "description": "서울 중구 장충단로4길 25",
      "url": "http://place.map.kakao.com/375024953",
      "region": "서울특별시"
    },
    {
      "lat": 37.5152671337231,
      "lng": 127.099168114076,
      "title": "스타벅스 잠실역점",
      "description": "서울 송파구 송파대로 562",
      "url": "http://place.map.kakao.com/11246062",
      "region": "서울특별시"
    },
    {
      "lat": 37.5252051860766,
      "lng": 127.041816506596,
      "title": "스타벅스 청담스타R점",
      "description": "서울 강남구 도산대로57길 24",
      "url": "http://place.map.kakao.com/382182207",
      "region": "서울특별시"
    },
    {
      "lat": 37.55845341147771,
      "lng": 126.94594397093421,
      "title": "스타벅스 이대점",
      "description": "서울 서대문구 이화여대길 34",
      "url": "http://place.map.kakao.com/725420477",
      "region": "서울특별시"
    },
    {
      "lat": 37.5431936487842,
      "lng": 127.056944035907,
      "title": "스타벅스 성수역점",
      "description": "서울 성동구 성수이로 94",
      "url": "http://place.map.kakao.com/1748005319",
      "region": "서울특별시"
    },
    {
      "lat": 37.620790371073866,
      "lng": 127.07426417069411,
      "title": "스타벅스 공릉DT점",
      "description": "서울 노원구 동일로 1015",
      "url": "http://place.map.kakao.com/1826125340",
      "region": "서울특별시"
    },
    {
      "lat": 37.48800665367514,
      "lng": 127.10297988971773,
      "title": "스타벅스 수서역R점",
      "description": "서울 강남구 광평로 281",
      "url": "http://place.map.kakao.com/2140311573",
      "region": "서울특별시"
    },
    {
      "lat": 37.5546231745866,
      "lng": 126.920317785646,
      "title": "스타벅스 홍대입구역사거리R점",
      "description": "서울 마포구 양화로 125",
      "url": "http://place.map.kakao.com/1436512690",
      "region": "서울특별시"
    },
    {
      "lat": 37.5274384741024,
      "lng": 126.96564776307117,
      "title": "스타벅스 용산역써밋R점",
      "description": "서울 용산구 한강대로 69",
      "url": "http://place.map.kakao.com/255305228",
      "region": "서울특별시"
    },
    {
      "lat": 37.511510200207084,
      "lng": 127.08112937138624,
      "title": "스타벅스 잠실새내역점",
      "description": "서울 송파구 올림픽로 96",
      "url": "http://place.map.kakao.com/21580658",
      "region": "서울특별시"
    },
    {
      "lat": 37.4983415831768,
      "lng": 127.026874023027,
      "title": "스타벅스 몬테소리점",
      "description": "서울 서초구 강남대로 399",
      "url": "http://place.map.kakao.com/7961654",
      "region": "서울특별시"
    },
    {
      "lat": 37.5133910456679,
      "lng": 126.940875235694,
      "title": "스타벅스 노량진역점",
      "description": "서울 동작구 노량진로 134",
      "url": "http://place.map.kakao.com/66183033",
      "region": "서울특별시"
    },
    {
      "lat": 37.4920885148138,
      "lng": 126.923509731908,
      "title": "스타벅스 보라매공원R점",
      "description": "서울 동작구 보라매로5길 35",
      "url": "http://place.map.kakao.com/755423338",
      "region": "서울특별시"
    },
    {
      "lat": 37.51622596162784,
      "lng": 127.0207677490634,
      "title": "스타벅스 신사역점",
      "description": "서울 강남구 도산대로 108",
      "url": "http://place.map.kakao.com/26395435",
      "region": "서울특별시"
    },
    {
      "lat": 37.5681306923844,
      "lng": 126.826136318604,
      "title": "스타벅스 마곡나루역점",
      "description": "서울 강서구 마곡중앙로 161-17",
      "url": "http://place.map.kakao.com/1433534125",
      "region": "서울특별시"
    },
    {
      "lat": 37.65472035675518,
      "lng": 127.06006164256367,
      "title": "스타벅스 노원역점",
      "description": "서울 노원구 동일로 1413",
      "url": "http://place.map.kakao.com/19469879",
      "region": "서울특별시"
    },
    {
      "lat": 37.5032649716005,
      "lng": 127.025559367137,
      "title": "스타벅스 강남대로점",
      "description": "서울 강남구 강남대로 456",
      "url": "http://place.map.kakao.com/20494135",
      "region": "서울특별시"
    },
    {
      "lat": 37.523227285602,
      "lng": 126.923582027731,
      "title": "스타벅스 여의도역R점",
      "description": "서울 영등포구 의사당대로 83",
      "url": "http://place.map.kakao.com/27465313",
      "region": "서울특별시"
    },
    {
      "lat": 37.5564857641334,
      "lng": 126.937110958522,
      "title": "스타벅스 신촌점",
      "description": "서울 서대문구 연세로 10-1",
      "url": "http://place.map.kakao.com/10538396",
      "region": "서울특별시"
    },
    {
      "lat": 37.49231244941736,
      "lng": 127.01417772332432,
      "title": "스타벅스 교대점",
      "description": "서울 서초구 서초중앙로 118",
      "url": "http://place.map.kakao.com/8429829",
      "region": "서울특별시"
    },
    {
      "lat": 37.5568646370831,
      "lng": 126.919993980608,
      "title": "스타벅스 동교점",
      "description": "서울 마포구 월드컵북로 22",
      "url": "http://place.map.kakao.com/20705154",
      "region": "서울특별시"
    },
    {
      "lat": 37.4784272951076,
      "lng": 126.981386278469,
      "title": "스타벅스 사당역점",
      "description": "서울 동작구 동작대로 21",
      "url": "http://place.map.kakao.com/12108448",
      "region": "서울특별시"
    },
    {
      "lat": 37.56263706380071,
      "lng": 127.0338149211964,
      "title": "스타벅스 왕십리역",
      "description": "서울 성동구 왕십리로 326",
      "url": "http://place.map.kakao.com/26785715",
      "region": "서울특별시"
    },
    {
      "lat": 37.56059595846078,
      "lng": 126.83384561061793,
      "title": "스타벅스 마곡사이언스타워R",
      "description": "서울 강서구 마곡동로 62",
      "url": "http://place.map.kakao.com/76277836",
      "region": "서울특별시"
    },
    {
      "lat": 37.5700056389639,
      "lng": 126.984569205394,
      "title": "스타벅스 종각점",
      "description": "서울 종로구 종로 64",
      "url": "http://place.map.kakao.com/8405079",
      "region": "서울특별시"
    },
    {
      "lat": 37.5705792749895,
      "lng": 126.990215316036,
      "title": "스타벅스 종로3가점",
      "description": "서울 종로구 종로 113-1",
      "url": "http://place.map.kakao.com/17351323",
      "region": "서울특별시"
    },
    {
      "lat": 37.50458141638527,
      "lng": 126.91007921929604,
      "title": "스타벅스 영등포신길점",
      "description": "서울 영등포구 신길로 137",
      "url": "http://place.map.kakao.com/26316695",
      "region": "서울특별시"
    },
    {
      "lat": 37.4761819067065,
      "lng": 126.965138754993,
      "title": "스타벅스 낙성대DT점",
      "description": "서울 관악구 남부순환로 1948",
      "url": "http://place.map.kakao.com/427369680",
      "region": "서울특별시"
    },
    {
      "lat": 37.5772042362666,
      "lng": 126.972676532641,
      "title": "스타벅스 경복궁역점",
      "description": "서울 종로구 자하문로4길 6",
      "url": "http://place.map.kakao.com/12690667",
      "region": "서울특별시"
    },
    {
      "lat": 37.5722187634845,
      "lng": 126.98688705882,
      "title": "스타벅스 인사점",
      "description": "서울 종로구 인사동길 14",
      "url": "http://place.map.kakao.com/8430510",
      "region": "서울특별시"
    },
    {
      "lat": 37.5701683129101,
      "lng": 126.933848477923,
      "title": "스타벅스 연희DT점",
      "description": "서울 서대문구 연희로 144",
      "url": "http://place.map.kakao.com/26571462",
      "region": "서울특별시"
    },
    {
      "lat": 37.5065652274908,
      "lng": 127.120496209987,
      "title": "스타벅스 송파방이DT점",
      "description": "서울 송파구 오금로 241",
      "url": "http://place.map.kakao.com/1710997869",
      "region": "서울특별시"
    },
    {
      "lat": 37.5572887166274,
      "lng": 126.923637798148,
      "title": "스타벅스 홍대역점",
      "description": "서울 마포구 양화로 165",
      "url": "http://place.map.kakao.com/22105109",
      "region": "서울특별시"
    },
    {
      "lat": 35.1550421542441,
      "lng": 129.120845490165,
      "title": "스타벅스 광안리점",
      "description": "부산 수영구 광안해변로 247",
      "url": "http://place.map.kakao.com/8429828",
      "region": "부산광역시"
    },
    {
      "lat": 35.1807527516702,
      "lng": 129.202260730875,
      "title": "스타벅스 부산송정비치점",
      "description": "부산 해운대구 송정해변로 36",
      "url": "http://place.map.kakao.com/20908728",
      "region": "부산광역시"
    },
    {
      "lat": 35.15838129182127,
      "lng": 129.15306320609722,
      "title": "스타벅스 해운대동백점",
      "description": "부산 해운대구 해운대해변로 197",
      "url": "http://place.map.kakao.com/1461263034",
      "region": "부산광역시"
    },
    {
      "lat": 35.31645354465795,
      "lng": 129.26092842220143,
      "title": "스타벅스 기장임랑원점",
      "description": "부산 기장군 장안읍 임랑해안길 10",
      "url": "http://place.map.kakao.com/691806436",
      "region": "부산광역시"
    },
    {
      "lat": 35.1025732611384,
      "lng": 128.929459499616,
      "title": "스타벅스 명지강변DT점",
      "description": "부산 강서구 르노삼성대로 620",
      "url": "http://place.map.kakao.com/351058533",
      "region": "부산광역시"
    },
    {
      "lat": 35.20563916532923,
      "lng": 129.08011969066595,
      "title": "스타벅스 동래역점",
      "description": "부산 동래구 충렬대로181번길 42",
      "url": "http://place.map.kakao.com/788575125",
      "region": "부산광역시"
    },
    {
      "lat": 35.1153103289258,
      "lng": 128.959529135979,
      "title": "스타벅스 을숙도강변DT점",
      "description": "부산 사하구 하신번영로 381-6",
      "url": "http://place.map.kakao.com/600880777",
      "region": "부산광역시"
    },
    {
      "lat": 35.1597225815149,
      "lng": 129.159908332386,
      "title": "스타벅스 하버타운점",
      "description": "부산 해운대구 해운대해변로 257",
      "url": "http://place.map.kakao.com/7975172",
      "region": "부산광역시"
    },
    {
      "lat": 35.21069417594244,
      "lng": 129.0084426499112,
      "title": "스타벅스 부산덕천역점",
      "description": "부산 북구 만덕대로 30",
      "url": "http://place.map.kakao.com/22728192",
      "region": "부산광역시"
    },
    {
      "lat": 35.1162822072793,
      "lng": 129.040848532517,
      "title": "스타벅스 부산역점",
      "description": "부산 동구 중앙대로 216",
      "url": "http://place.map.kakao.com/7961749",
      "region": "부산광역시"
    },
    {
      "lat": 35.15684623091272,
      "lng": 129.05806521562067,
      "title": "스타벅스 서면중앙점",
      "description": "부산 부산진구 서면로68번길 1",
      "url": "http://place.map.kakao.com/12790962",
      "region": "부산광역시"
    },
    {
      "lat": 35.15526020436897,
      "lng": 129.05753367958278,
      "title": "스타벅스 서면로R점",
      "description": "부산 부산진구 서면로 49-1",
      "url": "http://place.map.kakao.com/125537387",
      "region": "부산광역시"
    },
    {
      "lat": 35.23879929718655,
      "lng": 129.09304754276718,
      "title": "스타벅스 금정구청DT점",
      "description": "부산 금정구 중앙대로 1730",
      "url": "http://place.map.kakao.com/1594304704",
      "region": "부산광역시"
    },
    {
      "lat": 35.1840430880508,
      "lng": 129.21079681983,
      "title": "스타벅스 동부산DT점",
      "description": "부산 기장군 기장읍 기장해안로 56",
      "url": "http://place.map.kakao.com/390281090",
      "region": "부산광역시"
    },
    {
      "lat": 35.1471948053141,
      "lng": 129.110534871112,
      "title": "스타벅스 금련산역점",
      "description": "부산 수영구 수영로464번길 6",
      "url": "http://place.map.kakao.com/846411755",
      "region": "부산광역시"
    },
    {
      "lat": 35.153189823240055,
      "lng": 129.11793693046107,
      "title": "스타벅스 광안비치점",
      "description": "부산 수영구 광안로62번길 39",
      "url": "http://place.map.kakao.com/681789486",
      "region": "부산광역시"
    },
    {
      "lat": 35.1543597637988,
      "lng": 129.063529449749,
      "title": "스타벅스 서면전포역점",
      "description": "부산 부산진구 전포대로199번길 27",
      "url": "http://place.map.kakao.com/26410042",
      "region": "부산광역시"
    },
    {
      "lat": 35.23360020579341,
      "lng": 129.0133072884484,
      "title": "스타벅스 부산화명역점",
      "description": "부산 북구 금곡대로285번길 5",
      "url": "http://place.map.kakao.com/20494150",
      "region": "부산광역시"
    },
    {
      "lat": 35.154094327799,
      "lng": 129.061547691058,
      "title": "스타벅스 부산서면점",
      "description": "부산 부산진구 중앙대로692번길 46-10",
      "url": "http://place.map.kakao.com/20971198",
      "region": "부산광역시"
    },
    {
      "lat": 35.186500236449504,
      "lng": 129.0716723294327,
      "title": "스타벅스 부산거제DT점",
      "description": "부산 연제구 거제대로 203",
      "url": "http://place.map.kakao.com/1295931668",
      "region": "부산광역시"
    },
    {
      "lat": 35.1555019753249,
      "lng": 129.058897094764,
      "title": "스타벅스 부산서면중앙로점",
      "description": "부산 부산진구 중앙대로 701",
      "url": "http://place.map.kakao.com/22547054",
      "region": "부산광역시"
    },
    {
      "lat": 35.170158406271,
      "lng": 129.069262376289,
      "title": "스타벅스 양정역점",
      "description": "부산 부산진구 중앙대로 894",
      "url": "http://place.map.kakao.com/27176073",
      "region": "부산광역시"
    },
    {
      "lat": 35.1870772303579,
      "lng": 129.083210556001,
      "title": "스타벅스 부산연산역점",
      "description": "부산 연제구 반송로 20",
      "url": "http://place.map.kakao.com/25083333",
      "region": "부산광역시"
    },
    {
      "lat": 35.321298488615824,
      "lng": 129.17707023916293,
      "title": "스타벅스 부산정관점",
      "description": "부산 기장군 정관읍 정관로 579",
      "url": "http://place.map.kakao.com/21660987",
      "region": "부산광역시"
    },
    {
      "lat": 35.2621472741405,
      "lng": 129.091314349087,
      "title": "스타벅스 금정남산동DT점",
      "description": "부산 금정구 중앙대로 1989",
      "url": "http://place.map.kakao.com/671333145",
      "region": "부산광역시"
    },
    {
      "lat": 35.21257579429746,
      "lng": 129.07830924510367,
      "title": "스타벅스 명륜역점",
      "description": "부산 동래구 동래로 25",
      "url": "http://place.map.kakao.com/1705689321",
      "region": "부산광역시"
    },
    {
      "lat": 35.1812391604849,
      "lng": 129.123997893984,
      "title": "스타벅스 부산재송DT점",
      "description": "부산 해운대구 해운대로 189",
      "url": "http://place.map.kakao.com/1977435309",
      "region": "부산광역시"
    },
    {
      "lat": 35.1579404571488,
      "lng": 129.182307116646,
      "title": "스타벅스 해운대달맞이점",
      "description": "부산 해운대구 달맞이길 189",
      "url": "http://place.map.kakao.com/24529854",
      "region": "부산광역시"
    },
    {
      "lat": 35.0491299922098,
      "lng": 128.963570603578,
      "title": "스타벅스 다대포비치점",
      "description": "부산 사하구 다대로 714",
      "url": "http://place.map.kakao.com/1540304725",
      "region": "부산광역시"
    },
    {
      "lat": 35.1065173820902,
      "lng": 128.966043148978,
      "title": "스타벅스 하단중앙점",
      "description": "부산 사하구 낙동남로 1411",
      "url": "http://place.map.kakao.com/17884732",
      "region": "부산광역시"
    },
    {
      "lat": 35.148309788872,
      "lng": 129.114188696088,
      "title": "스타벅스 남천점",
      "description": "부산 수영구 남천바다로 38",
      "url": "http://place.map.kakao.com/8439649",
      "region": "부산광역시"
    },
    {
      "lat": 35.12311083784412,
      "lng": 129.09905349451603,
      "title": "스타벅스 동명대DT점",
      "description": "부산 남구 신선로 423",
      "url": "http://place.map.kakao.com/708791617",
      "region": "부산광역시"
    },
    {
      "lat": 35.0982535250031,
      "lng": 129.035157661116,
      "title": "스타벅스 남포동역점",
      "description": "부산 중구 구덕로 4",
      "url": "http://place.map.kakao.com/13048971",
      "region": "부산광역시"
    },
    {
      "lat": 35.153163184761766,
      "lng": 129.12480816360738,
      "title": "스타벅스 광안수변공원점",
      "description": "부산 수영구 민락수변로 29",
      "url": "http://place.map.kakao.com/553746127",
      "region": "부산광역시"
    },
    {
      "lat": 35.157948888742226,
      "lng": 129.060153736934,
      "title": "스타벅스 서면역점",
      "description": "부산 부산진구 서전로 1",
      "url": "http://place.map.kakao.com/12108443",
      "region": "부산광역시"
    },
    {
      "lat": 35.2240064302014,
      "lng": 129.086557150942,
      "title": "스타벅스 온천장역DT점",
      "description": "부산 금정구 식물원로 13",
      "url": "http://place.map.kakao.com/2024212873",
      "region": "부산광역시"
    },
    {
      "lat": 35.114312525111,
      "lng": 129.040243358554,
      "title": "스타벅스 부산역라마다점",
      "description": "부산 동구 중앙대로196번길 10",
      "url": "http://place.map.kakao.com/498289106",
      "region": "부산광역시"
    },
    {
      "lat": 35.1958920664867,
      "lng": 129.106862874523,
      "title": "스타벅스 부산안락DT점",
      "description": "부산 동래구 충렬대로 446",
      "url": "http://place.map.kakao.com/26849456",
      "region": "부산광역시"
    },
    {
      "lat": 35.154944662005,
      "lng": 129.03621351191,
      "title": "스타벅스 동의대역점",
      "description": "부산 부산진구 가야대로 589",
      "url": "http://place.map.kakao.com/27544716",
      "region": "부산광역시"
    },
    {
      "lat": 35.0983254287316,
      "lng": 129.029795321484,
      "title": "스타벅스 자갈치역점",
      "description": "부산 중구 구덕로 54-1",
      "url": "http://place.map.kakao.com/225089771",
      "region": "부산광역시"
    },
    {
      "lat": 35.08410693235878,
      "lng": 128.90328988031263,
      "title": "스타벅스 명지오션시티점",
      "description": "부산 강서구 명지오션시티11로 66",
      "url": "http://place.map.kakao.com/17648177",
      "region": "부산광역시"
    },
    {
      "lat": 35.1349904601701,
      "lng": 129.093032158229,
      "title": "스타벅스 부산대연역점",
      "description": "부산 남구 수영로 240-1",
      "url": "http://place.map.kakao.com/22105149",
      "region": "부산광역시"
    },
    {
      "lat": 35.16571251730741,
      "lng": 129.11451628166546,
      "title": "스타벅스 수영역점",
      "description": "부산 수영구 수영로 671",
      "url": "http://place.map.kakao.com/607830933",
      "region": "부산광역시"
    },
    {
      "lat": 35.20378915568626,
      "lng": 129.1192833422267,
      "title": "스타벅스 수영강변DT점",
      "description": "부산 해운대구 수영강변대로 516",
      "url": "http://place.map.kakao.com/228823232",
      "region": "부산광역시"
    },
    {
      "lat": 35.21689621299154,
      "lng": 129.00473341718026,
      "title": "스타벅스 화명강변DT점",
      "description": "부산 북구 금곡대로 77",
      "url": "http://place.map.kakao.com/1323414903",
      "region": "부산광역시"
    },
    {
      "lat": 35.8684287839178,
      "lng": 128.592471717341,
      "title": "스타벅스 대구종로고택점",
      "description": "대구 중구 중앙대로77길 22",
      "url": "http://place.map.kakao.com/946950605",
      "region": "대구광역시"
    },
    {
      "lat": 35.8256986257358,
      "lng": 128.621751486129,
      "title": "스타벅스 수성레이크점",
      "description": "대구 수성구 수성못길 4",
      "url": "http://place.map.kakao.com/18315394",
      "region": "대구광역시"
    },
    {
      "lat": 35.9055851650054,
      "lng": 128.613287517622,
      "title": "스타벅스 대구유통단지점",
      "description": "대구 북구 유통단지로8길 78",
      "url": "http://place.map.kakao.com/2008944142",
      "region": "대구광역시"
    },
    {
      "lat": 35.89229637317734,
      "lng": 128.60856585746507,
      "title": "스타벅스 경북대점",
      "description": "대구 북구 대학로 75",
      "url": "http://place.map.kakao.com/17884722",
      "region": "대구광역시"
    },
    {
      "lat": 35.98791266753147,
      "lng": 128.63641513781255,
      "title": "스타벅스 대구팔공산점",
      "description": "대구 동구 파계로 650",
      "url": "http://place.map.kakao.com/26785199",
      "region": "대구광역시"
    },
    {
      "lat": 35.8762881852406,
      "lng": 128.628716943629,
      "title": "스타벅스 동대구터미널점",
      "description": "대구 동구 동부로30길 12",
      "url": "http://place.map.kakao.com/14922596",
      "region": "대구광역시"
    },
    {
      "lat": 35.8799650583618,
      "lng": 128.653232000645,
      "title": "스타벅스 대구동촌유원지점",
      "description": "대구 동구 효동로2길 45",
      "url": "http://place.map.kakao.com/20046337",
      "region": "대구광역시"
    },
    {
      "lat": 35.84870908226541,
      "lng": 128.53655642506487,
      "title": "스타벅스 대구죽전역점",
      "description": "대구 달서구 와룡로 169",
      "url": "http://place.map.kakao.com/1411618197",
      "region": "대구광역시"
    },
    {
      "lat": 35.8707241234372,
      "lng": 128.594228209264,
      "title": "스타벅스 대구중앙로역점",
      "description": "대구 중구 국채보상로 582",
      "url": "http://place.map.kakao.com/1868156776",
      "region": "대구광역시"
    },
    {
      "lat": 35.857737324453694,
      "lng": 128.62525882276006,
      "title": "스타벅스 대구그랜드호텔R",
      "description": "대구 수성구 동대구로 305",
      "url": "http://place.map.kakao.com/744429664",
      "region": "대구광역시"
    },
    {
      "lat": 35.84736011058315,
      "lng": 128.61252881861782,
      "title": "스타벅스 대구중동DT점",
      "description": "대구 수성구 수성로 243",
      "url": "http://place.map.kakao.com/807104065",
      "region": "대구광역시"
    },
    {
      "lat": 35.86957348707743,
      "lng": 128.60052026773266,
      "title": "스타벅스 대구공평DT점",
      "description": "대구 중구 국채보상로 642",
      "url": "http://place.map.kakao.com/26262744",
      "region": "대구광역시"
    },
    {
      "lat": 35.87964925657718,
      "lng": 128.59638246158525,
      "title": "스타벅스 대구칠성DT점",
      "description": "대구 북구 중앙대로 524",
      "url": "http://place.map.kakao.com/199151993",
      "region": "대구광역시"
    },
    {
      "lat": 35.8508303286225,
      "lng": 128.52027075755,
      "title": "스타벅스 대구성서IC DT점",
      "description": "대구 달서구 달구벌대로 1393",
      "url": "http://place.map.kakao.com/27268423",
      "region": "대구광역시"
    },
    {
      "lat": 35.85888351786801,
      "lng": 128.5618185252518,
      "title": "스타벅스 대구두류DT점",
      "description": "대구 달서구 달구벌대로 1798",
      "url": "http://place.map.kakao.com/26410061",
      "region": "대구광역시"
    },
    {
      "lat": 35.8605769105193,
      "lng": 128.617976231588,
      "title": "스타벅스 대구수성네거리DT점",
      "description": "대구 수성구 들안로 342",
      "url": "http://place.map.kakao.com/752045976",
      "region": "대구광역시"
    },
    {
      "lat": 35.9268490515885,
      "lng": 128.5478103740903,
      "title": "스타벅스 대구칠곡대로DT점",
      "description": "대구 북구 칠곡중앙대로 348-1",
      "url": "http://place.map.kakao.com/1281159051",
      "region": "대구광역시"
    },
    {
      "lat": 35.83556308639366,
      "lng": 128.579912322983,
      "title": "스타벅스 대구앞산DT점",
      "description": "대구 남구 현충로 32",
      "url": "http://place.map.kakao.com/65419416",
      "region": "대구광역시"
    },
    {
      "lat": 35.86809821111071,
      "lng": 128.62715322481702,
      "title": "스타벅스 동대구로DT점",
      "description": "대구 동구 동대구로 422",
      "url": "http://place.map.kakao.com/27446975",
      "region": "대구광역시"
    },
    {
      "lat": 35.8659349801284,
      "lng": 128.555361946584,
      "title": "스타벅스 대구평리DT점",
      "description": "대구 서구 서대구로 89",
      "url": "http://place.map.kakao.com/27337246",
      "region": "대구광역시"
    },
    {
      "lat": 35.877320963000756,
      "lng": 128.6666742349417,
      "title": "스타벅스 대구방촌DT점",
      "description": "대구 동구 화랑로 389",
      "url": "http://place.map.kakao.com/1608584965",
      "region": "대구광역시"
    },
    {
      "lat": 35.8444541648079,
      "lng": 128.536671342352,
      "title": "스타벅스 대구감삼DT점",
      "description": "대구 달서구 와룡로 131",
      "url": "http://place.map.kakao.com/1064539958",
      "region": "대구광역시"
    },
    {
      "lat": 35.8874661151135,
      "lng": 128.591875062356,
      "title": "스타벅스 대구침산DT점",
      "description": "대구 북구 침산로 126",
      "url": "http://place.map.kakao.com/24165705",
      "region": "대구광역시"
    },
    {
      "lat": 35.8591501226108,
      "lng": 128.464242250265,
      "title": "스타벅스 대구죽곡점",
      "description": "대구 달성군 다사읍 달구벌대로 861",
      "url": "http://place.map.kakao.com/27168155",
      "region": "대구광역시"
    },
    {
      "lat": 35.8394942938741,
      "lng": 128.708041162308,
      "title": "스타벅스 대구시지점",
      "description": "대구 수성구 달구벌대로 3216",
      "url": "http://place.map.kakao.com/26506094",
      "region": "대구광역시"
    },
    {
      "lat": 35.824282599738666,
      "lng": 128.52564538051536,
      "title": "스타벅스 대구월성점",
      "description": "대구 달서구 조암로 41",
      "url": "http://place.map.kakao.com/1043522253",
      "region": "대구광역시"
    },
    {
      "lat": 35.85633445950834,
      "lng": 128.6502272425425,
      "title": "스타벅스 대구만촌DT점",
      "description": "대구 수성구 달구벌대로 2636",
      "url": "http://place.map.kakao.com/22728332",
      "region": "대구광역시"
    },
    {
      "lat": 35.82953992371557,
      "lng": 128.6116591073387,
      "title": "스타벅스 대구상동DT점",
      "description": "대구 수성구 무학로 29",
      "url": "http://place.map.kakao.com/27337248",
      "region": "대구광역시"
    },
    {
      "lat": 35.8557199340468,
      "lng": 128.552824468085,
      "title": "스타벅스 대구광장점",
      "description": "대구 달서구 달구벌대로 1710",
      "url": "http://place.map.kakao.com/918502178",
      "region": "대구광역시"
    },
    {
      "lat": 35.8072357531681,
      "lng": 128.520280098385,
      "title": "스타벅스 대구수목원점",
      "description": "대구 달서구 화암로 379",
      "url": "http://place.map.kakao.com/27485186",
      "region": "대구광역시"
    },
    {
      "lat": 35.69327280466727,
      "lng": 128.45920621597824,
      "title": "스타벅스 대구테크노폴리스점",
      "description": "대구 달성군 유가읍 테크노상업로 84",
      "url": "http://place.map.kakao.com/1226840993",
      "region": "대구광역시"
    },
    {
      "lat": 35.90987578122389,
      "lng": 128.54873800674667,
      "title": "스타벅스 대구태전DT점",
      "description": "대구 북구 칠곡중앙대로 158",
      "url": "http://place.map.kakao.com/1615068543",
      "region": "대구광역시"
    },
    {
      "lat": 35.8748836473669,
      "lng": 128.621099392339,
      "title": "스타벅스 대구신천DT점",
      "description": "대구 동구 동부로 78",
      "url": "http://place.map.kakao.com/365540577",
      "region": "대구광역시"
    },
    {
      "lat": 35.85512381406483,
      "lng": 128.51023853731215,
      "title": "스타벅스 대구성서점",
      "description": "대구 달서구 이곡공원로 26",
      "url": "http://place.map.kakao.com/17884720",
      "region": "대구광역시"
    },
    {
      "lat": 35.8391020198116,
      "lng": 128.6259022277,
      "title": "스타벅스 대구황금DT",
      "description": "대구 수성구 청수로 164",
      "url": "http://place.map.kakao.com/1211891343",
      "region": "대구광역시"
    },
    {
      "lat": 35.814436036029214,
      "lng": 128.52433507787762,
      "title": "스타벅스 대구진천역점",
      "description": "대구 달서구 월배로 91",
      "url": "http://place.map.kakao.com/1965707848",
      "region": "대구광역시"
    },
    {
      "lat": 35.8673296948221,
      "lng": 128.594146917185,
      "title": "스타벅스 동성로광장점",
      "description": "대구 중구 동성로 4",
      "url": "http://place.map.kakao.com/17884726",
      "region": "대구광역시"
    },
    {
      "lat": 35.8377642947118,
      "lng": 128.556808242813,
      "title": "스타벅스 대구서부정류장역점",
      "description": "대구 달서구 구마로 265",
      "url": "http://place.map.kakao.com/18691202",
      "region": "대구광역시"
    },
    {
      "lat": 35.9423218425317,
      "lng": 128.563781474643,
      "title": "스타벅스 대구칠곡점",
      "description": "대구 북구 학정로 422",
      "url": "http://place.map.kakao.com/21058554",
      "region": "대구광역시"
    },
    {
      "lat": 35.84544222493929,
      "lng": 128.59357033279676,
      "title": "스타벅스 대구영대병원역DT점",
      "description": "대구 남구 봉덕로 25",
      "url": "http://place.map.kakao.com/325920974",
      "region": "대구광역시"
    },
    {
      "lat": 35.859263320113506,
      "lng": 128.62955520810928,
      "title": "스타벅스 대구범어제니스점",
      "description": "대구 수성구 달구벌대로 2435",
      "url": "http://place.map.kakao.com/18384872",
      "region": "대구광역시"
    },
    {
      "lat": 35.9220203127854,
      "lng": 128.63973588892,
      "title": "스타벅스 대구봉무점",
      "description": "대구 동구 팔공로51길 15-11",
      "url": "http://place.map.kakao.com/24868730",
      "region": "대구광역시"
    },
    {
      "lat": 35.69151192994883,
      "lng": 128.44478551008376,
      "title": "스타벅스 대구현풍DT점",
      "description": "대구 달성군 현풍읍 비슬로 588",
      "url": "http://place.map.kakao.com/92730795",
      "region": "대구광역시"
    },
    {
      "lat": 35.8774372961132,
      "lng": 128.628505736416,
      "title": "스타벅스 신세계대구8FR점",
      "description": "대구 동구 동부로 149",
      "url": "http://place.map.kakao.com/583619514",
      "region": "대구광역시"
    },
    {
      "lat": 35.8968229819557,
      "lng": 128.61445972423,
      "title": "스타벅스 대구복현DT점",
      "description": "대구 북구 대학로 150",
      "url": "http://place.map.kakao.com/34247199",
      "region": "대구광역시"
    },
    {
      "lat": 37.507120747446,
      "lng": 126.734300353442,
      "title": "스타벅스 인천삼산점",
      "description": "인천 부평구 길주로 643",
      "url": "http://place.map.kakao.com/25738855",
      "region": "인천광역시"
    },
    {
      "lat": 37.4523373811158,
      "lng": 126.632579715838,
      "title": "스타벅스 인천용현DT점",
      "description": "인천 미추홀구 아암대로 107",
      "url": "http://place.map.kakao.com/27432241",
      "region": "인천광역시"
    },
    {
      "lat": 37.38058256575741,
      "lng": 126.65910249582073,
      "title": "스타벅스 송도트리플R점",
      "description": "인천 연수구 송도과학로16번길 33-1",
      "url": "http://place.map.kakao.com/1336583879",
      "region": "인천광역시"
    },
    {
      "lat": 37.4915974420675,
      "lng": 126.724504115638,
      "title": "스타벅스 부평점",
      "description": "인천 부평구 경원대로 1397",
      "url": "http://place.map.kakao.com/8437771",
      "region": "인천광역시"
    },
    {
      "lat": 37.49400814815347,
      "lng": 126.49268830086552,
      "title": "스타벅스 영종도운서역점",
      "description": "인천 중구 신도시남로142번길 17",
      "url": "http://place.map.kakao.com/1549040348",
      "region": "인천광역시"
    },
    {
      "lat": 37.46377860422621,
      "lng": 126.68072391117056,
      "title": "스타벅스 주안역점",
      "description": "인천 미추홀구 주안로 100",
      "url": "http://place.map.kakao.com/12108444",
      "region": "인천광역시"
    },
    {
      "lat": 37.5320780901605,
      "lng": 126.652282109168,
      "title": "스타벅스 인천청라점",
      "description": "인천 서구 중봉대로586번길 19",
      "url": "http://place.map.kakao.com/25115120",
      "region": "인천광역시"
    },
    {
      "lat": 37.4494965939482,
      "lng": 126.701359788768,
      "title": "스타벅스 인천예술회관역점",
      "description": "인천 남동구 예술로 174",
      "url": "http://place.map.kakao.com/24350795",
      "region": "인천광역시"
    },
    {
      "lat": 37.742670143633134,
      "lng": 126.491624455464,
      "title": "스타벅스 인천강화DT점",
      "description": "인천 강화군 강화읍 강화대로 343",
      "url": "http://place.map.kakao.com/2134059941",
      "region": "인천광역시"
    },
    {
      "lat": 37.48961617989258,
      "lng": 126.56143470157222,
      "title": "스타벅스 영종하늘도시점",
      "description": "인천 중구 하늘중앙로195번길 15",
      "url": "http://place.map.kakao.com/1804814780",
      "region": "인천광역시"
    },
    {
      "lat": 37.5423568185916,
      "lng": 126.676431028549,
      "title": "스타벅스 인천서구청DT점",
      "description": "인천 서구 서곶로 277",
      "url": "http://place.map.kakao.com/25115123",
      "region": "인천광역시"
    },
    {
      "lat": 37.3848589608979,
      "lng": 126.644467300596,
      "title": "스타벅스 인천송도DT점",
      "description": "인천 연수구 하모니로 136",
      "url": "http://place.map.kakao.com/1762214966",
      "region": "인천광역시"
    },
    {
      "lat": 37.49149372272495,
      "lng": 126.722151375654,
      "title": "스타벅스 부평역점",
      "description": "인천 부평구 경원대로 1377",
      "url": "http://place.map.kakao.com/12587915",
      "region": "인천광역시"
    },
    {
      "lat": 37.440416449543115,
      "lng": 126.66292182991036,
      "title": "스타벅스 인천학익DT점",
      "description": "인천 미추홀구 매소홀로 368",
      "url": "http://place.map.kakao.com/220341019",
      "region": "인천광역시"
    },
    {
      "lat": 37.5933214159618,
      "lng": 126.675440529159,
      "title": "스타벅스 인천당하DT점",
      "description": "인천 서구 원당대로 668",
      "url": "http://place.map.kakao.com/27268594",
      "region": "인천광역시"
    },
    {
      "lat": 37.5188576208601,
      "lng": 126.732095931319,
      "title": "스타벅스 인천갈산DT점",
      "description": "인천 부평구 장제로 371",
      "url": "http://place.map.kakao.com/26805893",
      "region": "인천광역시"
    },
    {
      "lat": 37.4239196687386,
      "lng": 126.749941128607,
      "title": "스타벅스 인천서창점",
      "description": "인천 남동구 서창남로 51",
      "url": "http://place.map.kakao.com/398942696",
      "region": "인천광역시"
    },
    {
      "lat": 37.4149837322529,
      "lng": 126.677851826493,
      "title": "스타벅스 인천연수점",
      "description": "인천 연수구 용담로 115",
      "url": "http://place.map.kakao.com/1444114164",
      "region": "인천광역시"
    },
    {
      "lat": 37.53990429077348,
      "lng": 126.73499421625407,
      "title": "스타벅스 인천계양점",
      "description": "인천 계양구 장제로 808",
      "url": "http://place.map.kakao.com/26459241",
      "region": "인천광역시"
    },
    {
      "lat": 37.3994755653437,
      "lng": 126.725004326673,
      "title": "스타벅스 인천논현점",
      "description": "인천 남동구 논고개로 93",
      "url": "http://place.map.kakao.com/18691192",
      "region": "인천광역시"
    },
    {
      "lat": 37.4441935357625,
      "lng": 126.702189984583,
      "title": "스타벅스 구월로데오점",
      "description": "인천 남동구 인하로 497-22",
      "url": "http://place.map.kakao.com/7961650",
      "region": "인천광역시"
    },
    {
      "lat": 37.476593922812576,
      "lng": 126.71020360658294,
      "title": "스타벅스 부평삼거리역DT점",
      "description": "인천 남동구 경인로 750",
      "url": "http://place.map.kakao.com/586847211",
      "region": "인천광역시"
    },
    {
      "lat": 37.4464758874734,
      "lng": 126.701154819748,
      "title": "스타벅스 인천구월점",
      "description": "인천 남동구 예술로 138",
      "url": "http://place.map.kakao.com/7961935",
      "region": "인천광역시"
    },
    {
      "lat": 37.4697169759061,
      "lng": 126.690825096091,
      "title": "스타벅스 인천간석DT점",
      "description": "인천 남동구 경원대로 974",
      "url": "http://place.map.kakao.com/1479630627",
      "region": "인천광역시"
    },
    {
      "lat": 37.451853407392434,
      "lng": 126.6549548336759,
      "title": "스타벅스 인하대점",
      "description": "인천 미추홀구 인하로 59",
      "url": "http://place.map.kakao.com/17127092",
      "region": "인천광역시"
    },
    {
      "lat": 37.4969598518168,
      "lng": 126.72280624074,
      "title": "스타벅스 부평시장역점",
      "description": "인천 부평구 부평대로 60",
      "url": "http://place.map.kakao.com/19616317",
      "region": "인천광역시"
    },
    {
      "lat": 37.4426952249821,
      "lng": 126.70836136265535,
      "title": "스타벅스 인천구월아시아드점",
      "description": "인천 남동구 인하로 556",
      "url": "http://place.map.kakao.com/851750779",
      "region": "인천광역시"
    },
    {
      "lat": 37.4125209784905,
      "lng": 126.664470134309,
      "title": "스타벅스 인천동춘DT점",
      "description": "인천 연수구 앵고개로 171",
      "url": "http://place.map.kakao.com/1017180921",
      "region": "인천광역시"
    },
    {
      "lat": 37.48013601821968,
      "lng": 126.69841819522784,
      "title": "스타벅스 인천경원대로DT점",
      "description": "인천 부평구 경원대로 1118",
      "url": "http://place.map.kakao.com/1798876775",
      "region": "인천광역시"
    },
    {
      "lat": 37.602557077270646,
      "lng": 126.65714997604466,
      "title": "스타벅스 검단사거리역점",
      "description": "인천 서구 완정로 172",
      "url": "http://place.map.kakao.com/1041002314",
      "region": "인천광역시"
    },
    {
      "lat": 37.4665219485182,
      "lng": 126.654074681626,
      "title": "스타벅스 제물포역DT점",
      "description": "인천 미추홀구 경인로 103",
      "url": "http://place.map.kakao.com/831953265",
      "region": "인천광역시"
    },
    {
      "lat": 37.535516839544265,
      "lng": 126.72223364610132,
      "title": "스타벅스 경인교대입구역DT점",
      "description": "인천 계양구 계양대로 131",
      "url": "http://place.map.kakao.com/1878966727",
      "region": "인천광역시"
    },
    {
      "lat": 37.39653556188978,
      "lng": 126.65153147478348,
      "title": "스타벅스 인천송도점",
      "description": "인천 연수구 컨벤시아대로 55",
      "url": "http://place.map.kakao.com/1501974284",
      "region": "인천광역시"
    },
    {
      "lat": 37.455869687512,
      "lng": 126.714960472611,
      "title": "스타벅스 인천구월중앙점",
      "description": "인천 남동구 용천로 70",
      "url": "http://place.map.kakao.com/1165559480",
      "region": "인천광역시"
    },
    {
      "lat": 37.3946531454378,
      "lng": 126.641520987756,
      "title": "스타벅스 송도센트럴파크점",
      "description": "인천 연수구 센트럴로 194",
      "url": "http://place.map.kakao.com/20494139",
      "region": "인천광역시"
    },
    {
      "lat": 37.5270154597173,
      "lng": 126.722038911332,
      "title": "스타벅스 인천작전점",
      "description": "인천 계양구 계양대로 37",
      "url": "http://place.map.kakao.com/20046347",
      "region": "인천광역시"
    },
    {
      "lat": 37.541402239146926,
      "lng": 126.64703157578579,
      "title": "스타벅스 인천청라DT점",
      "description": "인천 서구 국제대로 237",
      "url": "http://place.map.kakao.com/1568689947",
      "region": "인천광역시"
    },
    {
      "lat": 37.406041897060526,
      "lng": 126.6827943080074,
      "title": "스타벅스 인천스퀘어원점",
      "description": "인천 연수구 청능대로 210",
      "url": "http://place.map.kakao.com/1084251560",
      "region": "인천광역시"
    },
    {
      "lat": 37.4514510255427,
      "lng": 126.707540780187,
      "title": "스타벅스 구월길병원점",
      "description": "인천 남동구 남동대로 773",
      "url": "http://place.map.kakao.com/11129402",
      "region": "인천광역시"
    },
    {
      "lat": 37.5926027901523,
      "lng": 126.712779840986,
      "title": "스타벅스 검단신도시점",
      "description": "인천 서구 이음대로 392",
      "url": "http://place.map.kakao.com/208619045",
      "region": "인천광역시"
    },
    {
      "lat": 37.5229441267917,
      "lng": 126.669989905876,
      "title": "스타벅스 루원시티점",
      "description": "인천 서구 가정로 437",
      "url": "http://place.map.kakao.com/97342308",
      "region": "인천광역시"
    },
    {
      "lat": 37.3874163491075,
      "lng": 126.663665133725,
      "title": "스타벅스 송도캠퍼스타운역점",
      "description": "인천 연수구 송도과학로27번길 55",
      "url": "http://place.map.kakao.com/1945189552",
      "region": "인천광역시"
    },
    {
      "lat": 37.53401365787931,
      "lng": 126.65235910947999,
      "title": "스타벅스 인천청라타워돔점",
      "description": "인천 서구 중봉대로612번길 10-17",
      "url": "http://place.map.kakao.com/27221316",
      "region": "인천광역시"
    },
    {
      "lat": 37.4704456737311,
      "lng": 126.667195770056,
      "title": "스타벅스 인천도화DT점",
      "description": "인천 미추홀구 장고개로 28",
      "url": "http://place.map.kakao.com/460601239",
      "region": "인천광역시"
    },
    {
      "lat": 37.39890472129208,
      "lng": 126.63639824666646,
      "title": "스타벅스 송도커넬워크점",
      "description": "인천 연수구 아트센터대로 131",
      "url": "http://place.map.kakao.com/22547056",
      "region": "인천광역시"
    },
    {
      "lat": 35.171594404585306,
      "lng": 126.8948211403407,
      "title": "스타벅스 광주신안DT점",
      "description": "광주 북구 서암대로 93",
      "url": "http://place.map.kakao.com/123618728",
      "region": "광주광역시"
    },
    {
      "lat": 35.1786883750278,
      "lng": 126.89515781755,
      "title": "스타벅스 광주용봉점",
      "description": "광주 북구 저불로 45",
      "url": "http://place.map.kakao.com/20046336",
      "region": "광주광역시"
    },
    {
      "lat": 35.1542383700657,
      "lng": 126.94077036252723,
      "title": "스타벅스 광주지산유원지입구점",
      "description": "광주 동구 무등로 592",
      "url": "http://place.map.kakao.com/1747138588",
      "region": "광주광역시"
    },
    {
      "lat": 35.134918639200514,
      "lng": 126.91771167956466,
      "title": "스타벅스 광주방림DT점",
      "description": "광주 남구 대남대로 67",
      "url": "http://place.map.kakao.com/1524581503",
      "region": "광주광역시"
    },
    {
      "lat": 35.179148091124496,
      "lng": 126.83002631443011,
      "title": "스타벅스 광주신가DT점",
      "description": "광주 광산구 목련로 335",
      "url": "http://place.map.kakao.com/26466535",
      "region": "광주광역시"
    },
    {
      "lat": 35.150424905061804,
      "lng": 126.923420339845,
      "title": "스타벅스 광주동명점",
      "description": "광주 동구 동명로 16",
      "url": "http://place.map.kakao.com/534647395",
      "region": "광주광역시"
    },
    {
      "lat": 35.17697703436138,
      "lng": 126.80791786366495,
      "title": "스타벅스 광주흑석DT점",
      "description": "광주 광산구 사암로 367",
      "url": "http://place.map.kakao.com/1161936444",
      "region": "광주광역시"
    },
    {
      "lat": 35.1772166772749,
      "lng": 126.912456703755,
      "title": "스타벅스 전남대점",
      "description": "광주 북구 우치로 110",
      "url": "http://place.map.kakao.com/7975005",
      "region": "광주광역시"
    },
    {
      "lat": 35.145581250092754,
      "lng": 126.89083053079709,
      "title": "스타벅스 광주월산DT점",
      "description": "광주 남구 대남대로 386",
      "url": "http://place.map.kakao.com/275035533",
      "region": "광주광역시"
    },
    {
      "lat": 35.1380542976458,
      "lng": 126.791389990888,
      "title": "스타벅스 광주송정역점",
      "description": "광주 광산구 상무대로205번길 6",
      "url": "http://place.map.kakao.com/1133717796",
      "region": "광주광역시"
    },
    {
      "lat": 35.155040969014344,
      "lng": 126.84882624234989,
      "title": "스타벅스 광주상무대교점",
      "description": "광주 서구 상무중앙로 90",
      "url": "http://place.map.kakao.com/22547064",
      "region": "광주광역시"
    },
    {
      "lat": 35.1904795656961,
      "lng": 126.824718136279,
      "title": "스타벅스 광산수완점",
      "description": "광주 광산구 장신로 134",
      "url": "http://place.map.kakao.com/13048931",
      "region": "광주광역시"
    },
    {
      "lat": 35.1499205751796,
      "lng": 126.85491331542575,
      "title": "스타벅스 광주상무DT점",
      "description": "광주 서구 상무대로 847",
      "url": "http://place.map.kakao.com/1087793500",
      "region": "광주광역시"
    },
    {
      "lat": 35.14972527769391,
      "lng": 126.9290618094824,
      "title": "스타벅스 광주지산DT점",
      "description": "광주 동구 필문대로 240",
      "url": "http://place.map.kakao.com/1203516698",
      "region": "광주광역시"
    },
    {
      "lat": 35.2127948705129,
      "lng": 126.868544342835,
      "title": "스타벅스 광주용두DT점",
      "description": "광주 북구 임방울대로 1016",
      "url": "http://place.map.kakao.com/26814680",
      "region": "광주광역시"
    },
    {
      "lat": 35.2193109396264,
      "lng": 126.842300376615,
      "title": "스타벅스 광주쌍암점",
      "description": "광주 광산구 첨단중앙로 158",
      "url": "http://place.map.kakao.com/25738841",
      "region": "광주광역시"
    },
    {
      "lat": 35.1888444286364,
      "lng": 126.85764944595,
      "title": "스타벅스 광주신창강변DT점",
      "description": "광주 광산구 북문대로 321",
      "url": "http://place.map.kakao.com/2133757098",
      "region": "광주광역시"
    },
    {
      "lat": 35.1562331687728,
      "lng": 126.88272976346911,
      "title": "스타벅스 광주신세계DT점",
      "description": "광주 서구 죽봉대로 33",
      "url": "http://place.map.kakao.com/1112546283",
      "region": "광주광역시"
    },
    {
      "lat": 35.1443422932096,
      "lng": 126.914970860915,
      "title": "스타벅스 광주충장DT점",
      "description": "광주 동구 천변우로 421",
      "url": "http://place.map.kakao.com/1349217958",
      "region": "광주광역시"
    },
    {
      "lat": 35.174816863857,
      "lng": 126.91441770102,
      "title": "스타벅스 광주북구청점",
      "description": "광주 북구 서방로9번길 30",
      "url": "http://place.map.kakao.com/27355617",
      "region": "광주광역시"
    },
    {
      "lat": 35.1341385100863,
      "lng": 126.898136867848,
      "title": "스타벅스 광주주월DT점",
      "description": "광주 남구 회재로 1256",
      "url": "http://place.map.kakao.com/1581919248",
      "region": "광주광역시"
    },
    {
      "lat": 35.205522263639,
      "lng": 126.897934692043,
      "title": "스타벅스 광주일곡점",
      "description": "광주 북구 설죽로 518",
      "url": "http://place.map.kakao.com/1483117770",
      "region": "광주광역시"
    },
    {
      "lat": 35.1625987621054,
      "lng": 126.810311526195,
      "title": "스타벅스 광주하남점",
      "description": "광주 광산구 사암로216번길 38-16",
      "url": "http://place.map.kakao.com/22105147",
      "region": "광주광역시"
    },
    {
      "lat": 35.1421306296292,
      "lng": 126.85762767355,
      "title": "스타벅스 광주금호DT점",
      "description": "광주 서구 운천로109번길 1",
      "url": "http://place.map.kakao.com/26805914",
      "region": "광주광역시"
    },
    {
      "lat": 35.15229152354491,
      "lng": 126.87996979831757,
      "title": "스타벅스 광주화정DT",
      "description": "광주 서구 상무대로 1080",
      "url": "http://place.map.kakao.com/351348253",
      "region": "광주광역시"
    },
    {
      "lat": 35.2147335869172,
      "lng": 126.84346025606,
      "title": "스타벅스 광주첨단점",
      "description": "광주 광산구 첨단중앙로 104",
      "url": "http://place.map.kakao.com/23447733",
      "region": "광주광역시"
    },
    {
      "lat": 35.14693315972821,
      "lng": 126.77746444048309,
      "title": "스타벅스 광주선운DT점",
      "description": "광주 광산구 선운로20번길 63",
      "url": "http://place.map.kakao.com/1430963438",
      "region": "광주광역시"
    },
    {
      "lat": 35.1621145536854,
      "lng": 126.937388432159,
      "title": "스타벅스 광주두암타운점",
      "description": "광주 북구 삼정로 4",
      "url": "http://place.map.kakao.com/1969566620",
      "region": "광주광역시"
    },
    {
      "lat": 35.1268637442845,
      "lng": 126.879609957472,
      "title": "스타벅스 광주풍암점",
      "description": "광주 서구 풍암2로 8",
      "url": "http://place.map.kakao.com/27344388",
      "region": "광주광역시"
    },
    {
      "lat": 35.2031153858736,
      "lng": 126.819037709611,
      "title": "스타벅스 광주수완DT점",
      "description": "광주 광산구 임방울대로 487",
      "url": "http://place.map.kakao.com/1287576463",
      "region": "광주광역시"
    },
    {
      "lat": 35.1475307731199,
      "lng": 126.848053293426,
      "title": "스타벅스 상무역점",
      "description": "광주 서구 상무중앙로 7",
      "url": "http://place.map.kakao.com/13131439",
      "region": "광주광역시"
    },
    {
      "lat": 35.14804960148177,
      "lng": 126.91759311195155,
      "title": "스타벅스 충장서림점",
      "description": "광주 동구 충장로 93-5",
      "url": "http://place.map.kakao.com/11116046",
      "region": "광주광역시"
    },
    {
      "lat": 35.1715787433313,
      "lng": 126.866156196551,
      "title": "스타벅스 광주동림점",
      "description": "광주 서구 하남대로 672-1",
      "url": "http://place.map.kakao.com/21906911",
      "region": "광주광역시"
    },
    {
      "lat": 35.1510181870624,
      "lng": 126.848815026343,
      "title": "스타벅스 광주상무중앙로점",
      "description": "광주 서구 상무중앙로 46",
      "url": "http://place.map.kakao.com/1543790925",
      "region": "광주광역시"
    },
    {
      "lat": 35.147375974738,
      "lng": 126.914543010588,
      "title": "스타벅스 광주황금점",
      "description": "광주 동구 중앙로160번길 14",
      "url": "http://place.map.kakao.com/26572122",
      "region": "광주광역시"
    },
    {
      "lat": 35.12571748694269,
      "lng": 126.8975625929088,
      "title": "스타벅스 광주진월점",
      "description": "광주 남구 서문대로 745",
      "url": "http://place.map.kakao.com/18691083",
      "region": "광주광역시"
    },
    {
      "lat": 35.15504854401157,
      "lng": 126.85427314664649,
      "title": "스타벅스 광주상무시민로점",
      "description": "광주 서구 운천로 253",
      "url": "http://place.map.kakao.com/27609897",
      "region": "광주광역시"
    },
    {
      "lat": 35.1898393517075,
      "lng": 126.898696537775,
      "title": "스타벅스 광주매곡DT점",
      "description": "광주 북구 설죽로 339",
      "url": "http://place.map.kakao.com/1346702204",
      "region": "광주광역시"
    },
    {
      "lat": 35.1252755688313,
      "lng": 126.869198564249,
      "title": "스타벅스 광주풍암호수공원점",
      "description": "광주 서구 회재로 970",
      "url": "http://place.map.kakao.com/430905277",
      "region": "광주광역시"
    },
    {
      "lat": 35.15200979004446,
      "lng": 126.85330182149298,
      "title": "스타벅스 상무치평점",
      "description": "광주 서구 상무자유로 173",
      "url": "http://place.map.kakao.com/13046313",
      "region": "광주광역시"
    },
    {
      "lat": 35.0999430585781,
      "lng": 126.87123625123802,
      "title": "스타벅스 광주효천DT점",
      "description": "광주 남구 임암길 232",
      "url": "http://place.map.kakao.com/693953948",
      "region": "광주광역시"
    },
    {
      "lat": 35.1751286482593,
      "lng": 126.818032712426,
      "title": "스타벅스 광주운남DT점",
      "description": "광주 광산구 임방울대로 156",
      "url": "http://place.map.kakao.com/465647758",
      "region": "광주광역시"
    },
    {
      "lat": 35.12290544947471,
      "lng": 126.91408696036659,
      "title": "스타벅스 광주봉선점",
      "description": "광주 남구 봉선로 176",
      "url": "http://place.map.kakao.com/12708956",
      "region": "광주광역시"
    },
    {
      "lat": 35.1735783651692,
      "lng": 126.804191301049,
      "title": "스타벅스 광주산정DT점",
      "description": "광주 광산구 용아로 342",
      "url": "http://place.map.kakao.com/425114176",
      "region": "광주광역시"
    },
    {
      "lat": 35.11849006405272,
      "lng": 126.93334641388718,
      "title": "스타벅스 광주지원DT점",
      "description": "광주 동구 남문로 529",
      "url": "http://place.map.kakao.com/599848259",
      "region": "광주광역시"
    },
    {
      "lat": 36.3279580611042,
      "lng": 127.42653709567,
      "title": "스타벅스 대전중앙로R점",
      "description": "대전 중구 대종로 486",
      "url": "http://place.map.kakao.com/23876960",
      "region": "대전광역시"
    },
    {
      "lat": 36.32908858505014,
      "lng": 127.42767258011575,
      "title": "스타벅스 은행동점",
      "description": "대전 중구 중앙로 164",
      "url": "http://place.map.kakao.com/8439658",
      "region": "대전광역시"
    },
    {
      "lat": 36.36065865870943,
      "lng": 127.34452340417732,
      "title": "스타벅스 충남대정문점",
      "description": "대전 유성구 대학로 82",
      "url": "http://place.map.kakao.com/24765608",
      "region": "대전광역시"
    },
    {
      "lat": 36.2987075311215,
      "lng": 127.338057467418,
      "title": "스타벅스 대전관저점",
      "description": "대전 서구 관저로 142",
      "url": "http://place.map.kakao.com/26338547",
      "region": "대전광역시"
    },
    {
      "lat": 36.3676810939744,
      "lng": 127.382004287217,
      "title": "스타벅스 대전만년점",
      "description": "대전 서구 만년로 81",
      "url": "http://place.map.kakao.com/26338273",
      "region": "대전광역시"
    },
    {
      "lat": 36.31712138287407,
      "lng": 127.4534729553054,
      "title": "스타벅스 대전판암DT점",
      "description": "대전 동구 옥천로 118",
      "url": "http://place.map.kakao.com/906355272",
      "region": "대전광역시"
    },
    {
      "lat": 36.3545696895102,
      "lng": 127.339390665957,
      "title": "스타벅스 대전유성점",
      "description": "대전 유성구 온천서로 2",
      "url": "http://place.map.kakao.com/26805901",
      "region": "대전광역시"
    },
    {
      "lat": 36.3734913697598,
      "lng": 127.319556881743,
      "title": "스타벅스 대전노은점",
      "description": "대전 유성구 은구비남로33번길 26",
      "url": "http://place.map.kakao.com/22547066",
      "region": "대전광역시"
    },
    {
      "lat": 36.3584905080083,
      "lng": 127.423312164428,
      "title": "스타벅스 대전한남대DT점",
      "description": "대전 대덕구 한밭대로 1122",
      "url": "http://place.map.kakao.com/1714770622",
      "region": "대전광역시"
    },
    {
      "lat": 36.35139799040111,
      "lng": 127.34018681405291,
      "title": "스타벅스 대전도안DT점",
      "description": "대전 유성구 도안대로 573",
      "url": "http://place.map.kakao.com/1381547143",
      "region": "대전광역시"
    },
    {
      "lat": 36.3916461192287,
      "lng": 127.314219660529,
      "title": "스타벅스 대전반석역점",
      "description": "대전 유성구 북유성대로 303",
      "url": "http://place.map.kakao.com/2117775952",
      "region": "대전광역시"
    },
    {
      "lat": 36.328996815637,
      "lng": 127.467115871585,
      "title": "스타벅스 대전용운점",
      "description": "대전 동구 동부로 178",
      "url": "http://place.map.kakao.com/686535767",
      "region": "대전광역시"
    },
    {
      "lat": 36.35422594938755,
      "lng": 127.44422278655935,
      "title": "스타벅스 대전IC DT점",
      "description": "대전 대덕구 동서대로 1776",
      "url": "http://place.map.kakao.com/27299361",
      "region": "대전광역시"
    },
    {
      "lat": 36.3319017605273,
      "lng": 127.338655241036,
      "title": "스타벅스 대전목원대점",
      "description": "대전 서구 동서대로 682",
      "url": "http://place.map.kakao.com/25811454",
      "region": "대전광역시"
    },
    {
      "lat": 36.3183878790583,
      "lng": 127.398231229567,
      "title": "스타벅스 대전유천DT점",
      "description": "대전 중구 계백로 1604",
      "url": "http://place.map.kakao.com/27398421",
      "region": "대전광역시"
    },
    {
      "lat": 36.44874978917227,
      "lng": 127.41989799541452,
      "title": "스타벅스 대전신탄진DT점",
      "description": "대전 대덕구 대덕대로 1544",
      "url": "http://place.map.kakao.com/577886870",
      "region": "대전광역시"
    },
    {
      "lat": 36.3434144856857,
      "lng": 127.385307744616,
      "title": "스타벅스 대전탄방역점",
      "description": "대전 서구 문정로2번길 95",
      "url": "http://place.map.kakao.com/206163108",
      "region": "대전광역시"
    },
    {
      "lat": 36.3350320592442,
      "lng": 127.396778864973,
      "title": "스타벅스 대전수침교DT점",
      "description": "대전 서구 계룡로 692",
      "url": "http://place.map.kakao.com/26849462",
      "region": "대전광역시"
    },
    {
      "lat": 36.35429018350784,
      "lng": 127.37730088711076,
      "title": "스타벅스 대전둔산로점",
      "description": "대전 서구 대덕대로241번길 35",
      "url": "http://place.map.kakao.com/1764006890",
      "region": "대전광역시"
    },
    {
      "lat": 36.4254799479314,
      "lng": 127.392639890764,
      "title": "스타벅스 대전관평동점",
      "description": "대전 유성구 테크노중앙로 68",
      "url": "http://place.map.kakao.com/26459234",
      "region": "대전광역시"
    },
    {
      "lat": 36.3502094343138,
      "lng": 127.377373660733,
      "title": "스타벅스 대전둔산점",
      "description": "대전 서구 대덕대로 189",
      "url": "http://place.map.kakao.com/25540419",
      "region": "대전광역시"
    },
    {
      "lat": 36.34648624692249,
      "lng": 127.38792179279842,
      "title": "스타벅스 대전탄방점",
      "description": "대전 서구 문정로 78",
      "url": "http://place.map.kakao.com/8403568",
      "region": "대전광역시"
    },
    {
      "lat": 36.37646718708818,
      "lng": 127.39074407950682,
      "title": "스타벅스 대전조이마루점",
      "description": "대전 유성구 엑스포로97번길 40",
      "url": "http://place.map.kakao.com/26459274",
      "region": "대전광역시"
    },
    {
      "lat": 36.31880902436787,
      "lng": 127.41742712002977,
      "title": "스타벅스 대전대사DT점",
      "description": "대전 중구 계룡로 949",
      "url": "http://place.map.kakao.com/680116435",
      "region": "대전광역시"
    },
    {
      "lat": 36.2983456440489,
      "lng": 127.378241431719,
      "title": "스타벅스 대전복수점",
      "description": "대전 서구 복수남로 28",
      "url": "http://place.map.kakao.com/1160565528",
      "region": "대전광역시"
    },
    {
      "lat": 36.3533960345409,
      "lng": 127.387495958941,
      "title": "스타벅스 대전법원점",
      "description": "대전 서구 둔산로123번길 43",
      "url": "http://place.map.kakao.com/1088012777",
      "region": "대전광역시"
    },
    {
      "lat": 36.303718416027685,
      "lng": 127.34893002300315,
      "title": "스타벅스 대전가수원DT",
      "description": "대전 서구 계백로 1128",
      "url": "http://place.map.kakao.com/894465195",
      "region": "대전광역시"
    },
    {
      "lat": 36.34876043593586,
      "lng": 127.38859256917667,
      "title": "스타벅스 대전둔산남로점",
      "description": "대전 서구 둔산남로 100",
      "url": "http://place.map.kakao.com/2116156043",
      "region": "대전광역시"
    },
    {
      "lat": 36.3350843925368,
      "lng": 127.389637335472,
      "title": "스타벅스 대전용문DT점",
      "description": "대전 서구 도산로 336",
      "url": "http://place.map.kakao.com/1589686451",
      "region": "대전광역시"
    },
    {
      "lat": 36.30748033576095,
      "lng": 127.34098912615595,
      "title": "스타벅스 대전건양대병원점",
      "description": "대전 서구 관저동로 170",
      "url": "http://place.map.kakao.com/1187877260",
      "region": "대전광역시"
    },
    {
      "lat": 36.35110063435157,
      "lng": 127.38946981216469,
      "title": "스타벅스 대전시청역점",
      "description": "대전 서구 둔산로 142",
      "url": "http://place.map.kakao.com/7968244",
      "region": "대전광역시"
    },
    {
      "lat": 36.3070091737472,
      "lng": 127.45633822496,
      "title": "스타벅스 대전가오점",
      "description": "대전 동구 동구청로 101",
      "url": "http://place.map.kakao.com/17884728",
      "region": "대전광역시"
    },
    {
      "lat": 36.3622050862821,
      "lng": 127.357705694814,
      "title": "스타벅스 대전유성구청점",
      "description": "대전 유성구 어은로 42",
      "url": "http://place.map.kakao.com/2020333116",
      "region": "대전광역시"
    },
    {
      "lat": 36.3230697388999,
      "lng": 127.411203405462,
      "title": "스타벅스 서대전네거리점",
      "description": "대전 중구 계룡로 878",
      "url": "http://place.map.kakao.com/1683478756",
      "region": "대전광역시"
    },
    {
      "lat": 36.347823768883664,
      "lng": 127.43423842722335,
      "title": "스타벅스 대전터미널DT점",
      "description": "대전 동구 동서대로 1658",
      "url": "http://place.map.kakao.com/175523988",
      "region": "대전광역시"
    },
    {
      "lat": 36.3485242249739,
      "lng": 127.383603978281,
      "title": "스타벅스 대전시청사거리점",
      "description": "대전 서구 둔산남로 50",
      "url": "http://place.map.kakao.com/24976506",
      "region": "대전광역시"
    },
    {
      "lat": 36.323061215044056,
      "lng": 127.39338614544788,
      "title": "스타벅스 대전태평점",
      "description": "대전 중구 태평로 71",
      "url": "http://place.map.kakao.com/2144946805",
      "region": "대전광역시"
    },
    {
      "lat": 36.3571958629923,
      "lng": 127.435504882862,
      "title": "스타벅스 대전용전DT점",
      "description": "대전 동구 한밭대로 1239",
      "url": "http://place.map.kakao.com/1086853221",
      "region": "대전광역시"
    },
    {
      "lat": 36.35154392237487,
      "lng": 127.37051085523535,
      "title": "스타벅스 대전갈마DT점",
      "description": "대전 서구 계룡로 384",
      "url": "http://place.map.kakao.com/2015501089",
      "region": "대전광역시"
    },
    {
      "lat": 36.4546679435083,
      "lng": 127.428952247489,
      "title": "스타벅스 신탄진금강DT점",
      "description": "대전 대덕구 신탄진로 866",
      "url": "http://place.map.kakao.com/165630198",
      "region": "대전광역시"
    },
    {
      "lat": 36.38717362911039,
      "lng": 127.31761891118379,
      "title": "스타벅스 대전지족점",
      "description": "대전 유성구 지족로 373",
      "url": "http://place.map.kakao.com/27291736",
      "region": "대전광역시"
    },
    {
      "lat": 36.36626776807746,
      "lng": 127.43802128946983,
      "title": "스타벅스 대전송촌점",
      "description": "대전 대덕구 송촌북로36번길 36",
      "url": "http://place.map.kakao.com/22105107",
      "region": "대전광역시"
    },
    {
      "lat": 36.31900754006773,
      "lng": 127.45109301244364,
      "title": "스타벅스 대전신흥역DT점",
      "description": "대전 동구 옥천로 89",
      "url": "http://place.map.kakao.com/874335816",
      "region": "대전광역시"
    },
    {
      "lat": 36.374875271937576,
      "lng": 127.38337226549872,
      "title": "스타벅스 대전엑스포스카이점",
      "description": "대전 유성구 엑스포로 1",
      "url": "http://place.map.kakao.com/717739045",
      "region": "대전광역시"
    },
    {
      "lat": 36.3924524082738,
      "lng": 127.405530558035,
      "title": "스타벅스 대전문지점",
      "description": "대전 유성구 문지로299번길 56",
      "url": "http://place.map.kakao.com/1728512738",
      "region": "대전광역시"
    },
    {
      "lat": 35.5778279183119,
      "lng": 129.324415372687,
      "title": "스타벅스 울산성안점",
      "description": "울산 중구 성안1길 133",
      "url": "http://place.map.kakao.com/2146368184",
      "region": "울산광역시"
    },
    {
      "lat": 35.5384745278218,
      "lng": 129.337398482387,
      "title": "스타벅스 울산삼산로점",
      "description": "울산 남구 삼산로278번길 8",
      "url": "http://place.map.kakao.com/26506097",
      "region": "울산광역시"
    },
    {
      "lat": 35.62745128967098,
      "lng": 129.44125783139975,
      "title": "스타벅스 울산정자비치DT점",
      "description": "울산 북구 동해안로 1601",
      "url": "http://place.map.kakao.com/2072276840",
      "region": "울산광역시"
    },
    {
      "lat": 35.537204770722,
      "lng": 129.313541174193,
      "title": "스타벅스 울산시청사거리DT점",
      "description": "울산 남구 중앙로 180",
      "url": "http://place.map.kakao.com/1399765274",
      "region": "울산광역시"
    },
    {
      "lat": 35.544140691241346,
      "lng": 129.32471021855775,
      "title": "스타벅스 울산남구청DT점",
      "description": "울산 남구 번영로 215",
      "url": "http://place.map.kakao.com/27337245",
      "region": "울산광역시"
    },
    {
      "lat": 35.561575914181,
      "lng": 129.33227793516,
      "title": "스타벅스 울산MBC DT점",
      "description": "울산 중구 번영로 434",
      "url": "http://place.map.kakao.com/664205340",
      "region": "울산광역시"
    },
    {
      "lat": 35.5480761731833,
      "lng": 129.262801160759,
      "title": "스타벅스 울산신복점",
      "description": "울산 남구 대학로 152",
      "url": "http://place.map.kakao.com/24165910",
      "region": "울산광역시"
    },
    {
      "lat": 35.637897542811125,
      "lng": 129.3450399728536,
      "title": "스타벅스 울산호계DT점",
      "description": "울산 북구 산업로 1464",
      "url": "http://place.map.kakao.com/691760425",
      "region": "울산광역시"
    },
    {
      "lat": 35.550131469998,
      "lng": 129.297334382679,
      "title": "스타벅스 울산국가정원점",
      "description": "울산 중구 태화강국가정원길 205",
      "url": "http://place.map.kakao.com/244828917",
      "region": "울산광역시"
    },
    {
      "lat": 35.53090080723496,
      "lng": 129.3301548124856,
      "title": "스타벅스 울산도산사거리DT점",
      "description": "울산 남구 번영로 59",
      "url": "http://place.map.kakao.com/2111664474",
      "region": "울산광역시"
    },
    {
      "lat": 35.3582121706396,
      "lng": 129.355621296438,
      "title": "스타벅스 울산간절곶DT점",
      "description": "울산 울주군 서생면 해맞이로 1216",
      "url": "http://place.map.kakao.com/1439056695",
      "region": "울산광역시"
    },
    {
      "lat": 35.515798396905964,
      "lng": 129.31009962369063,
      "title": "스타벅스 울산선암DT점",
      "description": "울산 남구 두왕로 140",
      "url": "http://place.map.kakao.com/1295762324",
      "region": "울산광역시"
    },
    {
      "lat": 35.58334438437837,
      "lng": 129.359077316856,
      "title": "스타벅스 울산북구청DT점",
      "description": "울산 북구 산업로 1011",
      "url": "http://place.map.kakao.com/1868252532",
      "region": "울산광역시"
    },
    {
      "lat": 35.54794511807604,
      "lng": 129.14180605107586,
      "title": "스타벅스 울산 KTX점",
      "description": "울산 울주군 삼남읍 도호1길 16",
      "url": "http://place.map.kakao.com/1441926847",
      "region": "울산광역시"
    },
    {
      "lat": 35.498871088713464,
      "lng": 129.43100694242872,
      "title": "스타벅스 울산일산비치DT점",
      "description": "울산 동구 일산진11길 95",
      "url": "http://place.map.kakao.com/491317049",
      "region": "울산광역시"
    },
    {
      "lat": 35.5439219793774,
      "lng": 129.338623827594,
      "title": "스타벅스 울산중리사거리DT점",
      "description": "울산 남구 돋질로 310",
      "url": "http://place.map.kakao.com/27337247",
      "region": "울산광역시"
    },
    {
      "lat": 35.57298989174581,
      "lng": 129.3373766461331,
      "title": "스타벅스 울산약사DT점",
      "description": "울산 중구 북부순환도로 754",
      "url": "http://place.map.kakao.com/1030532377",
      "region": "울산광역시"
    },
    {
      "lat": 35.60254119591752,
      "lng": 129.36527867344407,
      "title": "스타벅스 울산송정점",
      "description": "울산 북구 화산로 119",
      "url": "http://place.map.kakao.com/1589829892",
      "region": "울산광역시"
    },
    {
      "lat": 35.5405061650231,
      "lng": 129.338758328256,
      "title": "스타벅스 울산디자인거리점",
      "description": "울산 남구 삼산중로74번길 30-1",
      "url": "http://place.map.kakao.com/23619796",
      "region": "울산광역시"
    },
    {
      "lat": 35.53220167815923,
      "lng": 129.29375839270423,
      "title": "스타벅스 울산대공원점",
      "description": "울산 남구 대공원입구로 4",
      "url": "http://place.map.kakao.com/55114928",
      "region": "울산광역시"
    },
    {
      "lat": 35.5424666490665,
      "lng": 129.260178357989,
      "title": "스타벅스 울산대점",
      "description": "울산 남구 대학로84번길 5-3",
      "url": "http://place.map.kakao.com/26410051",
      "region": "울산광역시"
    },
    {
      "lat": 35.5353757979324,
      "lng": 129.329298770084,
      "title": "스타벅스 울산번영로DT점",
      "description": "울산 남구 달삼로 3",
      "url": "http://place.map.kakao.com/1556078205",
      "region": "울산광역시"
    },
    {
      "lat": 35.56544419291818,
      "lng": 129.45496628915004,
      "title": "스타벅스 울산주전비치점",
      "description": "울산 동구 동해안로 667",
      "url": "http://place.map.kakao.com/1670109593",
      "region": "울산광역시"
    },
    {
      "lat": 35.5336344404978,
      "lng": 129.301224616152,
      "title": "스타벅스 울산신정DT점",
      "description": "울산 남구 문수로 435",
      "url": "http://place.map.kakao.com/1635776661",
      "region": "울산광역시"
    },
    {
      "lat": 35.53693070755851,
      "lng": 129.3272161398131,
      "title": "스타벅스 울산번영로점",
      "description": "울산 남구 삼산로 182",
      "url": "http://place.map.kakao.com/528575665",
      "region": "울산광역시"
    },
    {
      "lat": 35.5620820391255,
      "lng": 129.357020153313,
      "title": "스타벅스 울산진장점",
      "description": "울산 북구 진장17길 10",
      "url": "http://place.map.kakao.com/504967054",
      "region": "울산광역시"
    },
    {
      "lat": 35.5397941092327,
      "lng": 129.423332297847,
      "title": "스타벅스 울산남목DT점",
      "description": "울산 동구 방어진순환도로 1146",
      "url": "http://place.map.kakao.com/221349014",
      "region": "울산광역시"
    },
    {
      "lat": 35.53449076750458,
      "lng": 129.31720019438643,
      "title": "스타벅스 울산삼성점",
      "description": "울산 남구 삼산로 86",
      "url": "http://place.map.kakao.com/1238831961",
      "region": "울산광역시"
    },
    {
      "lat": 35.568576558508646,
      "lng": 129.34521183187127,
      "title": "스타벅스 울산병영점",
      "description": "울산 중구 번영로 580",
      "url": "http://place.map.kakao.com/92711485",
      "region": "울산광역시"
    },
    {
      "lat": 35.57653868469539,
      "lng": 129.35613466763562,
      "title": "스타벅스 북울산삼성점",
      "description": "울산 북구 진장유통로 65",
      "url": "http://place.map.kakao.com/1410045882",
      "region": "울산광역시"
    },
    {
      "lat": 35.52061652467036,
      "lng": 129.42892073623005,
      "title": "스타벅스 울산대학교병원점",
      "description": "울산 동구 대학병원로 30",
      "url": "http://place.map.kakao.com/465002612",
      "region": "울산광역시"
    },
    {
      "lat": 35.52132763403144,
      "lng": 129.4312357377857,
      "title": "스타벅스 현대동구점",
      "description": "울산 동구 방어진순환도로 899",
      "url": "http://place.map.kakao.com/11130095",
      "region": "울산광역시"
    },
    {
      "lat": 35.539481566639196,
      "lng": 129.33555690984306,
      "title": "스타벅스 현대울산B1점",
      "description": "울산 남구 삼산로 261",
      "url": "http://place.map.kakao.com/357880070",
      "region": "울산광역시"
    },
    {
      "lat": 35.5479582752205,
      "lng": 129.141927685237,
      "title": "카카오T 스타벅스 울산KTX역점 주차장",
      "description": "울산 울주군 삼남읍 도호1길 16",
      "url": "http://place.map.kakao.com/1823775937",
      "region": "울산광역시"
    },
    {
      "lat": 35.5336171517489,
      "lng": 129.301091840486,
      "title": "스타벅스 울산신정DT점 주차장",
      "description": "울산 남구 신정동 1636-12",
      "url": "http://place.map.kakao.com/1069208954",
      "region": "울산광역시"
    },
    {
      "lat": 35.5309102291169,
      "lng": 129.329900453071,
      "title": "스타벅스 울산도산사거리DT점 주차장",
      "description": "울산 남구 야음동 580-10",
      "url": "http://place.map.kakao.com/298357505",
      "region": "울산광역시"
    },
    {
      "lat": 35.5614058453665,
      "lng": 129.332126343326,
      "title": "스타벅스 울산MBC DT점 주차장",
      "description": "울산 중구 복산동 40-6",
      "url": "http://place.map.kakao.com/1663225749",
      "region": "울산광역시"
    },
    {
      "lat": 35.573003478098,
      "lng": 129.337233666777,
      "title": "스타벅스 울산약사DT점 주차장",
      "description": "울산 중구 약사동 537",
      "url": "http://place.map.kakao.com/1112464820",
      "region": "울산광역시"
    },
    {
      "lat": 35.5442299448369,
      "lng": 129.324660978915,
      "title": "스타벅스 울산남구청DT점 주차장",
      "description": "울산 남구 신정동 133-1",
      "url": "http://place.map.kakao.com/1008990537",
      "region": "울산광역시"
    },
    {
      "lat": 35.6273906212779,
      "lng": 129.441094860411,
      "title": "스타벅스 울산정자비치DT점 주차장",
      "description": "울산 북구 산하동 1020-17",
      "url": "http://place.map.kakao.com/1663834868",
      "region": "울산광역시"
    },
    {
      "lat": 35.6378185304812,
      "lng": 129.345071880195,
      "title": "스타벅스 울산호계DT점 주차장",
      "description": "울산 북구 산업로 1464",
      "url": "http://place.map.kakao.com/676876458",
      "region": "울산광역시"
    },
    {
      "lat": 35.5370488458413,
      "lng": 129.313543308962,
      "title": "스타벅스 울산시청사거리DT점 주차장",
      "description": "울산 남구 달동 875-12",
      "url": "http://place.map.kakao.com/1256624188",
      "region": "울산광역시"
    },
    {
      "lat": 35.532170281865,
      "lng": 129.293845684954,
      "title": "스타벅스 울산대공원점 주차장",
      "description": "울산 남구 대공원입구로 4",
      "url": "http://place.map.kakao.com/829720036",
      "region": "울산광역시"
    },
    {
      "lat": 35.5436905569593,
      "lng": 129.338569698752,
      "title": "스타벅스 울산중리사거리DT점 주차장",
      "description": "울산 남구 삼산동 1545-11",
      "url": "http://place.map.kakao.com/1846765393",
      "region": "울산광역시"
    },
    {
      "lat": 35.5779331202121,
      "lng": 129.324473561335,
      "title": "스타벅스 울산성안점 주차장",
      "description": "울산 중구 성안1길 133",
      "url": "http://place.map.kakao.com/1875448926",
      "region": "울산광역시"
    },
    {
      "lat": 36.508000214102,
      "lng": 127.26130256746704,
      "title": "스타벅스 세종어진R점",
      "description": "세종특별자치시 한누리대로 499",
      "url": "http://place.map.kakao.com/1521998908",
      "region": "세종특별자치시"
    },
    {
      "lat": 36.494856464305386,
      "lng": 127.25524259858528,
      "title": "스타벅스 세종다정DT점",
      "description": "세종특별자치시 다정북로 223",
      "url": "http://place.map.kakao.com/1852017171",
      "region": "세종특별자치시"
    },
    {
      "lat": 36.47605379830388,
      "lng": 127.27745299746023,
      "title": "스타벅스 세종금강DT점",
      "description": "세종특별자치시 시청대로 45",
      "url": "http://place.map.kakao.com/1396531847",
      "region": "세종특별자치시"
    },
    {
      "lat": 36.50405242416865,
      "lng": 127.24943597738236,
      "title": "스타벅스 세종종촌점",
      "description": "세종특별자치시 도움3로 105-10",
      "url": "http://place.map.kakao.com/26785116",
      "region": "세종특별자치시"
    },
    {
      "lat": 36.477330045883654,
      "lng": 127.28651827408981,
      "title": "스타벅스 세종보람점",
      "description": "세종특별자치시 한누리대로 2165",
      "url": "http://place.map.kakao.com/191376780",
      "region": "세종특별자치시"
    },
    {
      "lat": 36.4865174568776,
      "lng": 127.250851735913,
      "title": "스타벅스 세종새롬점",
      "description": "세종특별자치시 새롬중앙로 64",
      "url": "http://place.map.kakao.com/294995466",
      "region": "세종특별자치시"
    },
    {
      "lat": 36.4802475741872,
      "lng": 127.261588758369,
      "title": "스타벅스 세종첫마을",
      "description": "세종특별자치시 한누리대로 169",
      "url": "http://place.map.kakao.com/26410059",
      "region": "세종특별자치시"
    },
    {
      "lat": 36.504512694471,
      "lng": 127.270225259991,
      "title": "스타벅스 세종청사점",
      "description": "세종특별자치시 도움8로 81",
      "url": "http://place.map.kakao.com/23066704",
      "region": "세종특별자치시"
    },
    {
      "lat": 36.5116695532694,
      "lng": 127.24260493155,
      "title": "스타벅스 세종아름점",
      "description": "세종특별자치시 아름서1길 13-9",
      "url": "http://place.map.kakao.com/1583526937",
      "region": "세종특별자치시"
    },
    {
      "lat": 36.4865520141149,
      "lng": 127.269712009646,
      "title": "스타벅스 세종예술의전당점",
      "description": "세종특별자치시 나성동로 6",
      "url": "http://place.map.kakao.com/32252706",
      "region": "세종특별자치시"
    },
    {
      "lat": 36.48581182185729,
      "lng": 127.30040990611859,
      "title": "스타벅스 세종소담",
      "description": "세종특별자치시 소담3로 8",
      "url": "http://place.map.kakao.com/1761348384",
      "region": "세종특별자치시"
    },
    {
      "lat": 36.497856346635864,
      "lng": 127.31004747289425,
      "title": "스타벅스 세종반곡점",
      "description": "세종특별자치시 한누리대로 1844",
      "url": "http://place.map.kakao.com/817200452",
      "region": "세종특별자치시"
    },
    {
      "lat": 36.51867884400149,
      "lng": 127.25717412034938,
      "title": "스타벅스 세종충남대학교병원점",
      "description": "세종특별자치시 보듬7로 20",
      "url": "http://place.map.kakao.com/924668182",
      "region": "세종특별자치시"
    },
    {
      "lat": 36.4704616252714,
      "lng": 127.251223978415,
      "title": "스타벅스 세종이마트",
      "description": "세종특별자치시 금송로 687",
      "url": "http://place.map.kakao.com/26489279",
      "region": "세종특별자치시"
    },
    {
      "lat": 36.5546789478088,
      "lng": 127.369028772694,
      "title": "스타벅스 캡슐커피 전문점 동세종주유소점",
      "description": "세종특별자치시 부강면 세종청주로 205",
      "url": "http://place.map.kakao.com/487126493",
      "region": "세종특별자치시"
    },
    {
      "lat": 37.56710976353759,
      "lng": 127.22839664513332,
      "title": "스타벅스 리버사이드팔당DT점",
      "description": "경기 남양주시 와부읍 경강로 772",
      "url": "http://place.map.kakao.com/2131363102",
      "region": "경기도"
    },
    {
      "lat": 37.497025597482455,
      "lng": 127.4816959605717,
      "title": "스타벅스 더양평DT",
      "description": "경기 양평군 양평읍 양근로 76",
      "url": "http://place.map.kakao.com/1976943632",
      "region": "경기도"
    },
    {
      "lat": 37.612406390160096,
      "lng": 127.34200841732975,
      "title": "스타벅스 더북한강R점",
      "description": "경기 남양주시 화도읍 북한강로 1098",
      "url": "http://place.map.kakao.com/1458330965",
      "region": "경기도"
    },
    {
      "lat": 37.35954173669862,
      "lng": 127.05534998306041,
      "title": "스타벅스 용인고기동유원지점",
      "description": "경기 용인시 수지구 고기로 487",
      "url": "http://place.map.kakao.com/840708054",
      "region": "경기도"
    },
    {
      "lat": 37.267327455387054,
      "lng": 127.0026606813271,
      "title": "스타벅스 수원매산점",
      "description": "경기 수원시 팔달구 매산로 11",
      "url": "http://place.map.kakao.com/11316780",
      "region": "경기도"
    },
    {
      "lat": 37.26541537517898,
      "lng": 127.03301979827165,
      "title": "스타벅스 수원인계점",
      "description": "경기 수원시 팔달구 권광로 199",
      "url": "http://place.map.kakao.com/18691196",
      "region": "경기도"
    },
    {
      "lat": 37.7263806764519,
      "lng": 126.950080424776,
      "title": "스타벅스 가나아트파크점",
      "description": "경기 양주시 장흥면 권율로 117",
      "url": "http://place.map.kakao.com/1331975973",
      "region": "경기도"
    },
    {
      "lat": 37.69820665828904,
      "lng": 127.38521577147985,
      "title": "스타벅스 리버사이드대성리DT점",
      "description": "경기 가평군 청평면 경춘로 258",
      "url": "http://place.map.kakao.com/1093569178",
      "region": "경기도"
    },
    {
      "lat": 37.28693673022635,
      "lng": 127.0603995998129,
      "title": "스타벅스 광교SK뷰레이크41F점",
      "description": "경기 수원시 영통구 법조로 25",
      "url": "http://place.map.kakao.com/722895269",
      "region": "경기도"
    },
    {
      "lat": 37.41076525847893,
      "lng": 127.12974499242067,
      "title": "스타벅스 야탑글라스점",
      "description": "경기 성남시 분당구 성남대로916번길 11",
      "url": "http://place.map.kakao.com/14577391",
      "region": "경기도"
    },
    {
      "lat": 37.2463736847256,
      "lng": 126.96408736897169,
      "title": "스타벅스 수원권선DT점",
      "description": "경기 수원시 권선구 매송고색로 543",
      "url": "http://place.map.kakao.com/663519557",
      "region": "경기도"
    },
    {
      "lat": 37.3826469823282,
      "lng": 126.84067959947019,
      "title": "스타벅스 물왕호수점",
      "description": "경기 시흥시 동서로857번길 6",
      "url": "http://place.map.kakao.com/81350071",
      "region": "경기도"
    },
    {
      "lat": 37.192495349931086,
      "lng": 126.97848666273516,
      "title": "스타벅스 화성보통저수지점",
      "description": "경기 화성시 정남면 세자로 293",
      "url": "http://place.map.kakao.com/1808491861",
      "region": "경기도"
    },
    {
      "lat": 37.66575068968048,
      "lng": 126.7571826263613,
      "title": "스타벅스 일산가로수길점",
      "description": "경기 고양시 일산서구 주엽로 80",
      "url": "http://place.map.kakao.com/31115819",
      "region": "경기도"
    },
    {
      "lat": 37.290239487654574,
      "lng": 127.04974501198542,
      "title": "스타벅스 수원광교점",
      "description": "경기 수원시 영통구 센트럴타운로 85",
      "url": "http://place.map.kakao.com/27122533",
      "region": "경기도"
    },
    {
      "lat": 37.400276822429994,
      "lng": 126.97633350786107,
      "title": "스타벅스 인덕원역",
      "description": "경기 안양시 동안구 흥안대로 519",
      "url": "http://place.map.kakao.com/20046333",
      "region": "경기도"
    },
    {
      "lat": 37.4835439491209,
      "lng": 126.809291410123,
      "title": "스타벅스 역곡역DT점",
      "description": "경기 부천시 소사구 경인로 485",
      "url": "http://place.map.kakao.com/26548835",
      "region": "경기도"
    },
    {
      "lat": 37.36488875117059,
      "lng": 127.10630523417933,
      "title": "스타벅스 정자점",
      "description": "경기 성남시 분당구 정자일로 166",
      "url": "http://place.map.kakao.com/20046332",
      "region": "경기도"
    },
    {
      "lat": 37.61036573205678,
      "lng": 126.73752597494831,
      "title": "스타벅스 풍무역DT점",
      "description": "경기 김포시 김포대로 657",
      "url": "http://place.map.kakao.com/735274644",
      "region": "경기도"
    },
    {
      "lat": 37.300552298374264,
      "lng": 127.04409198610877,
      "title": "스타벅스 광교역점",
      "description": "경기 수원시 영통구 대학로 47",
      "url": "http://place.map.kakao.com/1145732557",
      "region": "경기도"
    },
    {
      "lat": 37.3914613795297,
      "lng": 126.955114027907,
      "title": "스타벅스 범계로데오점",
      "description": "경기 안양시 동안구 평촌대로 223",
      "url": "http://place.map.kakao.com/14581818",
      "region": "경기도"
    },
    {
      "lat": 37.36652590484457,
      "lng": 126.95612569591628,
      "title": "스타벅스 안양호계DT점",
      "description": "경기 안양시 동안구 엘에스로 27",
      "url": "http://place.map.kakao.com/1699463111",
      "region": "경기도"
    },
    {
      "lat": 37.49108295349186,
      "lng": 127.49983235426639,
      "title": "스타벅스 경기양평점",
      "description": "경기 양평군 양평읍 시민로 75",
      "url": "http://place.map.kakao.com/934797745",
      "region": "경기도"
    },
    {
      "lat": 37.01044295220048,
      "lng": 127.2620663950134,
      "title": "스타벅스 안성석정DT점",
      "description": "경기 안성시 중앙로 308",
      "url": "http://place.map.kakao.com/186140202",
      "region": "경기도"
    },
    {
      "lat": 37.416729753652454,
      "lng": 126.88205964780319,
      "title": "스타벅스 광명역점",
      "description": "경기 광명시 양지로 16",
      "url": "http://place.map.kakao.com/484869211",
      "region": "경기도"
    },
    {
      "lat": 37.2126584746483,
      "lng": 127.03821404783,
      "title": "스타벅스 화성병점DT점",
      "description": "경기 화성시 효행로 1015",
      "url": "http://place.map.kakao.com/568704719",
      "region": "경기도"
    },
    {
      "lat": 37.50371114853675,
      "lng": 126.77403364393327,
      "title": "스타벅스 부천신중동역점",
      "description": "경기 부천시 원미구 길주로 281",
      "url": "http://place.map.kakao.com/26849401",
      "region": "경기도"
    },
    {
      "lat": 37.142660155437696,
      "lng": 127.07686410853974,
      "title": "스타벅스 오산ICDT점",
      "description": "경기 오산시 원동로 74",
      "url": "http://place.map.kakao.com/26785162",
      "region": "경기도"
    },
    {
      "lat": 37.6005335711162,
      "lng": 127.141828295783,
      "title": "스타벅스 구리돌다리점",
      "description": "경기 구리시 검배로 5",
      "url": "http://place.map.kakao.com/19964146",
      "region": "경기도"
    },
    {
      "lat": 37.3446565562671,
      "lng": 126.737352172122,
      "title": "스타벅스 시화로데오점",
      "description": "경기 시흥시 중심상가2길 20-5",
      "url": "http://place.map.kakao.com/18691210",
      "region": "경기도"
    },
    {
      "lat": 37.3830222877067,
      "lng": 126.959825301786,
      "title": "스타벅스 평촌호계",
      "description": "경기 안양시 동안구 평촌대로 123",
      "url": "http://place.map.kakao.com/332069305",
      "region": "경기도"
    },
    {
      "lat": 37.3667877643888,
      "lng": 127.106693994818,
      "title": "스타벅스 정자역점",
      "description": "경기 성남시 분당구 성남대로343번길 12-2",
      "url": "http://place.map.kakao.com/7962127",
      "region": "경기도"
    },
    {
      "lat": 37.24584900946288,
      "lng": 127.05131628298685,
      "title": "스타벅스 수원망포DT점",
      "description": "경기 수원시 영통구 덕영대로 1467",
      "url": "http://place.map.kakao.com/27330903",
      "region": "경기도"
    },
    {
      "lat": 37.3004138135424,
      "lng": 127.648161527993,
      "title": "스타벅스 여주남한강DT점",
      "description": "경기 여주시 강변북로 11",
      "url": "http://place.map.kakao.com/472456474",
      "region": "경기도"
    },
    {
      "lat": 37.4882864315145,
      "lng": 126.752684685584,
      "title": "스타벅스 송내역점",
      "description": "경기 부천시 원미구 부일로 204",
      "url": "http://place.map.kakao.com/14723338",
      "region": "경기도"
    },
    {
      "lat": 37.71232432546302,
      "lng": 126.75959042099474,
      "title": "스타벅스 파주야당역점",
      "description": "경기 파주시 경의로 1066",
      "url": "http://place.map.kakao.com/937347854",
      "region": "경기도"
    },
    {
      "lat": 37.709574470933816,
      "lng": 126.90538880527374,
      "title": "스타벅스 고양DT점",
      "description": "경기 고양시 덕양구 호국로 1775",
      "url": "http://place.map.kakao.com/27323213",
      "region": "경기도"
    },
    {
      "lat": 37.2704436850161,
      "lng": 127.027550460867,
      "title": "스타벅스 수원경수인계DT점",
      "description": "경기 수원시 팔달구 경수대로 499",
      "url": "http://place.map.kakao.com/672798623",
      "region": "경기도"
    },
    {
      "lat": 37.394187858912524,
      "lng": 127.11066392696905,
      "title": "스타벅스 판교알파돔타워",
      "description": "경기 성남시 분당구 판교역로 152",
      "url": "http://place.map.kakao.com/382618195",
      "region": "경기도"
    },
    {
      "lat": 37.43923275878556,
      "lng": 126.9938461227314,
      "title": "스타벅스 과천DT점",
      "description": "경기 과천시 중앙로 277",
      "url": "http://place.map.kakao.com/1319610997",
      "region": "경기도"
    },
    {
      "lat": 37.44171104933993,
      "lng": 126.7876922704619,
      "title": "스타벅스 시흥대야DT점",
      "description": "경기 시흥시 뱀내장터로 27",
      "url": "http://place.map.kakao.com/579596381",
      "region": "경기도"
    },
    {
      "lat": 36.99183340533291,
      "lng": 127.08840366092839,
      "title": "스타벅스 평택로데오점",
      "description": "경기 평택시 중앙2로 13",
      "url": "http://place.map.kakao.com/27075985",
      "region": "경기도"
    },
    {
      "lat": 37.6479100818064,
      "lng": 127.123448246903,
      "title": "스타벅스 별내점",
      "description": "경기 남양주시 별내중앙로 64",
      "url": "http://place.map.kakao.com/26460119",
      "region": "경기도"
    },
    {
      "lat": 37.717591992701706,
      "lng": 126.97313090691685,
      "title": "스타벅스 양주송추DT점",
      "description": "경기 양주시 장흥면 호국로 528",
      "url": "http://place.map.kakao.com/1755565714",
      "region": "경기도"
    },
    {
      "lat": 37.24036639052467,
      "lng": 127.17103205661986,
      "title": "스타벅스 용인시청DT점",
      "description": "경기 용인시 처인구 중부대로 1130",
      "url": "http://place.map.kakao.com/935742945",
      "region": "경기도"
    },
    {
      "lat": 37.7947119397031,
      "lng": 128.91855490234,
      "title": "스타벅스 강릉강문해변점",
      "description": "강원특별자치도 강릉시 창해로350번길 3",
      "url": "http://place.map.kakao.com/397693663",
      "region": "강원특별자치도"
    },
    {
      "lat": 37.888407365554706,
      "lng": 127.77596748318851,
      "title": "스타벅스 춘천구봉산R",
      "description": "강원특별자치도 춘천시 동면 순환대로 1154-63",
      "url": "http://place.map.kakao.com/1875212769",
      "region": "강원특별자치도"
    },
    {
      "lat": 37.7713120905719,
      "lng": 128.948831520775,
      "title": "스타벅스 강릉안목해변점",
      "description": "강원특별자치도 강릉시 창해로14번길 40",
      "url": "http://place.map.kakao.com/20494147",
      "region": "강원특별자치도"
    },
    {
      "lat": 37.8634989031303,
      "lng": 127.691320212984,
      "title": "스타벅스 더춘천의암호R점",
      "description": "강원특별자치도 춘천시 스포츠타운길 231",
      "url": "http://place.map.kakao.com/733606309",
      "region": "강원특별자치도"
    },
    {
      "lat": 38.18987226708247,
      "lng": 128.5844993814245,
      "title": "스타벅스 속초DT점",
      "description": "강원특별자치도 속초시 동해대로 4114",
      "url": "http://place.map.kakao.com/27272499",
      "region": "강원특별자치도"
    },
    {
      "lat": 38.21338939419928,
      "lng": 128.5774475103845,
      "title": "스타벅스 영랑호리조트점",
      "description": "강원특별자치도 속초시 영랑호반길 170",
      "url": "http://place.map.kakao.com/1580716282",
      "region": "강원특별자치도"
    },
    {
      "lat": 37.88108565742326,
      "lng": 128.83168093431524,
      "title": "스타벅스 강릉주문진점",
      "description": "강원특별자치도 강릉시 주문진읍 학교담길 32-8",
      "url": "http://place.map.kakao.com/210308467",
      "region": "강원특별자치도"
    },
    {
      "lat": 37.3359920322768,
      "lng": 127.949844410428,
      "title": "스타벅스 원주명륜DT점",
      "description": "강원특별자치도 원주시 남원로 588",
      "url": "http://place.map.kakao.com/1407276573",
      "region": "강원특별자치도"
    },
    {
      "lat": 37.5201472553071,
      "lng": 129.114698900995,
      "title": "스타벅스 동해DT점",
      "description": "강원특별자치도 동해시 중앙로 219",
      "url": "http://place.map.kakao.com/1121074224",
      "region": "강원특별자치도"
    },
    {
      "lat": 37.3330194920237,
      "lng": 127.930245943604,
      "title": "스타벅스 원주무실점",
      "description": "강원특별자치도 원주시 능라동길 73",
      "url": "http://place.map.kakao.com/142735315",
      "region": "강원특별자치도"
    },
    {
      "lat": 37.8567032916807,
      "lng": 127.739346159747,
      "title": "스타벅스 춘천석사DT점",
      "description": "강원특별자치도 춘천시 후석로 13",
      "url": "http://place.map.kakao.com/733456178",
      "region": "강원특별자치도"
    },
    {
      "lat": 37.75497344417105,
      "lng": 128.8962347197954,
      "title": "스타벅스 강릉중앙점",
      "description": "강원특별자치도 강릉시 경강로 2097",
      "url": "http://place.map.kakao.com/26410055",
      "region": "강원특별자치도"
    },
    {
      "lat": 37.688610464751,
      "lng": 127.877689227953,
      "title": "스타벅스 홍천DT점",
      "description": "강원특별자치도 홍천군 홍천읍 홍천로 292",
      "url": "http://place.map.kakao.com/156155734",
      "region": "강원특별자치도"
    },
    {
      "lat": 38.2105437383883,
      "lng": 128.5290486148432,
      "title": "스타벅스 설악쏘라노점",
      "description": "강원특별자치도 속초시 미시령로2983번길 111",
      "url": "http://place.map.kakao.com/157322845",
      "region": "강원특별자치도"
    },
    {
      "lat": 37.879973179051554,
      "lng": 127.72753015009147,
      "title": "스타벅스 춘천명동점",
      "description": "강원특별자치도 춘천시 중앙로 55",
      "url": "http://place.map.kakao.com/10539083",
      "region": "강원특별자치도"
    },
    {
      "lat": 37.66806787601911,
      "lng": 128.7107516176972,
      "title": "스타벅스 평창DT점",
      "description": "강원특별자치도 평창군 대관령면 대관령마루길 8",
      "url": "http://place.map.kakao.com/505636093",
      "region": "강원특별자치도"
    },
    {
      "lat": 37.7643123098448,
      "lng": 128.877063255812,
      "title": "스타벅스 강릉교동광장점",
      "description": "강원특별자치도 강릉시 교동광장로 114",
      "url": "http://place.map.kakao.com/1431515003",
      "region": "강원특별자치도"
    },
    {
      "lat": 38.196668743810896,
      "lng": 128.57178330257523,
      "title": "스타벅스 속초교동DT점",
      "description": "강원특별자치도 속초시 청대로 339",
      "url": "http://place.map.kakao.com/1823133147",
      "region": "강원특별자치도"
    },
    {
      "lat": 37.87936516553207,
      "lng": 127.75061631483874,
      "title": "스타벅스 춘천후평DT점",
      "description": "강원특별자치도 춘천시 후석로 316",
      "url": "http://place.map.kakao.com/205788772",
      "region": "강원특별자치도"
    },
    {
      "lat": 37.34385531052891,
      "lng": 127.93111087907099,
      "title": "스타벅스 원주터미널점",
      "description": "강원특별자치도 원주시 서원대로 178",
      "url": "http://place.map.kakao.com/18691198",
      "region": "강원특별자치도"
    },
    {
      "lat": 37.32324030519721,
      "lng": 127.98096997248079,
      "title": "스타벅스 원주혁신도시점",
      "description": "강원특별자치도 원주시 혁신로 61",
      "url": "http://place.map.kakao.com/2073251041",
      "region": "강원특별자치도"
    },
    {
      "lat": 37.76994373057533,
      "lng": 128.89219461487673,
      "title": "스타벅스 강릉율곡DT점",
      "description": "강원특별자치도 강릉시 율곡로 2996",
      "url": "http://place.map.kakao.com/870968559",
      "region": "강원특별자치도"
    },
    {
      "lat": 37.31976596419169,
      "lng": 127.97169995857898,
      "title": "스타벅스 원주반곡DT점",
      "description": "강원특별자치도 원주시 동부순환로 37",
      "url": "http://place.map.kakao.com/2054859785",
      "region": "강원특별자치도"
    },
    {
      "lat": 38.2119525365114,
      "lng": 128.494435690919,
      "title": "스타벅스 소노델피노점",
      "description": "강원특별자치도 고성군 토성면 미시령옛길 1153",
      "url": "http://place.map.kakao.com/22728177",
      "region": "강원특별자치도"
    },
    {
      "lat": 37.52889980292631,
      "lng": 129.10441749655809,
      "title": "스타벅스 동해IC DT점",
      "description": "강원특별자치도 동해시 동해대로 5453",
      "url": "http://place.map.kakao.com/120307554",
      "region": "강원특별자치도"
    },
    {
      "lat": 37.3250057670841,
      "lng": 127.841718542678,
      "title": "스타벅스 원주문막IC DT점",
      "description": "강원특별자치도 원주시 문막읍 원문로 1464",
      "url": "http://place.map.kakao.com/402343820",
      "region": "강원특별자치도"
    },
    {
      "lat": 37.353061006749385,
      "lng": 127.92222924604707,
      "title": "스타벅스 원주봉화산DT점",
      "description": "강원특별자치도 원주시 서원대로 44",
      "url": "http://place.map.kakao.com/1283735746",
      "region": "강원특별자치도"
    },
    {
      "lat": 37.771901698826625,
      "lng": 128.92298578099556,
      "title": "스타벅스 강릉송정DT점",
      "description": "강원특별자치도 강릉시 경강로 2400",
      "url": "http://place.map.kakao.com/1280175321",
      "region": "강원특별자치도"
    },
    {
      "lat": 37.86756109420666,
      "lng": 127.72078589124455,
      "title": "스타벅스 춘천온의점",
      "description": "강원특별자치도 춘천시 방송길 104",
      "url": "http://place.map.kakao.com/651540984",
      "region": "강원특별자치도"
    },
    {
      "lat": 37.8730544654098,
      "lng": 127.752261649247,
      "title": "스타벅스 춘천후석로DT점",
      "description": "강원특별자치도 춘천시 후석로 245",
      "url": "http://place.map.kakao.com/2050444187",
      "region": "강원특별자치도"
    },
    {
      "lat": 37.746745764139,
      "lng": 128.872311685816,
      "title": "스타벅스 강릉IC DT점",
      "description": "강원특별자치도 강릉시 경강로 1853",
      "url": "http://place.map.kakao.com/849608172",
      "region": "강원특별자치도"
    },
    {
      "lat": 37.8727829184059,
      "lng": 127.745094098958,
      "title": "스타벅스 강원대점",
      "description": "강원특별자치도 춘천시 서부대성로 243-1",
      "url": "http://place.map.kakao.com/17884702",
      "region": "강원특별자치도"
    },
    {
      "lat": 37.85528949057631,
      "lng": 127.72621029094421,
      "title": "스타벅스 춘천퇴계DT점",
      "description": "강원특별자치도 춘천시 안마산로 95",
      "url": "http://place.map.kakao.com/328434928",
      "region": "강원특별자치도"
    },
    {
      "lat": 37.371483210569444,
      "lng": 127.87156042883976,
      "title": "스타벅스 원주기업도시DT점",
      "description": "강원특별자치도 원주시 지정면 기업도시로 224",
      "url": "http://place.map.kakao.com/228829286",
      "region": "강원특별자치도"
    },
    {
      "lat": 37.3285154306676,
      "lng": 127.953443133629,
      "title": "스타벅스 원주단구DT점",
      "description": "강원특별자치도 원주시 서원대로 443",
      "url": "http://place.map.kakao.com/1017042434",
      "region": "강원특별자치도"
    },
    {
      "lat": 37.340713693111425,
      "lng": 127.92384991980357,
      "title": "스타벅스 원주시청점",
      "description": "강원특별자치도 원주시 시청로 27-1",
      "url": "http://place.map.kakao.com/301732856",
      "region": "강원특별자치도"
    },
    {
      "lat": 37.863681642117115,
      "lng": 127.7187287053137,
      "title": "스타벅스 춘천이마트점",
      "description": "강원특별자치도 춘천시 경춘로 2353",
      "url": "http://place.map.kakao.com/17127120",
      "region": "강원특별자치도"
    },
    {
      "lat": 37.81840977532356,
      "lng": 128.85727910363303,
      "title": "스타벅스 강릉아산병원점",
      "description": "강원특별자치도 강릉시 사천면 방동길 38",
      "url": "http://place.map.kakao.com/1226189116",
      "region": "강원특별자치도"
    },
    {
      "lat": 37.645240258045305,
      "lng": 127.68214711280433,
      "title": "스타벅스 비발디파크점",
      "description": "강원특별자치도 홍천군 서면 한치골길 264",
      "url": "http://place.map.kakao.com/8403567",
      "region": "강원특별자치도"
    },
    {
      "lat": 37.4343865730197,
      "lng": 127.818951296873,
      "title": "스타벅스 오크밸리점",
      "description": "강원특별자치도 원주시 지정면 오크밸리1길 70",
      "url": "http://place.map.kakao.com/38428978",
      "region": "강원특별자치도"
    },
    {
      "lat": 38.1898791245015,
      "lng": 128.584591981548,
      "title": "스타벅스 속초DT점 주차장",
      "description": "강원특별자치도 속초시 조양동 1002-39",
      "url": "http://place.map.kakao.com/1835434137",
      "region": "강원특별자치도"
    },
    {
      "lat": 38.1966522696777,
      "lng": 128.572071743903,
      "title": "스타벅스 속초교동DT점 주차장",
      "description": "강원특별자치도 속초시 교동 883-1",
      "url": "http://place.map.kakao.com/1343043749",
      "region": "강원특별자치도"
    },
    {
      "lat": 37.8883289709796,
      "lng": 127.776242898843,
      "title": "스타벅스 춘천구봉산R 주차장",
      "description": "강원특별자치도 춘천시 동면 만천리 340-61",
      "url": "http://place.map.kakao.com/1655429607",
      "region": "강원특별자치도"
    },
    {
      "lat": 37.5201613765968,
      "lng": 129.114815792675,
      "title": "스타벅스 동해DT 주차장",
      "description": "강원특별자치도 동해시 천곡동 1020",
      "url": "http://place.map.kakao.com/2075313376",
      "region": "강원특별자치도"
    },
    {
      "lat": 37.7699437305753,
      "lng": 128.892194614877,
      "title": "스타벅스 강릉율곡DT점 주차장",
      "description": "강원특별자치도 강릉시 율곡로 2996",
      "url": "http://place.map.kakao.com/1343006983",
      "region": "강원특별자치도"
    },
    {
      "lat": 36.6662568480351,
      "lng": 127.492995995567,
      "title": "스타벅스 청주율량DT",
      "description": "충북 청주시 청원구 충청대로107번길 8",
      "url": "http://place.map.kakao.com/27178534",
      "region": "충청북도"
    },
    {
      "lat": 36.62987891915853,
      "lng": 127.33327857836332,
      "title": "스타벅스 청주오송점",
      "description": "충북 청주시 흥덕구 오송읍 오송생명로 222",
      "url": "http://place.map.kakao.com/386445189",
      "region": "충청북도"
    },
    {
      "lat": 37.14373211194953,
      "lng": 128.21318809757764,
      "title": "스타벅스 제천DT점",
      "description": "충북 제천시 의림대로 181",
      "url": "http://place.map.kakao.com/1537325586",
      "region": "충청북도"
    },
    {
      "lat": 36.95898649594888,
      "lng": 127.92369082276691,
      "title": "스타벅스 충주호암DT점",
      "description": "충북 충주시 중원대로 3245",
      "url": "http://place.map.kakao.com/78463332",
      "region": "충청북도"
    },
    {
      "lat": 36.607514476733044,
      "lng": 127.50389963870624,
      "title": "스타벅스 청주용암DT점",
      "description": "충북 청주시 상당구 1순환로 1243",
      "url": "http://place.map.kakao.com/411587510",
      "region": "충청북도"
    },
    {
      "lat": 36.788966467774685,
      "lng": 127.57890376756926,
      "title": "스타벅스 충북증평점",
      "description": "충북 증평군 증평읍 광장로 40",
      "url": "http://place.map.kakao.com/783408985",
      "region": "충청북도"
    },
    {
      "lat": 36.635889571644505,
      "lng": 127.48115268352274,
      "title": "스타벅스 청주사직DT점",
      "description": "충북 청주시 서원구 사직대로 302",
      "url": "http://place.map.kakao.com/890582670",
      "region": "충청북도"
    },
    {
      "lat": 36.6384463425302,
      "lng": 127.42213276763086,
      "title": "스타벅스 청주비하DT점",
      "description": "충북 청주시 흥덕구 2순환로 1078",
      "url": "http://place.map.kakao.com/420425854",
      "region": "충청북도"
    },
    {
      "lat": 36.634244839055256,
      "lng": 127.50514142928962,
      "title": "스타벅스 청주용담DT점",
      "description": "충북 청주시 상당구 산성로 129",
      "url": "http://place.map.kakao.com/244558049",
      "region": "충청북도"
    },
    {
      "lat": 36.64675459807617,
      "lng": 127.46454774605294,
      "title": "스타벅스 청주봉명DT점",
      "description": "충북 청주시 흥덕구 1순환로 514",
      "url": "http://place.map.kakao.com/279004379",
      "region": "충청북도"
    },
    {
      "lat": 36.7164977204124,
      "lng": 127.423262340101,
      "title": "스타벅스 오창과학단지점",
      "description": "충북 청주시 청원구 오창읍 과학산업2로 385",
      "url": "http://place.map.kakao.com/19964052",
      "region": "충청북도"
    },
    {
      "lat": 36.6175536201092,
      "lng": 127.446120011774,
      "title": "스타벅스 청주성화점",
      "description": "충북 청주시 서원구 복대로 5",
      "url": "http://place.map.kakao.com/27116919",
      "region": "충청북도"
    },
    {
      "lat": 36.6252560717559,
      "lng": 127.429560215473,
      "title": "스타벅스 청주강서점",
      "description": "충북 청주시 흥덕구 강서로 121",
      "url": "http://place.map.kakao.com/24165849",
      "region": "충청북도"
    },
    {
      "lat": 36.6198236065466,
      "lng": 127.315230361523,
      "title": "스타벅스 오송파라곤점",
      "description": "충북 청주시 흥덕구 오송읍 오송생명7로 136",
      "url": "http://place.map.kakao.com/1137076225",
      "region": "충청북도"
    },
    {
      "lat": 36.71271173248725,
      "lng": 127.42740627357576,
      "title": "스타벅스 오창호수공원점",
      "description": "충북 청주시 청원구 오창읍 중심상업1로 20",
      "url": "http://place.map.kakao.com/27665761",
      "region": "충청북도"
    },
    {
      "lat": 36.89965573348752,
      "lng": 127.52946935162375,
      "title": "스타벅스 충북혁신덕산점",
      "description": "충북 진천군 덕산읍 연미1길 11",
      "url": "http://place.map.kakao.com/1459160732",
      "region": "충청북도"
    },
    {
      "lat": 36.99014382930284,
      "lng": 127.92868183593487,
      "title": "스타벅스 충주시청DT점",
      "description": "충북 충주시 국원대로 208-1",
      "url": "http://place.map.kakao.com/1492913312",
      "region": "충청북도"
    },
    {
      "lat": 36.6339890449491,
      "lng": 127.459712464148,
      "title": "스타벅스 충북대점",
      "description": "충북 청주시 서원구 내수동로 113",
      "url": "http://place.map.kakao.com/18691209",
      "region": "충청북도"
    },
    {
      "lat": 37.1358547973418,
      "lng": 128.199181791858,
      "title": "스타벅스 제천하소DT점",
      "description": "충북 제천시 용두대로 55",
      "url": "http://place.map.kakao.com/245949731",
      "region": "충청북도"
    },
    {
      "lat": 36.9806623022303,
      "lng": 127.915192430674,
      "title": "스타벅스 충주터미널점",
      "description": "충북 충주시 봉계13길 2",
      "url": "http://place.map.kakao.com/1948281826",
      "region": "충청북도"
    },
    {
      "lat": 36.6353478474985,
      "lng": 127.4860723968,
      "title": "스타벅스 청주서문점",
      "description": "충북 청주시 상당구 무심동로392번길 20",
      "url": "http://place.map.kakao.com/17884790",
      "region": "충청북도"
    },
    {
      "lat": 36.64340639845527,
      "lng": 127.42661936890092,
      "title": "스타벅스 청주지웰시티점",
      "description": "충북 청주시 흥덕구 대농로 43",
      "url": "http://place.map.kakao.com/13049287",
      "region": "충청북도"
    },
    {
      "lat": 36.9086708976717,
      "lng": 127.542891295983,
      "title": "스타벅스 충북혁신도시점",
      "description": "충북 음성군 맹동면 원중로 1416",
      "url": "http://place.map.kakao.com/285471044",
      "region": "충청북도"
    },
    {
      "lat": 36.60579983201945,
      "lng": 127.4948172934153,
      "title": "스타벅스 청주분평DT점",
      "description": "충북 청주시 서원구 1순환로 1154",
      "url": "http://place.map.kakao.com/1759668627",
      "region": "충청북도"
    },
    {
      "lat": 36.9827506788031,
      "lng": 127.939904358709,
      "title": "스타벅스 충주연수점",
      "description": "충북 충주시 계명대로 227",
      "url": "http://place.map.kakao.com/19570330",
      "region": "충청북도"
    },
    {
      "lat": 37.14926703863443,
      "lng": 128.22640081466065,
      "title": "스타벅스 제천장락DT점",
      "description": "충북 제천시 내토로 824",
      "url": "http://place.map.kakao.com/1210165956",
      "region": "충청북도"
    },
    {
      "lat": 36.6154898808744,
      "lng": 127.516436593312,
      "title": "스타벅스 청주동남점",
      "description": "충북 청주시 상당구 중고개로141번길 13-16",
      "url": "http://place.map.kakao.com/1376772479",
      "region": "충청북도"
    },
    {
      "lat": 36.6326197972981,
      "lng": 127.32723594245,
      "title": "스타벅스 오송바이오산업단지점",
      "description": "충북 청주시 흥덕구 오송읍 오송생명로 159",
      "url": "http://place.map.kakao.com/2106599356",
      "region": "충청북도"
    },
    {
      "lat": 36.6263666883092,
      "lng": 127.432432911263,
      "title": "스타벅스 청주터미널점",
      "description": "충북 청주시 흥덕구 풍산로 15",
      "url": "http://place.map.kakao.com/17127076",
      "region": "충청북도"
    },
    {
      "lat": 36.6178120427028,
      "lng": 127.429247273334,
      "title": "스타벅스 청주서현점",
      "description": "충북 청주시 흥덕구 서현로 60",
      "url": "http://place.map.kakao.com/430903166",
      "region": "충청북도"
    },
    {
      "lat": 36.6415750495315,
      "lng": 127.428197131492,
      "title": "스타벅스 청주복대지웰점",
      "description": "충북 청주시 흥덕구 대농로 52",
      "url": "http://place.map.kakao.com/1866832875",
      "region": "충청북도"
    },
    {
      "lat": 36.96694705254816,
      "lng": 127.94739527976049,
      "title": "스타벅스 충주교현DT",
      "description": "충북 충주시 금봉대로 362",
      "url": "http://place.map.kakao.com/807026888",
      "region": "충청북도"
    },
    {
      "lat": 36.67142889941493,
      "lng": 127.49699345211124,
      "title": "스타벅스 청주주성점",
      "description": "충북 청주시 청원구 주성로279번길 27-19",
      "url": "http://place.map.kakao.com/251347876",
      "region": "충청북도"
    },
    {
      "lat": 36.62759476446579,
      "lng": 127.4585072834933,
      "title": "스타벅스 충북대캠퍼스점",
      "description": "충북 청주시 서원구 충대로 1",
      "url": "http://place.map.kakao.com/1646821445",
      "region": "충청북도"
    },
    {
      "lat": 36.6343549878036,
      "lng": 127.49086283192327,
      "title": "스타벅스 충북도청점",
      "description": "충북 청주시 상당구 상당로 66",
      "url": "http://place.map.kakao.com/1828560986",
      "region": "충청북도"
    },
    {
      "lat": 36.62688027955259,
      "lng": 127.43045692065573,
      "title": "스타벅스 커넥트현대청주점",
      "description": "충북 청주시 흥덕구 2순환로 1225",
      "url": "http://place.map.kakao.com/285359205",
      "region": "충청북도"
    },
    {
      "lat": 36.64439629871033,
      "lng": 127.42623903073826,
      "title": "스타벅스 현대충청점",
      "description": "충북 청주시 흥덕구 직지대로 308",
      "url": "http://place.map.kakao.com/17796603",
      "region": "충청북도"
    },
    {
      "lat": 36.6239385229832,
      "lng": 127.46140013915,
      "title": "스타벅스 충북대학교병원점",
      "description": "충북 청주시 서원구 1순환로 776",
      "url": "http://place.map.kakao.com/1427683711",
      "region": "충청북도"
    },
    {
      "lat": 37.1437857735169,
      "lng": 128.212874939625,
      "title": "스타벅스 제천DT점 주차장",
      "description": "충북 제천시 중앙로2가 68-11",
      "url": "http://place.map.kakao.com/607315440",
      "region": "충청북도"
    },
    {
      "lat": 36.6297664069771,
      "lng": 127.333232254031,
      "title": "스타벅스 청주오송점 주차장",
      "description": "충북 청주시 흥덕구 오송읍 만수리 535",
      "url": "http://place.map.kakao.com/559633610",
      "region": "충청북도"
    },
    {
      "lat": 36.6662409088144,
      "lng": 127.493145781768,
      "title": "스타벅스 청주율량DT 주차장",
      "description": "충북 청주시 청원구 율량동 1068-1",
      "url": "http://place.map.kakao.com/1353428812",
      "region": "충청북도"
    },
    {
      "lat": 36.9806424640764,
      "lng": 127.915311244154,
      "title": "스타벅스 충주터미널점 주차장",
      "description": "충북 충주시 봉방동 76-1",
      "url": "http://place.map.kakao.com/512065502",
      "region": "충청북도"
    },
    {
      "lat": 36.9588482892575,
      "lng": 127.923735188226,
      "title": "스타벅스 충주호암DT점 주차장",
      "description": "충북 충주시 호암동 653-2",
      "url": "http://place.map.kakao.com/928590899",
      "region": "충청북도"
    },
    {
      "lat": 36.7236946894496,
      "lng": 127.434340250146,
      "title": "스타벅스 캡슐 무인카페 오창점",
      "description": "충북 청주시 청원구 오창읍 양청4길 7",
      "url": "http://place.map.kakao.com/739695565",
      "region": "충청북도"
    },
    {
      "lat": 36.9670163090529,
      "lng": 127.947185029021,
      "title": "스타벅스 충주교현DT 주차장",
      "description": "충북 충주시 교현동 91",
      "url": "http://place.map.kakao.com/973094398",
      "region": "충청북도"
    },
    {
      "lat": 36.77663566092535,
      "lng": 126.4487674221993,
      "title": "스타벅스 서산호수점",
      "description": "충남 서산시 호수공원2로 33",
      "url": "http://place.map.kakao.com/22547032",
      "region": "충청남도"
    },
    {
      "lat": 36.36351194022985,
      "lng": 127.25375224411466,
      "title": "스타벅스 공주동학사DT점",
      "description": "충남 공주시 반포면 동학사1로 114",
      "url": "http://place.map.kakao.com/1250794448",
      "region": "충청남도"
    },
    {
      "lat": 36.2012457441743,
      "lng": 127.089901420383,
      "title": "스타벅스 논산중앙점",
      "description": "충남 논산시 중앙로398번길 13-10",
      "url": "http://place.map.kakao.com/27086657",
      "region": "충청남도"
    },
    {
      "lat": 36.47456575729,
      "lng": 127.140021661645,
      "title": "스타벅스 공주신관점",
      "description": "충남 공주시 번영1로 113",
      "url": "http://place.map.kakao.com/23930907",
      "region": "충청남도"
    },
    {
      "lat": 36.90268074432952,
      "lng": 126.6837198946191,
      "title": "스타벅스 당진시곡DT점",
      "description": "충남 당진시 서해로 6281",
      "url": "http://place.map.kakao.com/1995343223",
      "region": "충청남도"
    },
    {
      "lat": 36.8123159396199,
      "lng": 127.108066811552,
      "title": "스타벅스 천안신불당점",
      "description": "충남 천안시 서북구 불당33길 24",
      "url": "http://place.map.kakao.com/1804256831",
      "region": "충청남도"
    },
    {
      "lat": 36.2840390614944,
      "lng": 126.922179905381,
      "title": "스타벅스 충남부여DT점",
      "description": "충남 부여군 부여읍 성왕로 317",
      "url": "http://place.map.kakao.com/943538722",
      "region": "충청남도"
    },
    {
      "lat": 36.314903310017435,
      "lng": 126.51212524321274,
      "title": "스타벅스 대천해수욕장점",
      "description": "충남 보령시 머드로 114",
      "url": "http://place.map.kakao.com/1805294775",
      "region": "충청남도"
    },
    {
      "lat": 36.8253987626343,
      "lng": 127.140353378858,
      "title": "스타벅스 천안성정DT점",
      "description": "충남 천안시 서북구 동서대로 154",
      "url": "http://place.map.kakao.com/26428465",
      "region": "충청남도"
    },
    {
      "lat": 36.2884206242839,
      "lng": 127.244392132826,
      "title": "스타벅스 계룡대로DT점",
      "description": "충남 계룡시 엄사면 번영로 6",
      "url": "http://place.map.kakao.com/887980713",
      "region": "충청남도"
    },
    {
      "lat": 36.774395402043,
      "lng": 127.008548965478,
      "title": "스타벅스 아산용화점",
      "description": "충남 아산시 어의정로 117",
      "url": "http://place.map.kakao.com/1240713602",
      "region": "충청남도"
    },
    {
      "lat": 36.7930941969225,
      "lng": 127.122161568094,
      "title": "스타벅스 천안쌍용역점",
      "description": "충남 천안시 서북구 충무로 133",
      "url": "http://place.map.kakao.com/2054306517",
      "region": "충청남도"
    },
    {
      "lat": 36.81929446708463,
      "lng": 127.15775498608355,
      "title": "스타벅스 천안신부점",
      "description": "충남 천안시 동남구 만남로 43",
      "url": "http://place.map.kakao.com/1114379502",
      "region": "충청남도"
    },
    {
      "lat": 36.805397163552705,
      "lng": 127.10611621219388,
      "title": "스타벅스 천안불당DT점",
      "description": "충남 천안시 서북구 불당34길 4",
      "url": "http://place.map.kakao.com/1386779902",
      "region": "충청남도"
    },
    {
      "lat": 36.79758742200518,
      "lng": 127.10589478696717,
      "title": "스타벅스 천안아산역점",
      "description": "충남 아산시 배방읍 고속철대로 147",
      "url": "http://place.map.kakao.com/802608644",
      "region": "충청남도"
    },
    {
      "lat": 36.7717771895585,
      "lng": 126.440144997823,
      "title": "스타벅스 서산예천DT점",
      "description": "충남 서산시 나무장1길 22",
      "url": "http://place.map.kakao.com/2122330517",
      "region": "충청남도"
    },
    {
      "lat": 36.34095696226459,
      "lng": 126.58925284933191,
      "title": "스타벅스 충남보령DT점",
      "description": "충남 보령시 대해로 101",
      "url": "http://place.map.kakao.com/1142678268",
      "region": "충청남도"
    },
    {
      "lat": 36.18211615828151,
      "lng": 127.09978218032339,
      "title": "스타벅스 논산내동DT점",
      "description": "충남 논산시 시민로 165",
      "url": "http://place.map.kakao.com/1740263357",
      "region": "충청남도"
    },
    {
      "lat": 36.832854539299,
      "lng": 127.146322861916,
      "title": "스타벅스 천안두정역DT점",
      "description": "충남 천안시 서북구 두정로 264",
      "url": "http://place.map.kakao.com/1314853691",
      "region": "충청남도"
    },
    {
      "lat": 36.80367001858979,
      "lng": 127.12697441663717,
      "title": "스타벅스 천안서부대로DT점",
      "description": "충남 천안시 서북구 서부대로 405",
      "url": "http://place.map.kakao.com/574190023",
      "region": "충청남도"
    },
    {
      "lat": 36.8203366308656,
      "lng": 127.161424432979,
      "title": "스타벅스 천안IC DT점",
      "description": "충남 천안시 동남구 신부15길 3",
      "url": "http://place.map.kakao.com/1968168899",
      "region": "충청남도"
    },
    {
      "lat": 36.774786193760576,
      "lng": 127.05413027876547,
      "title": "스타벅스 아산배방점",
      "description": "충남 아산시 배방읍 배방로 22",
      "url": "http://place.map.kakao.com/382796502",
      "region": "충청남도"
    },
    {
      "lat": 36.46821451636051,
      "lng": 127.14293790216648,
      "title": "스타벅스 공주DT점",
      "description": "충남 공주시 무령로 467",
      "url": "http://place.map.kakao.com/1755134382",
      "region": "충청남도"
    },
    {
      "lat": 36.850925727481,
      "lng": 127.124607052351,
      "title": "스타벅스 천안번영로DT점",
      "description": "충남 천안시 서북구 번영로 579-1",
      "url": "http://place.map.kakao.com/512592051",
      "region": "충청남도"
    },
    {
      "lat": 36.83398729098,
      "lng": 127.134840222862,
      "title": "스타벅스 천안두정점",
      "description": "충남 천안시 서북구 부성4길 3",
      "url": "http://place.map.kakao.com/17884789",
      "region": "충청남도"
    },
    {
      "lat": 36.656822972541065,
      "lng": 126.68161921628344,
      "title": "스타벅스 충남도청점",
      "description": "충남 홍성군 홍북읍 청사로150번길 24",
      "url": "http://place.map.kakao.com/536239684",
      "region": "충청남도"
    },
    {
      "lat": 36.8300854597367,
      "lng": 127.179815162071,
      "title": "스타벅스 천안안서점",
      "description": "충남 천안시 동남구 안서3길 3",
      "url": "http://place.map.kakao.com/900117690",
      "region": "충청남도"
    },
    {
      "lat": 36.60962326609749,
      "lng": 126.66354140290716,
      "title": "스타벅스 충남홍성DT점",
      "description": "충남 홍성군 홍성읍 도청대로 58",
      "url": "http://place.map.kakao.com/592765226",
      "region": "충청남도"
    },
    {
      "lat": 36.7857391187312,
      "lng": 127.157574144725,
      "title": "스타벅스 천안청당점",
      "description": "충남 천안시 동남구 청수14로 102",
      "url": "http://place.map.kakao.com/464714261",
      "region": "충청남도"
    },
    {
      "lat": 36.78582229773892,
      "lng": 127.12723400449624,
      "title": "스타벅스 천안남부대로DT점",
      "description": "충남 천안시 동남구 남부대로 88",
      "url": "http://place.map.kakao.com/1226265015",
      "region": "충청남도"
    },
    {
      "lat": 36.2682848867577,
      "lng": 127.25958351471,
      "title": "스타벅스 계룡대실DT점",
      "description": "충남 계룡시 계룡대로 239",
      "url": "http://place.map.kakao.com/1743116335",
      "region": "충청남도"
    },
    {
      "lat": 36.78703589945,
      "lng": 127.083770533699,
      "title": "스타벅스 아산탕정역점",
      "description": "충남 아산시 탕정면 한들물빛도시로 88",
      "url": "http://place.map.kakao.com/317095424",
      "region": "충청남도"
    },
    {
      "lat": 36.8912113825451,
      "lng": 126.639051542593,
      "title": "스타벅스 당진문예의전당점",
      "description": "충남 당진시 시청1로 78",
      "url": "http://place.map.kakao.com/22547046",
      "region": "충청남도"
    },
    {
      "lat": 36.80996581376671,
      "lng": 127.11103327035879,
      "title": "스타벅스 천안불당점",
      "description": "충남 천안시 서북구 불당4로 91",
      "url": "http://place.map.kakao.com/26785146",
      "region": "충청남도"
    },
    {
      "lat": 36.8165308847166,
      "lng": 127.106566434321,
      "title": "스타벅스 천안시청점",
      "description": "충남 천안시 서북구 불당22대로 67",
      "url": "http://place.map.kakao.com/1405091320",
      "region": "충청남도"
    },
    {
      "lat": 36.8454636785359,
      "lng": 127.138066953207,
      "title": "스타벅스 천안업성레이크점",
      "description": "충남 천안시 서북구 업성수변로 69",
      "url": "http://place.map.kakao.com/1705543265",
      "region": "충청남도"
    },
    {
      "lat": 36.7884754720354,
      "lng": 127.015953817987,
      "title": "스타벅스 아산권곡점",
      "description": "충남 아산시 문화로 271-6",
      "url": "http://place.map.kakao.com/2122719566",
      "region": "충청남도"
    },
    {
      "lat": 36.823792764501064,
      "lng": 127.12175079223069,
      "title": "스타벅스 천안백석점",
      "description": "충남 천안시 서북구 백석로 85-4",
      "url": "http://place.map.kakao.com/1765121982",
      "region": "충청남도"
    },
    {
      "lat": 36.7813343249954,
      "lng": 127.15285224668742,
      "title": "스타벅스 천안청당신도시점",
      "description": "충남 천안시 동남구 남부대로 322",
      "url": "http://place.map.kakao.com/1862757338",
      "region": "충청남도"
    },
    {
      "lat": 36.7649356035232,
      "lng": 126.4532359565585,
      "title": "스타벅스 서산석남DT점",
      "description": "충남 서산시 남부순환로 994",
      "url": "http://place.map.kakao.com/1171400018",
      "region": "충청남도"
    },
    {
      "lat": 36.792276908408155,
      "lng": 127.06959188116144,
      "title": "스타벅스 아산탕정DT점",
      "description": "충남 아산시 탕정면 이순신대로 604",
      "url": "http://place.map.kakao.com/1226257108",
      "region": "충청남도"
    },
    {
      "lat": 36.795010709205314,
      "lng": 127.16420936793061,
      "title": "스타벅스 천안대로DT점",
      "description": "충남 천안시 동남구 천안대로 527",
      "url": "http://place.map.kakao.com/937694789",
      "region": "충청남도"
    },
    {
      "lat": 36.803963035720045,
      "lng": 127.15839139626729,
      "title": "스타벅스 천안원성DT점",
      "description": "충남 천안시 동남구 충절로 168",
      "url": "http://place.map.kakao.com/1680616213",
      "region": "충청남도"
    },
    {
      "lat": 36.7985385092527,
      "lng": 127.058297315766,
      "title": "스타벅스 아산탕정점",
      "description": "충남 아산시 탕정면 탕정면로 10",
      "url": "http://place.map.kakao.com/1990704456",
      "region": "충청남도"
    },
    {
      "lat": 36.77622701749541,
      "lng": 127.02829559790992,
      "title": "스타벅스 아산모종점",
      "description": "충남 아산시 온천대로 1721",
      "url": "http://place.map.kakao.com/119448373",
      "region": "충청남도"
    },
    {
      "lat": 35.8134450138835,
      "lng": 127.148531245728,
      "title": "스타벅스 전주한옥마을점",
      "description": "전북특별자치도 전주시 완산구 팔달로 123",
      "url": "http://place.map.kakao.com/26785714",
      "region": "전북특별자치도"
    },
    {
      "lat": 35.94844754478927,
      "lng": 126.94240894115396,
      "title": "스타벅스 익산모현",
      "description": "전북특별자치도 익산시 선화로 106",
      "url": "http://place.map.kakao.com/371999386",
      "region": "전북특별자치도"
    },
    {
      "lat": 35.5705074852561,
      "lng": 126.851834643103,
      "title": "스타벅스 전북정읍DT점",
      "description": "전북특별자치도 정읍시 충정로 271",
      "url": "http://place.map.kakao.com/1670180471",
      "region": "전북특별자치도"
    },
    {
      "lat": 35.80559575165404,
      "lng": 127.11113966020878,
      "title": "스타벅스 전주효자DT점",
      "description": "전북특별자치도 전주시 완산구 용머리로 7",
      "url": "http://place.map.kakao.com/27162034",
      "region": "전북특별자치도"
    },
    {
      "lat": 35.83798498659188,
      "lng": 127.05941486947005,
      "title": "스타벅스 전주혁신도시점",
      "description": "전북특별자치도 전주시 덕진구 기지로 68",
      "url": "http://place.map.kakao.com/464237673",
      "region": "전북특별자치도"
    },
    {
      "lat": 35.8673953416653,
      "lng": 127.121938456921,
      "title": "스타벅스 전주송천DT점",
      "description": "전북특별자치도 전주시 덕진구 송천중앙로 228",
      "url": "http://place.map.kakao.com/1891298436",
      "region": "전북특별자치도"
    },
    {
      "lat": 35.8428788881266,
      "lng": 127.124203276886,
      "title": "스타벅스 전주덕진광장DT점",
      "description": "전북특별자치도 전주시 덕진구 기린대로 491",
      "url": "http://place.map.kakao.com/1641572994",
      "region": "전북특별자치도"
    },
    {
      "lat": 35.8156032962805,
      "lng": 127.109244852955,
      "title": "스타벅스 전북도청점",
      "description": "전북특별자치도 전주시 완산구 홍산중앙로 22",
      "url": "http://place.map.kakao.com/24372193",
      "region": "전북특별자치도"
    },
    {
      "lat": 35.962796732928304,
      "lng": 126.6954664413534,
      "title": "스타벅스 군산나운DT점",
      "description": "전북특별자치도 군산시 하나운안2길 4",
      "url": "http://place.map.kakao.com/1400674549",
      "region": "전북특별자치도"
    },
    {
      "lat": 35.81457655887385,
      "lng": 127.12342224961994,
      "title": "스타벅스 전주백제대로DT점",
      "description": "전북특별자치도 전주시 완산구 백제대로 242",
      "url": "http://place.map.kakao.com/2019620609",
      "region": "전북특별자치도"
    },
    {
      "lat": 35.40392914744637,
      "lng": 127.38278015970549,
      "title": "스타벅스 전북남원DT점",
      "description": "전북특별자치도 남원시 요천로 1477",
      "url": "http://place.map.kakao.com/309175518",
      "region": "전북특별자치도"
    },
    {
      "lat": 35.8198272863722,
      "lng": 127.144466488499,
      "title": "스타벅스 전주경원점",
      "description": "전북특별자치도 전주시 완산구 전주객사4길 44-18",
      "url": "http://place.map.kakao.com/17127077",
      "region": "전북특별자치도"
    },
    {
      "lat": 35.9593695148503,
      "lng": 126.968748446807,
      "title": "스타벅스 익산영등DT점",
      "description": "전북특별자치도 익산시 무왕로 1005",
      "url": "http://place.map.kakao.com/352873182",
      "region": "전북특별자치도"
    },
    {
      "lat": 35.84163382740749,
      "lng": 127.13703233774699,
      "title": "스타벅스 전북대병원DT점",
      "description": "전북특별자치도 전주시 덕진구 백제대로 616",
      "url": "http://place.map.kakao.com/1515973174",
      "region": "전북특별자치도"
    },
    {
      "lat": 35.8365594183063,
      "lng": 127.07795073390005,
      "title": "스타벅스 전주만성DT점",
      "description": "전북특별자치도 전주시 덕진구 정여립로 972",
      "url": "http://place.map.kakao.com/1761025116",
      "region": "전북특별자치도"
    },
    {
      "lat": 35.8061622878162,
      "lng": 126.906436803319,
      "title": "스타벅스 전북김제DT점",
      "description": "전북특별자치도 김제시 콩쥐팥쥐로 11",
      "url": "http://place.map.kakao.com/396148104",
      "region": "전북특별자치도"
    },
    {
      "lat": 35.8282296642864,
      "lng": 127.173161783809,
      "title": "스타벅스 전주아중DT점",
      "description": "전북특별자치도 전주시 덕진구 아중로 220",
      "url": "http://place.map.kakao.com/762193079",
      "region": "전북특별자치도"
    },
    {
      "lat": 35.842962708377,
      "lng": 127.12678913239,
      "title": "스타벅스 전북대점",
      "description": "전북특별자치도 전주시 덕진구 명륜4길 12",
      "url": "http://place.map.kakao.com/17884786",
      "region": "전북특별자치도"
    },
    {
      "lat": 35.95524284876171,
      "lng": 126.9908196685476,
      "title": "스타벅스 익산부송점",
      "description": "전북특별자치도 익산시 부송로 41",
      "url": "http://place.map.kakao.com/777303024",
      "region": "전북특별자치도"
    },
    {
      "lat": 35.9796862083998,
      "lng": 126.737986347962,
      "title": "스타벅스 군산디오션시티DT점",
      "description": "전북특별자치도 군산시 조촌로 174",
      "url": "http://place.map.kakao.com/1226167543",
      "region": "전북특별자치도"
    },
    {
      "lat": 35.788465273972065,
      "lng": 127.13098994241527,
      "title": "스타벅스 전주평화DT점",
      "description": "전북특별자치도 전주시 완산구 모악로 4696",
      "url": "http://place.map.kakao.com/1992648915",
      "region": "전북특별자치도"
    },
    {
      "lat": 35.928968367498,
      "lng": 126.958367535097,
      "title": "스타벅스 익산동산DT점",
      "description": "전북특별자치도 익산시 평동로 722",
      "url": "http://place.map.kakao.com/545999574",
      "region": "전북특별자치도"
    },
    {
      "lat": 35.8345377860626,
      "lng": 127.11605318665,
      "title": "스타벅스 전주서신점",
      "description": "전북특별자치도 전주시 완산구 서신로 104",
      "url": "http://place.map.kakao.com/27334969",
      "region": "전북특별자치도"
    },
    {
      "lat": 35.964546871370736,
      "lng": 126.98022261257535,
      "title": "스타벅스 익산어양점",
      "description": "전북특별자치도 익산시 하나로 495",
      "url": "http://place.map.kakao.com/1573874903",
      "region": "전북특별자치도"
    },
    {
      "lat": 35.958218913905704,
      "lng": 126.97368398427112,
      "title": "스타벅스 익산영등점",
      "description": "전북특별자치도 익산시 무왕로 1052",
      "url": "http://place.map.kakao.com/17385464",
      "region": "전북특별자치도"
    },
    {
      "lat": 35.86364222616416,
      "lng": 127.15078608089095,
      "title": "스타벅스 전주호성DT",
      "description": "전북특별자치도 전주시 덕진구 동부대로 860",
      "url": "http://place.map.kakao.com/799695816",
      "region": "전북특별자치도"
    },
    {
      "lat": 35.9642098452821,
      "lng": 126.717184919422,
      "title": "스타벅스 군산수송점",
      "description": "전북특별자치도 군산시 수송로 195",
      "url": "http://place.map.kakao.com/17127116",
      "region": "전북특별자치도"
    },
    {
      "lat": 35.88221942307953,
      "lng": 127.13190052711371,
      "title": "스타벅스 전주에코DT점",
      "description": "전북특별자치도 전주시 덕진구 백석로 170",
      "url": "http://place.map.kakao.com/1000077068",
      "region": "전북특별자치도"
    },
    {
      "lat": 35.8680361259849,
      "lng": 127.074557925909,
      "title": "스타벅스 전주IC DT점",
      "description": "전북특별자치도 전주시 덕진구 기린대로 1022",
      "url": "http://place.map.kakao.com/1717135340",
      "region": "전북특별자치도"
    },
    {
      "lat": 35.9457038450585,
      "lng": 126.686009273046,
      "title": "스타벅스 군산대점",
      "description": "전북특별자치도 군산시 황룡로 7",
      "url": "http://place.map.kakao.com/18691199",
      "region": "전북특별자치도"
    },
    {
      "lat": 35.8148164782692,
      "lng": 127.106247340153,
      "title": "스타벅스 전주홍산로점",
      "description": "전북특별자치도 전주시 완산구 홍산로 238",
      "url": "http://place.map.kakao.com/26785132",
      "region": "전북특별자치도"
    },
    {
      "lat": 35.825750821905906,
      "lng": 127.16444917449631,
      "title": "스타벅스 전주인후DT점",
      "description": "전북특별자치도 전주시 덕진구 아중로 135",
      "url": "http://place.map.kakao.com/236222056",
      "region": "전북특별자치도"
    },
    {
      "lat": 35.95883782185582,
      "lng": 126.7146234522438,
      "title": "스타벅스 군산수송DT점",
      "description": "전북특별자치도 군산시 공단대로 243",
      "url": "http://place.map.kakao.com/1892323727",
      "region": "전북특별자치도"
    },
    {
      "lat": 35.800786156816656,
      "lng": 127.0993031064842,
      "title": "스타벅스 전주효천DT",
      "description": "전북특별자치도 전주시 완산구 천잠로 149",
      "url": "http://place.map.kakao.com/1581098980",
      "region": "전북특별자치도"
    },
    {
      "lat": 35.81724938235159,
      "lng": 127.10161415388328,
      "title": "스타벅스 전주신시가지점",
      "description": "전북특별자치도 전주시 완산구 우전로 255",
      "url": "http://place.map.kakao.com/1821827234",
      "region": "전북특별자치도"
    },
    {
      "lat": 35.8731522607496,
      "lng": 127.12397589244009,
      "title": "스타벅스 전주에코시티점",
      "description": "전북특별자치도 전주시 덕진구 세병2길 10",
      "url": "http://place.map.kakao.com/896006839",
      "region": "전북특별자치도"
    },
    {
      "lat": 35.825621645502494,
      "lng": 127.14656636540292,
      "title": "스타벅스 전주시청점",
      "description": "전북특별자치도 전주시 완산구 기린대로 213",
      "url": "http://place.map.kakao.com/1229964425",
      "region": "전북특별자치도"
    },
    {
      "lat": 35.8133072855332,
      "lng": 127.132996964849,
      "title": "스타벅스 전주예수병원",
      "description": "전북특별자치도 전주시 완산구 서원로 356-1",
      "url": "http://place.map.kakao.com/657623780",
      "region": "전북특별자치도"
    },
    {
      "lat": 35.9687023948338,
      "lng": 126.724891767348,
      "title": "스타벅스 군산경포천점",
      "description": "전북특별자치도 군산시 경포천로 110",
      "url": "http://place.map.kakao.com/777270074",
      "region": "전북특별자치도"
    },
    {
      "lat": 35.9826770458706,
      "lng": 126.734951524341,
      "title": "스타벅스 군산이마트점",
      "description": "전북특별자치도 군산시 구암3.1로 137",
      "url": "http://place.map.kakao.com/430875059",
      "region": "전북특별자치도"
    },
    {
      "lat": 35.8323201899188,
      "lng": 127.120230171156,
      "title": "스타벅스 전주이마트점",
      "description": "전북특별자치도 전주시 완산구 당산로 111",
      "url": "http://place.map.kakao.com/122709192",
      "region": "전북특별자치도"
    },
    {
      "lat": 35.9638622027915,
      "lng": 126.95710760798,
      "title": "스타벅스 익산원광대점",
      "description": "전북특별자치도 익산시 무왕로 888",
      "url": "http://place.map.kakao.com/1838158524",
      "region": "전북특별자치도"
    },
    {
      "lat": 35.8466089603841,
      "lng": 127.1415273772,
      "title": "스타벅스 전북대병원점",
      "description": "전북특별자치도 전주시 덕진구 건지로 20",
      "url": "http://place.map.kakao.com/2063141054",
      "region": "전북특별자치도"
    },
    {
      "lat": 35.8417435582221,
      "lng": 127.137227338354,
      "title": "스타벅스 전북대병원DT점 주차장",
      "description": "전북특별자치도 전주시 덕진구 금암동 1552-9",
      "url": "http://place.map.kakao.com/1184737920",
      "region": "전북특별자치도"
    },
    {
      "lat": 35.9484854473903,
      "lng": 126.942514209118,
      "title": "스타벅스 익산모현 주차장",
      "description": "전북특별자치도 익산시 선화로 106",
      "url": "http://place.map.kakao.com/1174236875",
      "region": "전북특별자치도"
    },
    {
      "lat": 34.7274250471323,
      "lng": 127.744016040022,
      "title": "스타벅스 더여수돌산DT점",
      "description": "전남 여수시 돌산읍 돌산로 3549",
      "url": "http://place.map.kakao.com/2125067104",
      "region": "전라남도"
    },
    {
      "lat": 34.738420478497034,
      "lng": 127.74427838204134,
      "title": "스타벅스 여수해양공원점",
      "description": "전남 여수시 이순신광장로 192",
      "url": "http://place.map.kakao.com/1914652689",
      "region": "전라남도"
    },
    {
      "lat": 34.780037868380695,
      "lng": 126.37462927015036,
      "title": "스타벅스 목포해안로점",
      "description": "전남 목포시 해안로 92",
      "url": "http://place.map.kakao.com/1226293475",
      "region": "전라남도"
    },
    {
      "lat": 34.7970049541213,
      "lng": 126.434920925361,
      "title": "스타벅스 목포평화광장점",
      "description": "전남 목포시 미항로 137",
      "url": "http://place.map.kakao.com/20705152",
      "region": "전라남도"
    },
    {
      "lat": 34.7461908685867,
      "lng": 127.670993472922,
      "title": "스타벅스 여수웅천점",
      "description": "전남 여수시 예울마루로 37-53",
      "url": "http://place.map.kakao.com/2073302887",
      "region": "전라남도"
    },
    {
      "lat": 35.0225613421259,
      "lng": 126.787988973006,
      "title": "스타벅스 전남나주점",
      "description": "전남 나주시 상야1길 21",
      "url": "http://place.map.kakao.com/2033587243",
      "region": "전라남도"
    },
    {
      "lat": 34.94315826353412,
      "lng": 127.69780600739445,
      "title": "스타벅스 전남광양DT점",
      "description": "전남 광양시 중마중앙로 143",
      "url": "http://place.map.kakao.com/583550832",
      "region": "전라남도"
    },
    {
      "lat": 34.8086735783982,
      "lng": 126.373264414851,
      "title": "스타벅스 목포북항DT점",
      "description": "전남 목포시 고하대로 694",
      "url": "http://place.map.kakao.com/27334970",
      "region": "전라남도"
    },
    {
      "lat": 34.95228744671383,
      "lng": 127.51867736827239,
      "title": "스타벅스 순천연향점",
      "description": "전남 순천시 연향번영길 118",
      "url": "http://place.map.kakao.com/403025365",
      "region": "전라남도"
    },
    {
      "lat": 34.9681455451934,
      "lng": 127.523258008537,
      "title": "스타벅스 순천호수공원점",
      "description": "전남 순천시 왕지2길 17",
      "url": "http://place.map.kakao.com/1982554913",
      "region": "전라남도"
    },
    {
      "lat": 34.7597219595821,
      "lng": 127.667184035981,
      "title": "스타벅스 여수여천점",
      "description": "전남 여수시 망마로 39",
      "url": "http://place.map.kakao.com/17127109",
      "region": "전라남도"
    },
    {
      "lat": 34.7528287612616,
      "lng": 127.704199871109,
      "title": "스타벅스 여수여서점",
      "description": "전남 여수시 여문1로 49",
      "url": "http://place.map.kakao.com/23707277",
      "region": "전라남도"
    },
    {
      "lat": 34.9371089770517,
      "lng": 127.49538763248854,
      "title": "스타벅스 순천오천점",
      "description": "전남 순천시 순천만정원로 86",
      "url": "http://place.map.kakao.com/1163712029",
      "region": "전라남도"
    },
    {
      "lat": 34.9334855514648,
      "lng": 127.550239083434,
      "title": "스타벅스 순천신대점",
      "description": "전남 순천시 해룡면 향매로 99",
      "url": "http://place.map.kakao.com/1049686627",
      "region": "전라남도"
    },
    {
      "lat": 34.76880144027525,
      "lng": 127.69747343859345,
      "title": "스타벅스 여수둔덕DT",
      "description": "전남 여수시 좌수영로 482",
      "url": "http://place.map.kakao.com/2114933546",
      "region": "전라남도"
    },
    {
      "lat": 35.0212310552948,
      "lng": 126.803056267739,
      "title": "스타벅스 나주혁신DT점",
      "description": "전남 나주시 빛가람로 838",
      "url": "http://place.map.kakao.com/420662298",
      "region": "전라남도"
    },
    {
      "lat": 34.935134990380696,
      "lng": 127.52165163081973,
      "title": "스타벅스 순천팔마DT점",
      "description": "전남 순천시 백강로 23",
      "url": "http://place.map.kakao.com/1197797643",
      "region": "전라남도"
    },
    {
      "lat": 34.81000728546433,
      "lng": 126.41689234667942,
      "title": "스타벅스 목포터미널DT점",
      "description": "전남 목포시 영산로 495",
      "url": "http://place.map.kakao.com/1536947331",
      "region": "전라남도"
    },
    {
      "lat": 35.06852512490238,
      "lng": 126.98876463625524,
      "title": "스타벅스 전남화순DT점",
      "description": "전남 화순군 화순읍 서양로 478",
      "url": "http://place.map.kakao.com/559744235",
      "region": "전라남도"
    },
    {
      "lat": 34.940277921416175,
      "lng": 127.7056890623394,
      "title": "스타벅스 광양마동DT점",
      "description": "전남 광양시 백운로 1267",
      "url": "http://place.map.kakao.com/1858503873",
      "region": "전라남도"
    },
    {
      "lat": 34.9581447712177,
      "lng": 127.530532178539,
      "title": "스타벅스 순천왕지DT점",
      "description": "전남 순천시 순광로 95",
      "url": "http://place.map.kakao.com/956876108",
      "region": "전라남도"
    },
    {
      "lat": 34.80742178965137,
      "lng": 126.42726976260661,
      "title": "스타벅스 목포옥암점",
      "description": "전남 목포시 백년대로375번길 1",
      "url": "http://place.map.kakao.com/25115121",
      "region": "전라남도"
    },
    {
      "lat": 34.8130920345009,
      "lng": 126.461727920676,
      "title": "스타벅스 목포남악점",
      "description": "전남 무안군 삼향읍 남악3로82번길 11",
      "url": "http://place.map.kakao.com/26410060",
      "region": "전라남도"
    },
    {
      "lat": 34.7247317029127,
      "lng": 127.708944309364,
      "title": "스타벅스 여수신월DT점",
      "description": "전남 여수시 신월로 567",
      "url": "http://place.map.kakao.com/519715109",
      "region": "전라남도"
    },
    {
      "lat": 34.82223825411908,
      "lng": 126.39418980583068,
      "title": "스타벅스 목포용해DT점",
      "description": "전남 목포시 대양로 133",
      "url": "http://place.map.kakao.com/324224266",
      "region": "전라남도"
    },
    {
      "lat": 34.761389096589745,
      "lng": 127.66098585085827,
      "title": "스타벅스 여수학동DT점",
      "description": "전남 여수시 도원로 271",
      "url": "http://place.map.kakao.com/2011011894",
      "region": "전라남도"
    },
    {
      "lat": 34.761815389852615,
      "lng": 127.6337015186733,
      "title": "스타벅스 여수죽림점",
      "description": "전남 여수시 소라면 죽림중앙로 7-39",
      "url": "http://place.map.kakao.com/786355521",
      "region": "전라남도"
    },
    {
      "lat": 34.74040577837416,
      "lng": 127.6779756952061,
      "title": "스타벅스 여수마리나",
      "description": "전남 여수시 웅천로 134",
      "url": "http://place.map.kakao.com/1590111628",
      "region": "전라남도"
    },
    {
      "lat": 34.971999789671074,
      "lng": 127.52095993082062,
      "title": "스타벅스 순천조례점",
      "description": "전남 순천시 비봉2길 9",
      "url": "http://place.map.kakao.com/17127081",
      "region": "전라남도"
    },
    {
      "lat": 34.8102638866915,
      "lng": 126.460605325618,
      "title": "스타벅스 전남도청DT점",
      "description": "전남 무안군 삼향읍 남악3로 54",
      "url": "http://place.map.kakao.com/1139342353",
      "region": "전라남도"
    },
    {
      "lat": 34.803957521113,
      "lng": 126.419805774059,
      "title": "스타벅스 목포하당점",
      "description": "전남 목포시 백년대로 293",
      "url": "http://place.map.kakao.com/898532884",
      "region": "전라남도"
    },
    {
      "lat": 34.9801020033572,
      "lng": 127.485343217333,
      "title": "스타벅스 순천용당DT점",
      "description": "전남 순천시 중앙로 398",
      "url": "http://place.map.kakao.com/456104972",
      "region": "전라남도"
    },
    {
      "lat": 34.7958628452592,
      "lng": 126.482968541221,
      "title": "스타벅스 무안오룡점",
      "description": "전남 무안군 일로읍 오룡남로 132",
      "url": "http://place.map.kakao.com/2038785830",
      "region": "전라남도"
    },
    {
      "lat": 34.9425732647666,
      "lng": 127.508449057614,
      "title": "스타벅스 순천이마트점",
      "description": "전남 순천시 팔마로 191",
      "url": "http://place.map.kakao.com/1711770756",
      "region": "전라남도"
    },
    {
      "lat": 34.81175140690612,
      "lng": 126.42502118742597,
      "title": "스타벅스 목포이마트점",
      "description": "전남 목포시 옥암로 138",
      "url": "http://place.map.kakao.com/785122511",
      "region": "전라남도"
    },
    {
      "lat": 34.9625158457894,
      "lng": 127.565425753697,
      "title": "스타벅스 광양LF스퀘어3F점",
      "description": "전남 광양시 광양읍 순광로 466",
      "url": "http://place.map.kakao.com/1889291183",
      "region": "전라남도"
    },
    {
      "lat": 34.7800474891095,
      "lng": 126.37439649636,
      "title": "스타벅스 목포해안로점 주차장",
      "description": "전남 목포시 서산동",
      "url": "http://place.map.kakao.com/2006277327",
      "region": "전라남도"
    },
    {
      "lat": 35.0210174560929,
      "lng": 126.80307321558,
      "title": "스타벅스 나주혁신DT점 주차장",
      "description": "전남 나주시 빛가람로 838",
      "url": "http://place.map.kakao.com/1353613236",
      "region": "전라남도"
    },
    {
      "lat": 34.724829811603,
      "lng": 127.708814135712,
      "title": "스타벅스 여수신월DT 주차장",
      "description": "전남 여수시 신월동 105",
      "url": "http://place.map.kakao.com/950199992",
      "region": "전라남도"
    },
    {
      "lat": 35.0684998888857,
      "lng": 126.988790952033,
      "title": "스타벅스 전남화순DT점 주차장",
      "description": "전남 화순군 화순읍 서양로 478",
      "url": "http://place.map.kakao.com/1226760689",
      "region": "전라남도"
    },
    {
      "lat": 34.7689294885907,
      "lng": 127.697621981989,
      "title": "스타벅스 여수둔덕DT 주차장",
      "description": "전남 여수시 둔덕동 491-1",
      "url": "http://place.map.kakao.com/1513405584",
      "region": "전라남도"
    },
    {
      "lat": 34.7615573719964,
      "lng": 127.661038527747,
      "title": "스타벅스 여수학동DT점 주차장",
      "description": "전남 여수시 학동 67-18",
      "url": "http://place.map.kakao.com/698066162",
      "region": "전라남도"
    },
    {
      "lat": 34.8102293725603,
      "lng": 126.460749813046,
      "title": "스타벅스 전남도청DT점 주차장",
      "description": "전남 무안군 삼향읍 남악리 2150",
      "url": "http://place.map.kakao.com/147414830",
      "region": "전라남도"
    },
    {
      "lat": 34.9801037973105,
      "lng": 127.485345418225,
      "title": "스타벅스 순천용당DT점 주차장",
      "description": "전남 순천시 중앙로 398",
      "url": "http://place.map.kakao.com/651845181",
      "region": "전라남도"
    },
    {
      "lat": 34.94328270919463,
      "lng": 127.69779611519309,
      "title": "스타벅스 전남광양DT점 주차장",
      "description": "전남 광양시 중마중앙로 143",
      "url": "http://place.map.kakao.com/1125116044",
      "region": "전라남도"
    },
    {
      "lat": 35.8340500195735,
      "lng": 129.214987136254,
      "title": "스타벅스 경주대릉원점",
      "description": "경북 경주시 첨성로 125",
      "url": "http://place.map.kakao.com/24994872",
      "region": "경상북도"
    },
    {
      "lat": 35.8532455857837,
      "lng": 129.268677513576,
      "title": "스타벅스 경주보문호수DT점",
      "description": "경북 경주시 보문로 132-6",
      "url": "http://place.map.kakao.com/23082654",
      "region": "경상북도"
    },
    {
      "lat": 35.8387984868175,
      "lng": 129.285878031807,
      "title": "스타벅스 경주보문로DT점",
      "description": "경북 경주시 보문로 510-6",
      "url": "http://place.map.kakao.com/18445186",
      "region": "경상북도"
    },
    {
      "lat": 35.838114108006984,
      "lng": 129.20330627862236,
      "title": "스타벅스 경주터미널DT점",
      "description": "경북 경주시 태종로 686",
      "url": "http://place.map.kakao.com/2122962692",
      "region": "경상북도"
    },
    {
      "lat": 35.827426231080594,
      "lng": 128.73683991692567,
      "title": "스타벅스 경산중방DT점",
      "description": "경북 경산시 경안로 222",
      "url": "http://place.map.kakao.com/188945251",
      "region": "경상북도"
    },
    {
      "lat": 36.8229112928205,
      "lng": 128.610235066977,
      "title": "스타벅스 영주가흥점",
      "description": "경북 영주시 영주로 90",
      "url": "http://place.map.kakao.com/2116412701",
      "region": "경상북도"
    },
    {
      "lat": 36.25151850167795,
      "lng": 129.37333969561635,
      "title": "스타벅스 포항화진해수욕장점",
      "description": "경북 포항시 북구 송라면 동해대로3218번길 40",
      "url": "http://place.map.kakao.com/512636014",
      "region": "경상북도"
    },
    {
      "lat": 36.426024184308126,
      "lng": 128.15731759384585,
      "title": "스타벅스 상주무양DT점",
      "description": "경북 상주시 영남제일로 1683",
      "url": "http://place.map.kakao.com/541230635",
      "region": "경상북도"
    },
    {
      "lat": 35.836534149644024,
      "lng": 129.28493334590064,
      "title": "스타벅스 경주보문점",
      "description": "경북 경주시 천군동 205-65",
      "url": "http://place.map.kakao.com/1717483942",
      "region": "경상북도"
    },
    {
      "lat": 35.8421053635872,
      "lng": 129.212444604538,
      "title": "스타벅스 경주중앙점",
      "description": "경북 경주시 원효로 105-1",
      "url": "http://place.map.kakao.com/19469877",
      "region": "경상북도"
    },
    {
      "lat": 36.018498014024466,
      "lng": 129.34795652929873,
      "title": "스타벅스 포항죽도DT점",
      "description": "경북 포항시 북구 새천년대로 486",
      "url": "http://place.map.kakao.com/2054024339",
      "region": "경상북도"
    },
    {
      "lat": 36.562290613399924,
      "lng": 128.70153544707256,
      "title": "스타벅스 안동옥동점",
      "description": "경북 안동시 광명로 166",
      "url": "http://place.map.kakao.com/25809850",
      "region": "경상북도"
    },
    {
      "lat": 36.054945376004255,
      "lng": 129.37713582938204,
      "title": "스타벅스 포항영일대비치점",
      "description": "경북 포항시 북구 삼호로 186",
      "url": "http://place.map.kakao.com/12745496",
      "region": "경상북도"
    },
    {
      "lat": 36.0940738365475,
      "lng": 129.343182233791,
      "title": "스타벅스 포항초곡DT점",
      "description": "경북 포항시 북구 흥해읍 동해대로 1354",
      "url": "http://place.map.kakao.com/786717898",
      "region": "경상북도"
    },
    {
      "lat": 36.015378337780625,
      "lng": 129.35271146798115,
      "title": "스타벅스 포항쌍용DT점",
      "description": "경북 포항시 남구 중흥로 122",
      "url": "http://place.map.kakao.com/1561430244",
      "region": "경상북도"
    },
    {
      "lat": 36.0356472679494,
      "lng": 129.379445160334,
      "title": "스타벅스 포항송도점",
      "description": "경북 포항시 남구 송도해안길 54",
      "url": "http://place.map.kakao.com/435894062",
      "region": "경상북도"
    },
    {
      "lat": 36.12226182709378,
      "lng": 128.32359733680948,
      "title": "스타벅스 구미금오산DT점",
      "description": "경북 구미시 금오산로 205",
      "url": "http://place.map.kakao.com/22728312",
      "region": "경상북도"
    },
    {
      "lat": 36.5663803322596,
      "lng": 128.731136040071,
      "title": "스타벅스 안동시청점",
      "description": "경북 안동시 서동문로 173",
      "url": "http://place.map.kakao.com/26628760",
      "region": "경상북도"
    },
    {
      "lat": 35.966986877744915,
      "lng": 128.94911474141188,
      "title": "스타벅스 영천완산DT점",
      "description": "경북 영천시 영화로 272",
      "url": "http://place.map.kakao.com/874174807",
      "region": "경상북도"
    },
    {
      "lat": 36.1325049609322,
      "lng": 128.117590446362,
      "title": "스타벅스 김천시청DT점",
      "description": "경북 김천시 시청로 47",
      "url": "http://place.map.kakao.com/27487413",
      "region": "경상북도"
    },
    {
      "lat": 36.08229569159886,
      "lng": 128.35642927632367,
      "title": "스타벅스 구미상모DT점",
      "description": "경북 구미시 금오대로 439",
      "url": "http://place.map.kakao.com/1029270880",
      "region": "경상북도"
    },
    {
      "lat": 35.86776317408315,
      "lng": 129.2243606250235,
      "title": "스타벅스 경주용강DT점",
      "description": "경북 경주시 산업로 4350",
      "url": "http://place.map.kakao.com/602186906",
      "region": "경상북도"
    },
    {
      "lat": 36.0744786071069,
      "lng": 129.384258605059,
      "title": "스타벅스 포항장성DT점",
      "description": "경북 포항시 북구 새천년대로 1255",
      "url": "http://place.map.kakao.com/776165811",
      "region": "경상북도"
    },
    {
      "lat": 36.562284038808414,
      "lng": 128.7398147298488,
      "title": "스타벅스 안동강변DT점",
      "description": "경북 안동시 육사로 327",
      "url": "http://place.map.kakao.com/820101840",
      "region": "경상북도"
    },
    {
      "lat": 36.117632368147,
      "lng": 128.341605502962,
      "title": "스타벅스 구미시청DT점",
      "description": "경북 구미시 송정대로 27",
      "url": "http://place.map.kakao.com/27075899",
      "region": "경상북도"
    },
    {
      "lat": 36.1164079665683,
      "lng": 128.181673920875,
      "title": "스타벅스 김천구미역",
      "description": "경북 김천시 혁신3로 26",
      "url": "http://place.map.kakao.com/640659882",
      "region": "경상북도"
    },
    {
      "lat": 36.1384223746955,
      "lng": 128.3167764647886,
      "title": "스타벅스 구미도량DT점",
      "description": "경북 구미시 야은로 312",
      "url": "http://place.map.kakao.com/87064730",
      "region": "경상북도"
    },
    {
      "lat": 35.8445204776562,
      "lng": 129.174733376063,
      "title": "스타벅스 경주충효DT점",
      "description": "경북 경주시 태종로 406",
      "url": "http://place.map.kakao.com/2081448599",
      "region": "경상북도"
    },
    {
      "lat": 36.1382926080393,
      "lng": 128.419549543035,
      "title": "스타벅스 구미옥계점",
      "description": "경북 구미시 옥계북로 20",
      "url": "http://place.map.kakao.com/27548020",
      "region": "경상북도"
    },
    {
      "lat": 35.81886155498015,
      "lng": 128.7575643516646,
      "title": "스타벅스 경산사동DT점",
      "description": "경북 경산시 원효로 194",
      "url": "http://place.map.kakao.com/380810249",
      "region": "경상북도"
    },
    {
      "lat": 36.03554208492344,
      "lng": 129.33314976267914,
      "title": "스타벅스 포항IC DT점",
      "description": "경북 포항시 남구 희망대로 353",
      "url": "http://place.map.kakao.com/861646844",
      "region": "경상북도"
    },
    {
      "lat": 36.0182393407367,
      "lng": 129.342019814432,
      "title": "스타벅스 포항시청점",
      "description": "경북 포항시 남구 시청로 5",
      "url": "http://place.map.kakao.com/18691200",
      "region": "경상북도"
    },
    {
      "lat": 36.0386801040048,
      "lng": 129.36409774692,
      "title": "스타벅스 포항중앙점",
      "description": "경북 포항시 북구 불종로 41",
      "url": "http://place.map.kakao.com/24165653",
      "region": "경상북도"
    },
    {
      "lat": 35.9172821811207,
      "lng": 128.813156262222,
      "title": "스타벅스 경산무학점",
      "description": "경북 경산시 하양읍 서사도리9로 21",
      "url": "http://place.map.kakao.com/1335900723",
      "region": "경상북도"
    },
    {
      "lat": 36.09565743046543,
      "lng": 128.43098473779384,
      "title": "스타벅스 구미인의DT점",
      "description": "경북 구미시 인동북길 149",
      "url": "http://place.map.kakao.com/1874148344",
      "region": "경상북도"
    },
    {
      "lat": 36.0609914369216,
      "lng": 129.370063966779,
      "title": "스타벅스 포항두호DT점",
      "description": "경북 포항시 북구 새천년대로 1031",
      "url": "http://place.map.kakao.com/1473773114",
      "region": "경상북도"
    },
    {
      "lat": 35.8369965348086,
      "lng": 128.753072958501,
      "title": "스타벅스 영남대점",
      "description": "경북 경산시 청운로 16",
      "url": "http://place.map.kakao.com/22088100",
      "region": "경상북도"
    },
    {
      "lat": 36.1016640225283,
      "lng": 128.385946317797,
      "title": "스타벅스 구미공단점",
      "description": "경북 구미시 1공단로 212",
      "url": "http://place.map.kakao.com/17127087",
      "region": "경상북도"
    },
    {
      "lat": 35.90494094911536,
      "lng": 128.82378437647915,
      "title": "스타벅스 경산하양DT점",
      "description": "경북 경산시 진량읍 대학로 1417",
      "url": "http://place.map.kakao.com/62545274",
      "region": "경상북도"
    },
    {
      "lat": 36.081556249033,
      "lng": 129.398182369087,
      "title": "스타벅스 포항양덕점",
      "description": "경북 포항시 북구 장량로 162",
      "url": "http://place.map.kakao.com/26785732",
      "region": "경상북도"
    },
    {
      "lat": 36.02534507962121,
      "lng": 129.339503892456,
      "title": "스타벅스 포항대이",
      "description": "경북 포항시 남구 포스코대로 124",
      "url": "http://place.map.kakao.com/26572123",
      "region": "경상북도"
    },
    {
      "lat": 36.03056895337875,
      "lng": 129.3659461192259,
      "title": "스타벅스 포항중앙로DT점",
      "description": "경북 포항시 북구 중앙로 197",
      "url": "http://place.map.kakao.com/1797583184",
      "region": "경상북도"
    },
    {
      "lat": 36.12806836825446,
      "lng": 128.1013627606303,
      "title": "스타벅스 김천부곡DT점",
      "description": "경북 김천시 시민로 47",
      "url": "http://place.map.kakao.com/198851436",
      "region": "경상북도"
    },
    {
      "lat": 36.1558094547526,
      "lng": 128.429936999991,
      "title": "스타벅스 구미확장단지점",
      "description": "경북 구미시 산동읍 신당1로4길 19",
      "url": "http://place.map.kakao.com/1604324961",
      "region": "경상북도"
    },
    {
      "lat": 35.89737106564709,
      "lng": 128.84973946644607,
      "title": "스타벅스 대구대학교점",
      "description": "경북 경산시 진량읍 대구대로 201",
      "url": "http://place.map.kakao.com/1536569149",
      "region": "경상북도"
    },
    {
      "lat": 35.1705740057763,
      "lng": 128.597245669915,
      "title": "스타벅스 창원마창대교점",
      "description": "경남 창원시 성산구 삼귀로 159",
      "url": "http://place.map.kakao.com/1721581829",
      "region": "경상남도"
    },
    {
      "lat": 35.47217956952956,
      "lng": 129.0789663105635,
      "title": "스타벅스 양산통도사점",
      "description": "경남 양산시 하북면 충렬로 1553",
      "url": "http://place.map.kakao.com/268935223",
      "region": "경상남도"
    },
    {
      "lat": 35.2245827500333,
      "lng": 128.683974530632,
      "title": "스타벅스 창원상남동점",
      "description": "경남 창원시 성산구 상남로 132",
      "url": "http://place.map.kakao.com/7975167",
      "region": "경상남도"
    },
    {
      "lat": 35.1764931497594,
      "lng": 128.812830541795,
      "title": "스타벅스 김해율하점",
      "description": "경남 김해시 율하카페길 77",
      "url": "http://place.map.kakao.com/22728336",
      "region": "경상남도"
    },
    {
      "lat": 35.2279664350992,
      "lng": 128.896540380679,
      "title": "스타벅스 김해대로DT점",
      "description": "경남 김해시 김해대로 2465",
      "url": "http://place.map.kakao.com/26224909",
      "region": "경상남도"
    },
    {
      "lat": 35.2571144342072,
      "lng": 128.607828672243,
      "title": "스타벅스 창원역DT점",
      "description": "경남 창원시 의창구 의창대로 68",
      "url": "http://place.map.kakao.com/1413066124",
      "region": "경상남도"
    },
    {
      "lat": 35.236323350127776,
      "lng": 128.58051587249247,
      "title": "스타벅스 마산역DT점",
      "description": "경남 창원시 마산회원구 3.15대로 715",
      "url": "http://place.map.kakao.com/1203419783",
      "region": "경상남도"
    },
    {
      "lat": 35.48530867235133,
      "lng": 128.75123003568723,
      "title": "스타벅스 밀양DT",
      "description": "경남 밀양시 밀양대로 1792",
      "url": "http://place.map.kakao.com/1554641970",
      "region": "경상남도"
    },
    {
      "lat": 35.3199868785336,
      "lng": 129.030485021257,
      "title": "스타벅스 남양산IC DT점",
      "description": "경남 양산시 동면 양산대로 532",
      "url": "http://place.map.kakao.com/454942889",
      "region": "경상남도"
    },
    {
      "lat": 35.152394315884855,
      "lng": 128.1056269305297,
      "title": "스타벅스 진주경상대점",
      "description": "경남 진주시 진주대로 510",
      "url": "http://place.map.kakao.com/10539082",
      "region": "경상남도"
    },
    {
      "lat": 35.229859179106086,
      "lng": 128.68185063024904,
      "title": "스타벅스 창원용지호수점",
      "description": "경남 창원시 성산구 용지로169번길 1",
      "url": "http://place.map.kakao.com/17048398",
      "region": "경상남도"
    },
    {
      "lat": 35.37607218829315,
      "lng": 129.1555485240279,
      "title": "스타벅스 양산덕계DT점",
      "description": "경남 양산시 웅상대로 860",
      "url": "http://place.map.kakao.com/779053039",
      "region": "경상남도"
    },
    {
      "lat": 34.8907706693737,
      "lng": 128.622183650069,
      "title": "스타벅스 거제고현점",
      "description": "경남 거제시 거제중앙로 1936",
      "url": "http://place.map.kakao.com/26785706",
      "region": "경상남도"
    },
    {
      "lat": 34.8822416927331,
      "lng": 128.422814498619,
      "title": "스타벅스 통영죽림점",
      "description": "경남 통영시 광도면 죽림해안로 64-72",
      "url": "http://place.map.kakao.com/337647351",
      "region": "경상남도"
    },
    {
      "lat": 35.2370849306374,
      "lng": 128.867433914494,
      "title": "스타벅스 김해내동점",
      "description": "경남 김해시 경원로 67",
      "url": "http://place.map.kakao.com/17127101",
      "region": "경상남도"
    },
    {
      "lat": 35.3288552949362,
      "lng": 129.014369778504,
      "title": "스타벅스 양산범어점",
      "description": "경남 양산시 물금읍 범어로 62",
      "url": "http://place.map.kakao.com/22728353",
      "region": "경상남도"
    },
    {
      "lat": 35.2206562603364,
      "lng": 128.574434113903,
      "title": "스타벅스 마산회원DT점",
      "description": "경남 창원시 마산회원구 3.15대로 518",
      "url": "http://place.map.kakao.com/1917576011",
      "region": "경상남도"
    },
    {
      "lat": 35.17854773330515,
      "lng": 128.55854595901678,
      "title": "스타벅스 경남대점",
      "description": "경남 창원시 마산합포구 월영남로 3",
      "url": "http://place.map.kakao.com/18691081",
      "region": "경상남도"
    },
    {
      "lat": 35.171484279232,
      "lng": 128.822794736875,
      "title": "스타벅스 장유율하점",
      "description": "경남 김해시 율하6로 67",
      "url": "http://place.map.kakao.com/871505400",
      "region": "경상남도"
    },
    {
      "lat": 35.2615708041241,
      "lng": 128.871705038313,
      "title": "스타벅스 김해삼계점",
      "description": "경남 김해시 가야로 182",
      "url": "http://place.map.kakao.com/20494141",
      "region": "경상남도"
    },
    {
      "lat": 35.22958284984924,
      "lng": 128.86297082628045,
      "title": "스타벅스 김해외동DT점",
      "description": "경남 김해시 분성로 146-1",
      "url": "http://place.map.kakao.com/25115117",
      "region": "경상남도"
    },
    {
      "lat": 35.08105247337921,
      "lng": 128.08352066431158,
      "title": "스타벅스 경남사천DT",
      "description": "경남 사천시 사천읍 사천대로 1844",
      "url": "http://place.map.kakao.com/80748408",
      "region": "경상남도"
    },
    {
      "lat": 35.204492624864464,
      "lng": 128.58093088921228,
      "title": "스타벅스 마산해안대로DT점",
      "description": "경남 창원시 마산합포구 해안대로 383",
      "url": "http://place.map.kakao.com/1854968598",
      "region": "경상남도"
    },
    {
      "lat": 35.14376362751185,
      "lng": 128.70690238533206,
      "title": "스타벅스 진해자은DT점",
      "description": "경남 창원시 진해구 진해대로 962",
      "url": "http://place.map.kakao.com/289066668",
      "region": "경상남도"
    },
    {
      "lat": 34.9411382236614,
      "lng": 128.086298218313,
      "title": "스타벅스 사천벌리",
      "description": "경남 사천시 주공로 31",
      "url": "http://place.map.kakao.com/25115116",
      "region": "경상남도"
    },
    {
      "lat": 35.2615221428683,
      "lng": 128.522943184278,
      "title": "스타벅스 창원호계DT점",
      "description": "경남 창원시 마산회원구 내서읍 호원로 315",
      "url": "http://place.map.kakao.com/1232634226",
      "region": "경상남도"
    },
    {
      "lat": 34.8547540635143,
      "lng": 128.428162182734,
      "title": "스타벅스 통영북신DT점",
      "description": "경남 통영시 중앙로 273",
      "url": "http://place.map.kakao.com/1537550256",
      "region": "경상남도"
    },
    {
      "lat": 35.1904828475532,
      "lng": 128.801458562064,
      "title": "스타벅스 장유대청점",
      "description": "경남 김해시 계동로 213",
      "url": "http://place.map.kakao.com/658001304",
      "region": "경상남도"
    },
    {
      "lat": 35.30599300301997,
      "lng": 128.7318165234806,
      "title": "스타벅스 김해진영DT점",
      "description": "경남 김해시 진영읍 여래로20번길 34-26",
      "url": "http://place.map.kakao.com/277556026",
      "region": "경상남도"
    },
    {
      "lat": 35.203853597035184,
      "lng": 128.8380529457861,
      "title": "스타벅스 서김해IC DT점",
      "description": "경남 김해시 금관대로 820-22",
      "url": "http://place.map.kakao.com/2106574811",
      "region": "경상남도"
    },
    {
      "lat": 35.19733703566233,
      "lng": 128.11591346061422,
      "title": "스타벅스 진주초전DT점",
      "description": "경남 진주시 대신로 411",
      "url": "http://place.map.kakao.com/1187787691",
      "region": "경상남도"
    },
    {
      "lat": 35.15925102414643,
      "lng": 128.69181846233536,
      "title": "스타벅스 진해경화역DT점",
      "description": "경남 창원시 진해구 진해대로 698",
      "url": "http://place.map.kakao.com/430897156",
      "region": "경상남도"
    },
    {
      "lat": 35.3170519620563,
      "lng": 129.001463860516,
      "title": "스타벅스 양산가촌점",
      "description": "경남 양산시 물금읍 야리로 25",
      "url": "http://place.map.kakao.com/400471280",
      "region": "경상남도"
    },
    {
      "lat": 35.170966078762454,
      "lng": 128.8138525436377,
      "title": "스타벅스 김해율하신도시점",
      "description": "경남 김해시 율하3로 32",
      "url": "http://place.map.kakao.com/649547549",
      "region": "경상남도"
    },
    {
      "lat": 35.2408786146362,
      "lng": 128.884368035564,
      "title": "스타벅스 김해가야로DT점",
      "description": "경남 김해시 가야로 450",
      "url": "http://place.map.kakao.com/806781963",
      "region": "경상남도"
    },
    {
      "lat": 35.23986672609823,
      "lng": 128.86089380799936,
      "title": "스타벅스 김해금관대로DT점",
      "description": "경남 김해시 금관대로 1293",
      "url": "http://place.map.kakao.com/1589517242",
      "region": "경상남도"
    },
    {
      "lat": 35.308923693807685,
      "lng": 129.0093866884271,
      "title": "스타벅스 양산증산역점",
      "description": "경남 양산시 물금읍 증산역로 177",
      "url": "http://place.map.kakao.com/728736421",
      "region": "경상남도"
    },
    {
      "lat": 35.2553185270261,
      "lng": 128.8663887566,
      "title": "스타벅스 김해구산DT점",
      "description": "경남 김해시 김해대로 1918",
      "url": "http://place.map.kakao.com/772105188",
      "region": "경상남도"
    },
    {
      "lat": 35.23881389266445,
      "lng": 128.701303825973,
      "title": "스타벅스 창원중앙역점",
      "description": "경남 창원시 의창구 용동로 91",
      "url": "http://place.map.kakao.com/1868276757",
      "region": "경상남도"
    },
    {
      "lat": 35.2212540073363,
      "lng": 128.681226049295,
      "title": "스타벅스 창원상남로점",
      "description": "경남 창원시 성산구 상남로 88",
      "url": "http://place.map.kakao.com/723155217",
      "region": "경상남도"
    },
    {
      "lat": 35.23528203142204,
      "lng": 128.84349047230805,
      "title": "스타벅스 김해주촌DT점",
      "description": "경남 김해시 주촌면 선천로 99",
      "url": "http://place.map.kakao.com/66553065",
      "region": "경상남도"
    },
    {
      "lat": 34.8438496351079,
      "lng": 128.703426999526,
      "title": "스타벅스 소노캄거제점",
      "description": "경남 거제시 일운면 거제대로 2660",
      "url": "http://place.map.kakao.com/20494133",
      "region": "경상남도"
    },
    {
      "lat": 35.2226741172904,
      "lng": 128.684352427902,
      "title": "스타벅스 창원상남중앙점",
      "description": "경남 창원시 성산구 마디미로 20",
      "url": "http://place.map.kakao.com/20494140",
      "region": "경상남도"
    },
    {
      "lat": 35.11438046314756,
      "lng": 128.48234026727454,
      "title": "스타벅스 마산진동DT점",
      "description": "경남 창원시 마산합포구 진동면 삼진의거대로 589-1",
      "url": "http://place.map.kakao.com/1195699364",
      "region": "경상남도"
    },
    {
      "lat": 35.240083630688204,
      "lng": 128.653527266643,
      "title": "스타벅스 창원시티세븐점",
      "description": "경남 창원시 성산구 원이대로 320",
      "url": "http://place.map.kakao.com/7975168",
      "region": "경상남도"
    },
    {
      "lat": 33.5124867330564,
      "lng": 126.484480056159,
      "title": "스타벅스 제주용담DT점",
      "description": "제주특별자치도 제주시 서해안로 380",
      "url": "http://place.map.kakao.com/26102947",
      "region": "제주특별자치도"
    },
    {
      "lat": 33.4727524725769,
      "lng": 126.34876370442912,
      "title": "스타벅스 제주애월DT점",
      "description": "제주특별자치도 제주시 애월읍 애월해안로 376",
      "url": "http://place.map.kakao.com/1693150085",
      "region": "제주특별자치도"
    },
    {
      "lat": 33.251236988375084,
      "lng": 126.41268258774258,
      "title": "스타벅스 제주중문점",
      "description": "제주특별자치도 서귀포시 중문관광로110번길 32",
      "url": "http://place.map.kakao.com/17884787",
      "region": "제주특별자치도"
    },
    {
      "lat": 33.4496930061935,
      "lng": 126.920676533644,
      "title": "스타벅스 제주성산DT점",
      "description": "제주특별자치도 서귀포시 성산읍 일출로 80",
      "url": "http://place.map.kakao.com/414395112",
      "region": "제주특별자치도"
    },
    {
      "lat": 33.43551932303755,
      "lng": 126.73143570780672,
      "title": "스타벅스 더제주송당파크R점",
      "description": "제주특별자치도 제주시 구좌읍 비자림로 1189",
      "url": "http://place.map.kakao.com/675287243",
      "region": "제주특별자치도"
    },
    {
      "lat": 33.249527586772494,
      "lng": 126.50671281982669,
      "title": "스타벅스 서귀포DT점",
      "description": "제주특별자치도 서귀포시 일주서로 11",
      "url": "http://place.map.kakao.com/27075901",
      "region": "제주특별자치도"
    },
    {
      "lat": 33.4876315370591,
      "lng": 126.481846999162,
      "title": "스타벅스 제주노형점",
      "description": "제주특별자치도 제주시 도령로 27",
      "url": "http://place.map.kakao.com/26801319",
      "region": "제주특별자치도"
    },
    {
      "lat": 33.3937601737581,
      "lng": 126.240413847396,
      "title": "스타벅스 제주협재점",
      "description": "제주특별자치도 제주시 한림읍 한림로 337",
      "url": "http://place.map.kakao.com/1617472209",
      "region": "제주특별자치도"
    },
    {
      "lat": 33.255080223964185,
      "lng": 126.41585694993003,
      "title": "스타벅스 제주중문DT점",
      "description": "제주특별자치도 서귀포시 천제연로 95",
      "url": "http://place.map.kakao.com/26900356",
      "region": "제주특별자치도"
    },
    {
      "lat": 33.46286871822999,
      "lng": 126.93548991195588,
      "title": "스타벅스 성산일출봉점",
      "description": "제주특별자치도 서귀포시 성산읍 일출로 284-5",
      "url": "http://place.map.kakao.com/18143017",
      "region": "제주특별자치도"
    },
    {
      "lat": 33.2067120303362,
      "lng": 126.289876759565,
      "title": "스타벅스 제주송악산점",
      "description": "제주특별자치도 서귀포시 대정읍 형제해안로 322",
      "url": "http://place.map.kakao.com/23900952",
      "region": "제주특별자치도"
    },
    {
      "lat": 33.51328783949437,
      "lng": 126.52522884953653,
      "title": "스타벅스 제주칠성점",
      "description": "제주특별자치도 제주시 관덕로 55",
      "url": "http://place.map.kakao.com/26643820",
      "region": "제주특별자치도"
    },
    {
      "lat": 33.492349142166944,
      "lng": 126.42707156789274,
      "title": "스타벅스 제주외도DT점",
      "description": "제주특별자치도 제주시 일주서로 7300",
      "url": "http://place.map.kakao.com/1443975060",
      "region": "제주특별자치도"
    },
    {
      "lat": 33.50045052298832,
      "lng": 126.52957558837647,
      "title": "스타벅스 제주시청점",
      "description": "제주특별자치도 제주시 중앙로 215",
      "url": "http://place.map.kakao.com/1551305286",
      "region": "제주특별자치도"
    },
    {
      "lat": 33.34789040356117,
      "lng": 126.35932026103856,
      "title": "스타벅스 제주금악DT점",
      "description": "제주특별자치도 제주시 한림읍 평화로 1360-2",
      "url": "http://place.map.kakao.com/1419948248",
      "region": "제주특별자치도"
    },
    {
      "lat": 33.45811026294837,
      "lng": 126.31117923206152,
      "title": "스타벅스 제주한담해변DT점",
      "description": "제주특별자치도 제주시 애월읍 일주서로 6142",
      "url": "http://place.map.kakao.com/1321743392",
      "region": "제주특별자치도"
    },
    {
      "lat": 33.2482727699416,
      "lng": 126.56371735202,
      "title": "스타벅스 서귀포올레점",
      "description": "제주특별자치도 서귀포시 중정로 69",
      "url": "http://place.map.kakao.com/861385120",
      "region": "제주특별자치도"
    },
    {
      "lat": 33.48035855017853,
      "lng": 126.52345148349006,
      "title": "스타벅스 제주도남DT점",
      "description": "제주특별자치도 제주시 연북로 394",
      "url": "http://place.map.kakao.com/800741220",
      "region": "제주특별자치도"
    },
    {
      "lat": 33.305809030014274,
      "lng": 126.31638844973402,
      "title": "스타벅스 제주신화월드R점",
      "description": "제주특별자치도 서귀포시 안덕면 신화역사로304번길 38",
      "url": "http://place.map.kakao.com/258547215",
      "region": "제주특별자치도"
    },
    {
      "lat": 33.511741660993344,
      "lng": 126.58041691604886,
      "title": "스타벅스 제주삼화DT점",
      "description": "제주특별자치도 제주시 연삼로 884",
      "url": "http://place.map.kakao.com/207217035",
      "region": "제주특별자치도"
    },
    {
      "lat": 33.5425009924438,
      "lng": 126.668982665165,
      "title": "스타벅스 제주함덕해변점",
      "description": "제주특별자치도 제주시 조천읍 조함해안로 526",
      "url": "http://place.map.kakao.com/640945310",
      "region": "제주특별자치도"
    },
    {
      "lat": 33.50062487003203,
      "lng": 126.50535463762685,
      "title": "스타벅스 제주공항DT점",
      "description": "제주특별자치도 제주시 월성로 42",
      "url": "http://place.map.kakao.com/808262999",
      "region": "제주특별자치도"
    },
    {
      "lat": 33.4909475460281,
      "lng": 126.47413144406673,
      "title": "스타벅스 제주노형DT점",
      "description": "제주특별자치도 제주시 월랑로 68",
      "url": "http://place.map.kakao.com/99684735",
      "region": "제주특별자치도"
    },
    {
      "lat": 33.463308120964875,
      "lng": 126.45100104505254,
      "title": "스타벅스 제주평화로DT점",
      "description": "제주특별자치도 제주시 노형로 37",
      "url": "http://place.map.kakao.com/1950080547",
      "region": "제주특별자치도"
    },
    {
      "lat": 33.52300395022652,
      "lng": 126.85306034240666,
      "title": "스타벅스 제주세화DT점",
      "description": "제주특별자치도 제주시 구좌읍 일주동로 3121",
      "url": "http://place.map.kakao.com/1656551339",
      "region": "제주특별자치도"
    },
    {
      "lat": 33.255408045647776,
      "lng": 126.5777572587601,
      "title": "스타벅스 제주서귀포토평DT점",
      "description": "제주특별자치도 서귀포시 일주동로 8516",
      "url": "http://place.map.kakao.com/644659137",
      "region": "제주특별자치도"
    },
    {
      "lat": 33.2273673890139,
      "lng": 126.257934156352,
      "title": "스타벅스 제주모슬포DT점",
      "description": "제주특별자치도 서귀포시 대정읍 일주서로 2549",
      "url": "http://place.map.kakao.com/393172582",
      "region": "제주특별자치도"
    },
    {
      "lat": 33.2918139835139,
      "lng": 126.284305535946,
      "title": "스타벅스 제주에듀시티점",
      "description": "제주특별자치도 서귀포시 대정읍 에듀시티로 36",
      "url": "http://place.map.kakao.com/1013067175",
      "region": "제주특별자치도"
    },
    {
      "lat": 33.5072915962096,
      "lng": 126.540815434556,
      "title": "스타벅스 제주일도DT점",
      "description": "제주특별자치도 제주시 동광로 130",
      "url": "http://place.map.kakao.com/1606770927",
      "region": "제주특별자치도"
    },
    {
      "lat": 33.4834413723803,
      "lng": 126.476159769698,
      "title": "스타벅스 제주노형로점",
      "description": "제주특별자치도 제주시 노형로 376",
      "url": "http://place.map.kakao.com/1724948866",
      "region": "제주특별자치도"
    },
    {
      "lat": 33.4847870355725,
      "lng": 126.480344682643,
      "title": "스타벅스 신제주이마트점",
      "description": "제주특별자치도 제주시 1100로 3348",
      "url": "http://place.map.kakao.com/21580659",
      "region": "제주특별자치도"
    },
    {
      "lat": 33.4690196498248,
      "lng": 126.484585878722,
      "title": "스타벅스 제주한라수목원DT점",
      "description": "제주특별자치도 제주시 수목원서길 3-5",
      "url": "http://place.map.kakao.com/1251294517",
      "region": "제주특별자치도"
    },
    {
      "lat": 33.51682585588171,
      "lng": 126.50363069448937,
      "title": "스타벅스 제주서해안로DT점 주차장",
      "description": "제주특별자치도 제주시 용담삼동 1020-1",
      "url": "http://place.map.kakao.com/1836166339",
      "region": "제주특별자치도"
    },
    {
      "lat": 33.3479425019797,
      "lng": 126.35893314447,
      "title": "스타벅스 제주금악DT점 주차장",
      "description": "제주특별자치도 제주시 한림읍 금악리 6-15",
      "url": "http://place.map.kakao.com/1427445955",
      "region": "제주특별자치도"
    },
    {
      "lat": 33.5124328463336,
      "lng": 126.484313548948,
      "title": "스타벅스 제주용담DT점 주차장",
      "description": "제주특별자치도 제주시 용담삼동 2572-4",
      "url": "http://place.map.kakao.com/1353477449",
      "region": "제주특별자치도"
    },
    {
      "lat": 33.4923274947696,
      "lng": 126.427069558363,
      "title": "스타벅스 제주외도DT점 주차장",
      "description": "제주특별자치도 제주시 일주서로 7300",
      "url": "http://place.map.kakao.com/1353097174",
      "region": "제주특별자치도"
    },
    {
      "lat": 33.5004311955922,
      "lng": 126.505396633081,
      "title": "스타벅스 제주공항DT점 주차장",
      "description": "제주특별자치도 제주시 용담이동 2754-1",
      "url": "http://place.map.kakao.com/1341309588",
      "region": "제주특별자치도"
    },
    {
      "lat": 33.2550202759744,
      "lng": 126.415955003646,
      "title": "스타벅스 제주중문DT점 주차장",
      "description": "제주특별자치도 서귀포시 색달동 2476-1",
      "url": "http://place.map.kakao.com/1649968665",
      "region": "제주특별자치도"
    },
    {
      "lat": 33.393742261364,
      "lng": 126.24043334991,
      "title": "스타벅스 제주협재점 주차장",
      "description": "제주특별자치도 제주시 한림읍 한림로 337",
      "url": "http://place.map.kakao.com/1353098351",
      "region": "제주특별자치도"
    },
    {
      "lat": 33.4727980000074,
      "lng": 126.348711725393,
      "title": "스타벅스 제주애월DT점 주차장",
      "description": "제주특별자치도 제주시 애월읍 고내리 340",
      "url": "http://place.map.kakao.com/1849799407",
      "region": "제주특별자치도"
    },
    {
      "lat": 33.4802372342416,
      "lng": 126.523320887219,
      "title": "스타벅스 제주도남DT점 주차장",
      "description": "제주특별자치도 제주시 도남동 377",
      "url": "http://place.map.kakao.com/1362763782",
      "region": "제주특별자치도"
    },
    {
      "lat": 33.4497082943452,
      "lng": 126.920615213766,
      "title": "스타벅스 제주성산DT점 주차장",
      "description": "제주특별자치도 서귀포시 성산읍 고성리 238",
      "url": "http://place.map.kakao.com/1648733158",
      "region": "제주특별자치도"
    },
    {
      "lat": 33.5004316594655,
      "lng": 126.529593985066,
      "title": "스타벅스 제주시청점 주차장",
      "description": "제주특별자치도 제주시 중앙로 215",
      "url": "http://place.map.kakao.com/652636763",
      "region": "제주특별자치도"
    },
    {
      "lat": 33.5118482706417,
      "lng": 126.580216209601,
      "title": "스타벅스 제주삼화DT점 주차장",
      "description": "제주특별자치도 제주시 연삼로 884",
      "url": "http://place.map.kakao.com/652371422",
      "region": "제주특별자치도"
    },
    {
      "lat": 33.24954265762288,
      "lng": 126.50642086035919,
      "title": "스타벅스 서귀포DT점 주차장",
      "description": "제주특별자치도 서귀포시 강정동 246",
      "url": "http://place.map.kakao.com/1508209138",
      "region": "제주특별자치도"
    }
  ]
}