{
  "pins": [
    {
      "lat": 37.563843796856155,
      "lng": 127.00302206778811,
      "title": "뚜레쥬르 제일제당센터점",
      "description": "서울 중구 동호로 330",
      "url": "http://place.map.kakao.com/15686257",
      "region": "서울특별시"
    },
    {
      "lat": 37.497510485431114,
      "lng": 127.0319761593431,
      "title": "뚜레쥬르 카페역삼점",
      "description": "서울 강남구 테헤란로8길 21",
      "url": "http://place.map.kakao.com/114999525",
      "region": "서울특별시"
    },
    {
      "lat": 37.5016429907499,
      "lng": 127.026335756935,
      "title": "뚜레쥬르 강남직영점",
      "description": "서울 강남구 강남대로 438",
      "url": "http://place.map.kakao.com/1132994878",
      "region": "서울특별시"
    },
    {
      "lat": 37.4897696637045,
      "lng": 127.032958866322,
      "title": "뚜레쥬르 뱅뱅사거리점",
      "description": "서울 강남구 도곡로 112",
      "url": "http://place.map.kakao.com/8941997",
      "region": "서울특별시"
    },
    {
      "lat": 37.50707138794286,
      "lng": 127.09277615559203,
      "title": "뚜레쥬르 잠실점",
      "description": "서울 송파구 석촌호수로 142",
      "url": "http://place.map.kakao.com/989475632",
      "region": "서울특별시"
    },
    {
      "lat": 37.54267776114825,
      "lng": 126.95203626118322,
      "title": "뚜레쥬르 공덕해링턴점",
      "description": "서울 마포구 마포대로 92",
      "url": "http://place.map.kakao.com/309401151",
      "region": "서울특별시"
    },
    {
      "lat": 37.5158418755695,
      "lng": 127.042064655792,
      "title": "뚜레쥬르 강남구청역점",
      "description": "서울 강남구 선릉로 664",
      "url": "http://place.map.kakao.com/10364590",
      "region": "서울특별시"
    },
    {
      "lat": 37.525564711116985,
      "lng": 127.02604889934226,
      "title": "뚜레쥬르 압구정직영점",
      "description": "서울 강남구 압구정로 152",
      "url": "http://place.map.kakao.com/21332413",
      "region": "서울특별시"
    },
    {
      "lat": 37.5090364946663,
      "lng": 127.02269529854534,
      "title": "뚜레쥬르 카페강남대로점",
      "description": "서울 강남구 강남대로 524",
      "url": "http://place.map.kakao.com/1266571235",
      "region": "서울특별시"
    },
    {
      "lat": 37.561304898516454,
      "lng": 126.98600275506527,
      "title": "뚜레쥬르 명동역점",
      "description": "서울 중구 퇴계로 131",
      "url": "http://place.map.kakao.com/16983183",
      "region": "서울특별시"
    },
    {
      "lat": 37.5440437089964,
      "lng": 126.949944261228,
      "title": "뚜레쥬르 공덕역점",
      "description": "서울 마포구 백범로 178",
      "url": "http://place.map.kakao.com/10366648",
      "region": "서울특별시"
    },
    {
      "lat": 37.49455517830174,
      "lng": 127.11925902588493,
      "title": "뚜레쥬르 카페센티움점",
      "description": "서울 송파구 송파대로30길 16",
      "url": "http://place.map.kakao.com/10368837",
      "region": "서울특별시"
    },
    {
      "lat": 37.48470827032487,
      "lng": 126.93066306225133,
      "title": "뚜레쥬르 신림사거리점",
      "description": "서울 관악구 남부순환로 1619-1",
      "url": "http://place.map.kakao.com/847410396",
      "region": "서울특별시"
    },
    {
      "lat": 37.4807765219589,
      "lng": 126.953172544053,
      "title": "뚜레쥬르 카페서울대입구역점",
      "description": "서울 관악구 남부순환로 1830",
      "url": "http://place.map.kakao.com/1585935864",
      "region": "서울특별시"
    },
    {
      "lat": 37.6230982211578,
      "lng": 127.08022647335,
      "title": "뚜레쥬르 카페공릉중앙점",
      "description": "서울 노원구 공릉로38길 14",
      "url": "http://place.map.kakao.com/12394827",
      "region": "서울특별시"
    },
    {
      "lat": 37.4828423875783,
      "lng": 126.982350747717,
      "title": "뚜레쥬르 이수역점",
      "description": "서울 서초구 동작대로 70",
      "url": "http://place.map.kakao.com/453744186",
      "region": "서울특별시"
    },
    {
      "lat": 37.4950423107504,
      "lng": 127.015682231875,
      "title": "뚜레쥬르 카페교대역점",
      "description": "서울 서초구 서초중앙로24길 19",
      "url": "http://place.map.kakao.com/2067431752",
      "region": "서울특별시"
    },
    {
      "lat": 37.556616315171816,
      "lng": 127.079482884947,
      "title": "뚜레쥬르 군자역점",
      "description": "서울 광진구 능동로 302",
      "url": "http://place.map.kakao.com/21655585",
      "region": "서울특별시"
    },
    {
      "lat": 37.481481190336005,
      "lng": 127.12399474674523,
      "title": "뚜레쥬르 카페송파파크하비오점",
      "description": "서울 송파구 송파대로 111",
      "url": "http://place.map.kakao.com/470540287",
      "region": "서울특별시"
    },
    {
      "lat": 37.483394078335344,
      "lng": 126.89979652261218,
      "title": "뚜레쥬르 구로디지털직영점",
      "description": "서울 구로구 디지털로32길 79",
      "url": "http://place.map.kakao.com/1387485585",
      "region": "서울특별시"
    },
    {
      "lat": 37.56723891441438,
      "lng": 126.98010438349795,
      "title": "뚜레쥬르 무교점",
      "description": "서울 중구 남대문로9길 40",
      "url": "http://place.map.kakao.com/1832574725",
      "region": "서울특별시"
    },
    {
      "lat": 37.5297743303957,
      "lng": 126.846973112242,
      "title": "뚜레쥬르 까치산역마크원점",
      "description": "서울 강서구 곰달래로24길 16",
      "url": "http://place.map.kakao.com/1625914510",
      "region": "서울특별시"
    },
    {
      "lat": 37.5034485088924,
      "lng": 127.126661650646,
      "title": "뚜레쥬르 카페오금역점",
      "description": "서울 송파구 오금로 307",
      "url": "http://place.map.kakao.com/49831552",
      "region": "서울특별시"
    },
    {
      "lat": 37.48577461963017,
      "lng": 126.91358539442506,
      "title": "뚜레쥬르 신대방역점",
      "description": "서울 관악구 난곡로 355-1",
      "url": "http://place.map.kakao.com/1345849144",
      "region": "서울특별시"
    },
    {
      "lat": 37.56705752825598,
      "lng": 127.05294844754611,
      "title": "뚜레쥬르 카페답십리역점",
      "description": "서울 동대문구 천호대로 281",
      "url": "http://place.map.kakao.com/1878179963",
      "region": "서울특별시"
    },
    {
      "lat": 37.534822607227085,
      "lng": 126.99611130312968,
      "title": "뚜레쥬르 카페이태원역점",
      "description": "서울 용산구 이태원로 199",
      "url": "http://place.map.kakao.com/1041130517",
      "region": "서울특별시"
    },
    {
      "lat": 37.5651941765292,
      "lng": 127.01650282529762,
      "title": "뚜레쥬르 신당역점",
      "description": "서울 중구 퇴계로 404",
      "url": "http://place.map.kakao.com/10367598",
      "region": "서울특별시"
    },
    {
      "lat": 37.4991865359343,
      "lng": 127.0345417187,
      "title": "뚜레쥬르 역삼역점",
      "description": "서울 강남구 테헤란로20길 9",
      "url": "http://place.map.kakao.com/1653372698",
      "region": "서울특별시"
    },
    {
      "lat": 37.55455680303488,
      "lng": 126.93557796729554,
      "title": "뚜레쥬르 신촌로터리점",
      "description": "서울 마포구 서강로 137",
      "url": "http://place.map.kakao.com/422438434",
      "region": "서울특별시"
    },
    {
      "lat": 37.52274075892758,
      "lng": 126.86998668825441,
      "title": "뚜레쥬르 카페목동승희점",
      "description": "서울 양천구 목동동로 189",
      "url": "http://place.map.kakao.com/321848015",
      "region": "서울특별시"
    },
    {
      "lat": 37.6558589810634,
      "lng": 127.062219145378,
      "title": "뚜레쥬르 카페노원역점",
      "description": "서울 노원구 상계로 64",
      "url": "http://place.map.kakao.com/1544035401",
      "region": "서울특별시"
    },
    {
      "lat": 37.4944206592384,
      "lng": 126.83293388507,
      "title": "뚜레쥬르 온수역북부점",
      "description": "서울 구로구 부일로15길 33",
      "url": "http://place.map.kakao.com/15766240",
      "region": "서울특별시"
    },
    {
      "lat": 37.5037494063397,
      "lng": 127.08923668758703,
      "title": "뚜레쥬르 카페송파황실점",
      "description": "서울 송파구 백제고분로 204",
      "url": "http://place.map.kakao.com/21353084",
      "region": "서울특별시"
    },
    {
      "lat": 37.6127250083958,
      "lng": 127.026974025826,
      "title": "뚜레쥬르 송천센트레빌점",
      "description": "서울 강북구 숭인로 39",
      "url": "http://place.map.kakao.com/15094699",
      "region": "서울특별시"
    },
    {
      "lat": 37.50745583100135,
      "lng": 127.08349897004355,
      "title": "뚜레쥬르 잠실새내점",
      "description": "서울 송파구 올림픽로12길 48",
      "url": "http://place.map.kakao.com/592889729",
      "region": "서울특별시"
    },
    {
      "lat": 37.506931896308096,
      "lng": 127.06233510448865,
      "title": "뚜레쥬르 삼성역점",
      "description": "서울 강남구 영동대로85길 17",
      "url": "http://place.map.kakao.com/21414081",
      "region": "서울특별시"
    },
    {
      "lat": 37.643007905256155,
      "lng": 127.03746351640456,
      "title": "뚜레쥬르 창동대우점",
      "description": "서울 도봉구 덕릉로63가길 60",
      "url": "http://place.map.kakao.com/15669200",
      "region": "서울특별시"
    },
    {
      "lat": 37.4979315787846,
      "lng": 126.952847453484,
      "title": "뚜레쥬르 상도래미안점",
      "description": "서울 동작구 상도로37길 74",
      "url": "http://place.map.kakao.com/7850407",
      "region": "서울특별시"
    },
    {
      "lat": 37.51275091804111,
      "lng": 126.94005230828884,
      "title": "뚜레쥬르 노량진삼거리점",
      "description": "서울 동작구 장승배기로 169",
      "url": "http://place.map.kakao.com/10367455",
      "region": "서울특별시"
    },
    {
      "lat": 37.6054140581721,
      "lng": 126.910365677419,
      "title": "뚜레쥬르 역촌2동점",
      "description": "서울 은평구 갈현로 81",
      "url": "http://place.map.kakao.com/7850682",
      "region": "서울특별시"
    },
    {
      "lat": 37.627397247249945,
      "lng": 127.07689153062202,
      "title": "뚜레쥬르 공릉점",
      "description": "서울 노원구 동일로192길 77",
      "url": "http://place.map.kakao.com/26544236",
      "region": "서울특별시"
    },
    {
      "lat": 37.5850084473652,
      "lng": 127.019170088062,
      "title": "뚜레쥬르 보문역점",
      "description": "서울 성북구 지봉로 184",
      "url": "http://place.map.kakao.com/19883954",
      "region": "서울특별시"
    },
    {
      "lat": 37.51585823442187,
      "lng": 127.13142999390452,
      "title": "뚜레쥬르 올림픽공원역점",
      "description": "서울 송파구 양재대로 1222",
      "url": "http://place.map.kakao.com/908316159",
      "region": "서울특별시"
    },
    {
      "lat": 37.5588043334945,
      "lng": 127.0334283824,
      "title": "뚜레쥬르 행당역점",
      "description": "서울 성동구 행당로17길 3",
      "url": "http://place.map.kakao.com/7859951",
      "region": "서울특별시"
    },
    {
      "lat": 37.5718169603255,
      "lng": 126.980632932945,
      "title": "뚜레쥬르 종로구청점",
      "description": "서울 종로구 종로5길 34",
      "url": "http://place.map.kakao.com/1150183579",
      "region": "서울특별시"
    },
    {
      "lat": 35.1105482791307,
      "lng": 129.037354076421,
      "title": "뚜레쥬르 부산중앙대로점",
      "description": "부산 중구 중앙대로 145",
      "url": "http://place.map.kakao.com/22454710",
      "region": "부산광역시"
    },
    {
      "lat": 35.1535682897488,
      "lng": 129.059732739192,
      "title": "뚜레쥬르 부산서면점",
      "description": "부산 부산진구 신천대로50번길 61",
      "url": "http://place.map.kakao.com/2002584778",
      "region": "부산광역시"
    },
    {
      "lat": 35.178290120557,
      "lng": 129.074548099395,
      "title": "뚜레쥬르 부산시청점",
      "description": "부산 부산진구 진연로 5",
      "url": "http://place.map.kakao.com/1896175519",
      "region": "부산광역시"
    },
    {
      "lat": 35.1897121414571,
      "lng": 129.126541237168,
      "title": "뚜레쥬르 부산재송점",
      "description": "부산 해운대구 재반로125번길 2",
      "url": "http://place.map.kakao.com/183402591",
      "region": "부산광역시"
    },
    {
      "lat": 35.187695210226,
      "lng": 129.080602832301,
      "title": "뚜레쥬르 부산연산점",
      "description": "부산 연제구 중앙대로 1121",
      "url": "http://place.map.kakao.com/541103400",
      "region": "부산광역시"
    },
    {
      "lat": 35.19655929586304,
      "lng": 129.06416070301273,
      "title": "뚜레쥬르 부산사직점",
      "description": "부산 동래구 사직로 16",
      "url": "http://place.map.kakao.com/709954646",
      "region": "부산광역시"
    },
    {
      "lat": 35.1032749842477,
      "lng": 129.027624022713,
      "title": "뚜레쥬르 대청로점",
      "description": "부산 중구 대청로 71",
      "url": "http://place.map.kakao.com/993432538",
      "region": "부산광역시"
    },
    {
      "lat": 35.15739324869405,
      "lng": 129.11337149015304,
      "title": "뚜레쥬르 부산광안역점",
      "description": "부산 수영구 수영로582번길 10",
      "url": "http://place.map.kakao.com/106349358",
      "region": "부산광역시"
    },
    {
      "lat": 35.25009278681915,
      "lng": 129.08765624827666,
      "title": "뚜레쥬르 부산구서롯데캐슬점",
      "description": "부산 금정구 금강로 479",
      "url": "http://place.map.kakao.com/285547870",
      "region": "부산광역시"
    },
    {
      "lat": 35.1409621863827,
      "lng": 129.106406925162,
      "title": "뚜레쥬르 부산대남교차로점",
      "description": "부산 수영구 수영로 381",
      "url": "http://place.map.kakao.com/18793853",
      "region": "부산광역시"
    },
    {
      "lat": 35.1633000172771,
      "lng": 128.98433101204,
      "title": "뚜레쥬르 부산사상터미널점",
      "description": "부산 사상구 사상로 204",
      "url": "http://place.map.kakao.com/19623047",
      "region": "부산광역시"
    },
    {
      "lat": 35.15581047802985,
      "lng": 129.12456759690946,
      "title": "뚜레쥬르 부산광안점",
      "description": "부산 수영구 광안해변로 282",
      "url": "http://place.map.kakao.com/440703972",
      "region": "부산광역시"
    },
    {
      "lat": 35.17310699746001,
      "lng": 129.1277822501013,
      "title": "뚜레쥬르 부산센텀점",
      "description": "부산 해운대구 센텀중앙로 55",
      "url": "http://place.map.kakao.com/1985926689",
      "region": "부산광역시"
    },
    {
      "lat": 35.2100104810507,
      "lng": 129.005925619313,
      "title": "뚜레쥬르 부산덕천로터리점",
      "description": "부산 북구 백양대로 1204",
      "url": "http://place.map.kakao.com/17175514",
      "region": "부산광역시"
    },
    {
      "lat": 35.1876945266225,
      "lng": 129.067545653855,
      "title": "뚜레쥬르 부산레이카운티점",
      "description": "부산 연제구 금용로11번길 1",
      "url": "http://place.map.kakao.com/1067542502",
      "region": "부산광역시"
    },
    {
      "lat": 35.149160796106024,
      "lng": 129.05951519752216,
      "title": "뚜레쥬르 사랑모아범천점",
      "description": "부산 부산진구 중앙대로 632",
      "url": "http://place.map.kakao.com/2000142336",
      "region": "부산광역시"
    },
    {
      "lat": 35.1926795423299,
      "lng": 129.103542599284,
      "title": "뚜레쥬르 부산안락점",
      "description": "부산 동래구 안남로 108",
      "url": "http://place.map.kakao.com/774118255",
      "region": "부산광역시"
    },
    {
      "lat": 35.147451669064125,
      "lng": 129.11011910249175,
      "title": "뚜레쥬르 부산남천점",
      "description": "부산 수영구 수영로 465",
      "url": "http://place.map.kakao.com/13049748",
      "region": "부산광역시"
    },
    {
      "lat": 35.1554479740619,
      "lng": 129.146606367607,
      "title": "뚜레쥬르 부산해운대마린점",
      "description": "부산 해운대구 마린시티3로 37",
      "url": "http://place.map.kakao.com/636547982",
      "region": "부산광역시"
    },
    {
      "lat": 35.0815767719324,
      "lng": 129.070574075969,
      "title": "뚜레쥬르 영도미라주점",
      "description": "부산 영도구 동삼로 89",
      "url": "http://place.map.kakao.com/27605262",
      "region": "부산광역시"
    },
    {
      "lat": 35.16995037312669,
      "lng": 129.1777269545716,
      "title": "뚜레쥬르 부산장산역점",
      "description": "부산 해운대구 해운대로 814",
      "url": "http://place.map.kakao.com/11076940",
      "region": "부산광역시"
    },
    {
      "lat": 35.1374064897698,
      "lng": 129.100787418872,
      "title": "뚜레쥬르 경성대부경대점",
      "description": "부산 남구 수영로 312",
      "url": "http://place.map.kakao.com/1713945870",
      "region": "부산광역시"
    },
    {
      "lat": 35.1754260206727,
      "lng": 129.048893858635,
      "title": "뚜레쥬르 부산초읍점",
      "description": "부산 부산진구 새싹로 216",
      "url": "http://place.map.kakao.com/1807733303",
      "region": "부산광역시"
    },
    {
      "lat": 35.1235953420924,
      "lng": 129.09725066999,
      "title": "뚜레쥬르 부산용당점",
      "description": "부산 남구 유엔평화로 143",
      "url": "http://place.map.kakao.com/95330675",
      "region": "부산광역시"
    },
    {
      "lat": 35.231047753218085,
      "lng": 129.0866759978234,
      "title": "뚜레쥬르 부산대학교점",
      "description": "부산 금정구 금정로 72",
      "url": "http://place.map.kakao.com/10373369",
      "region": "부산광역시"
    },
    {
      "lat": 35.1533684948544,
      "lng": 129.0319761511106,
      "title": "뚜레쥬르 부산동의대역점",
      "description": "부산 부산진구 가야동 700-1",
      "url": "http://place.map.kakao.com/2052339691",
      "region": "부산광역시"
    },
    {
      "lat": 35.20601016562389,
      "lng": 129.0789818009623,
      "title": "뚜레쥬르 부산동래역점",
      "description": "부산 동래구 온천천로 149-1",
      "url": "http://place.map.kakao.com/10368833",
      "region": "부산광역시"
    },
    {
      "lat": 35.16305127616086,
      "lng": 129.06301161364107,
      "title": "뚜레쥬르 부산부전역점",
      "description": "부산 부산진구 중앙대로 797",
      "url": "http://place.map.kakao.com/1679435790",
      "region": "부산광역시"
    },
    {
      "lat": 35.2545017101291,
      "lng": 129.217802174982,
      "title": "뚜레쥬르 기장교리점",
      "description": "부산 기장군 기장읍 차성로 436",
      "url": "http://place.map.kakao.com/1811387175",
      "region": "부산광역시"
    },
    {
      "lat": 35.110782921534025,
      "lng": 128.96519589633195,
      "title": "뚜레쥬르 부산동아대점",
      "description": "부산 사하구 낙동대로 523",
      "url": "http://place.map.kakao.com/7858523",
      "region": "부산광역시"
    },
    {
      "lat": 35.11126211903618,
      "lng": 129.0116721237105,
      "title": "뚜레쥬르 부산서대신역점",
      "description": "부산 서구 대티로 178",
      "url": "http://place.map.kakao.com/1058195562",
      "region": "부산광역시"
    },
    {
      "lat": 35.0754952605916,
      "lng": 129.016116738976,
      "title": "뚜레쥬르 부산송도점",
      "description": "부산 서구 암남공원로 1",
      "url": "http://place.map.kakao.com/1995453664",
      "region": "부산광역시"
    },
    {
      "lat": 35.22939902785462,
      "lng": 129.01287177547616,
      "title": "뚜레쥬르 부산화명점",
      "description": "부산 북구 화명동 1130-9",
      "url": "http://place.map.kakao.com/474252079",
      "region": "부산광역시"
    },
    {
      "lat": 35.16997866923626,
      "lng": 129.03600783010643,
      "title": "뚜레쥬르 부산당감점",
      "description": "부산 부산진구 당감서로98번길 32",
      "url": "http://place.map.kakao.com/1025039682",
      "region": "부산광역시"
    },
    {
      "lat": 35.12886537271411,
      "lng": 129.04847678748183,
      "title": "뚜레쥬르 부산진역점",
      "description": "부산 동구 중앙대로 373",
      "url": "http://place.map.kakao.com/12394710",
      "region": "부산광역시"
    },
    {
      "lat": 35.1288650783231,
      "lng": 129.08530998584098,
      "title": "뚜레쥬르 부산대연점",
      "description": "부산 남구 유엔로 81",
      "url": "http://place.map.kakao.com/1084131147",
      "region": "부산광역시"
    },
    {
      "lat": 35.247592984727,
      "lng": 129.012629454213,
      "title": "뚜레쥬르 율리역점",
      "description": "부산 북구 학사로 299",
      "url": "http://place.map.kakao.com/874711299",
      "region": "부산광역시"
    },
    {
      "lat": 35.1334836773672,
      "lng": 129.0592244006947,
      "title": "뚜레쥬르 부산범일오션점",
      "description": "부산 동구 범일로 41",
      "url": "http://place.map.kakao.com/1412684254",
      "region": "부산광역시"
    },
    {
      "lat": 35.17554122729552,
      "lng": 129.08191953360136,
      "title": "뚜레쥬르 연제이마트점",
      "description": "부산 연제구 연수로 103",
      "url": "http://place.map.kakao.com/919117568",
      "region": "부산광역시"
    },
    {
      "lat": 35.1065026863346,
      "lng": 128.963948222848,
      "title": "뚜레쥬르 부산하단역점",
      "description": "부산 사하구 낙동남로 1391",
      "url": "http://place.map.kakao.com/1576581215",
      "region": "부산광역시"
    },
    {
      "lat": 35.0546096048995,
      "lng": 128.970382659703,
      "title": "뚜레쥬르 부산다대점",
      "description": "부산 사하구 다대로 582",
      "url": "http://place.map.kakao.com/1364903453",
      "region": "부산광역시"
    },
    {
      "lat": 35.1445939865061,
      "lng": 129.065055774276,
      "title": "뚜레쥬르 부산문현금융단지점",
      "description": "부산 남구 문현금융로 22",
      "url": "http://place.map.kakao.com/835389093",
      "region": "부산광역시"
    },
    {
      "lat": 35.13132013153167,
      "lng": 129.11197881734262,
      "title": "뚜레쥬르 용호메트로점",
      "description": "부산 남구 분포로 61",
      "url": "http://place.map.kakao.com/251352126",
      "region": "부산광역시"
    },
    {
      "lat": 35.210653769383164,
      "lng": 129.07325770548084,
      "title": "뚜레쥬르 부산동래래미안점",
      "description": "부산 동래구 충렬대로107번길 65",
      "url": "http://place.map.kakao.com/1663598831",
      "region": "부산광역시"
    },
    {
      "lat": 35.2212946241521,
      "lng": 129.085578439934,
      "title": "뚜레쥬르 동래허브스카이점",
      "description": "부산 동래구 중앙대로 1523",
      "url": "http://place.map.kakao.com/1551817342",
      "region": "부산광역시"
    },
    {
      "lat": 35.8713775288251,
      "lng": 128.630735511779,
      "title": "뚜레쥬르 동대구더샵디어엘로점",
      "description": "대구 동구 화랑로 33",
      "url": "http://place.map.kakao.com/1833614834",
      "region": "대구광역시"
    },
    {
      "lat": 35.85822426179581,
      "lng": 128.58244530385596,
      "title": "뚜레쥬르 대구남산점",
      "description": "대구 중구 남산로7길 7",
      "url": "http://place.map.kakao.com/1019286901",
      "region": "대구광역시"
    },
    {
      "lat": 35.87879316955545,
      "lng": 128.58822686900646,
      "title": "뚜레쥬르 대구역오페라점",
      "description": "대구 북구 칠성남로 70",
      "url": "http://place.map.kakao.com/1995110949",
      "region": "대구광역시"
    },
    {
      "lat": 35.88831264555751,
      "lng": 128.62588022711108,
      "title": "뚜레쥬르 동대구해모로점",
      "description": "대구 동구 동북로 340",
      "url": "http://place.map.kakao.com/322202911",
      "region": "대구광역시"
    },
    {
      "lat": 35.8661092858151,
      "lng": 128.604048629601,
      "title": "뚜레쥬르 경북대병원점",
      "description": "대구 중구 동덕로 130",
      "url": "http://place.map.kakao.com/834222610",
      "region": "대구광역시"
    },
    {
      "lat": 35.898926037272496,
      "lng": 128.61547929386765,
      "title": "뚜레쥬르 복현GS점",
      "description": "대구 북구 검단로 12",
      "url": "http://place.map.kakao.com/17615276",
      "region": "대구광역시"
    },
    {
      "lat": 35.8543227451959,
      "lng": 128.620133805578,
      "title": "뚜레쥬르 수성3가캐슬점",
      "description": "대구 수성구 명덕로 455",
      "url": "http://place.map.kakao.com/21371563",
      "region": "대구광역시"
    },
    {
      "lat": 35.88767483544594,
      "lng": 128.57378445272357,
      "title": "뚜레쥬르 서대구센트럴자이점",
      "description": "대구 서구 고성로 33",
      "url": "http://place.map.kakao.com/488603538",
      "region": "대구광역시"
    },
    {
      "lat": 35.876373559737345,
      "lng": 128.58174331354684,
      "title": "뚜레쥬르 대구달성공원역점",
      "description": "대구 중구 달성로 123",
      "url": "http://place.map.kakao.com/988182100",
      "region": "대구광역시"
    },
    {
      "lat": 35.888852564856066,
      "lng": 128.59095377110657,
      "title": "뚜레쥬르 침산명성푸르지오점",
      "description": "대구 북구 침산로 153",
      "url": "http://place.map.kakao.com/21535695",
      "region": "대구광역시"
    },
    {
      "lat": 35.86710580309855,
      "lng": 128.6229093514742,
      "title": "뚜레쥬르 청구성조점",
      "description": "대구 수성구 국채보상로 846",
      "url": "http://place.map.kakao.com/7849398",
      "region": "대구광역시"
    },
    {
      "lat": 35.81861723766158,
      "lng": 128.5374367144793,
      "title": "뚜레쥬르 대구상인역점",
      "description": "대구 달서구 월배로 220",
      "url": "http://place.map.kakao.com/466743927",
      "region": "대구광역시"
    },
    {
      "lat": 35.93150718614044,
      "lng": 128.55713533111884,
      "title": "뚜레쥬르 칠곡구암점",
      "description": "대구 북구 구암로 150",
      "url": "http://place.map.kakao.com/14757626",
      "region": "대구광역시"
    },
    {
      "lat": 35.87893024602694,
      "lng": 128.62852301497156,
      "title": "뚜레쥬르 동대구역사점",
      "description": "대구 동구 동대구로 550",
      "url": "http://place.map.kakao.com/1115222673",
      "region": "대구광역시"
    },
    {
      "lat": 35.8433747392694,
      "lng": 128.536165745366,
      "title": "뚜레쥬르 대구본리점",
      "description": "대구 달서구 장기로 221",
      "url": "http://place.map.kakao.com/441241453",
      "region": "대구광역시"
    },
    {
      "lat": 35.85018655489121,
      "lng": 128.60367578553536,
      "title": "뚜레쥬르 대구대봉점",
      "description": "대구 남구 대봉로 128",
      "url": "http://place.map.kakao.com/760033987",
      "region": "대구광역시"
    },
    {
      "lat": 35.83749175130062,
      "lng": 128.62129542588187,
      "title": "뚜레쥬르 대구두산점",
      "description": "대구 수성구 청수로24길 59",
      "url": "http://place.map.kakao.com/7849542",
      "region": "대구광역시"
    },
    {
      "lat": 35.899639834014124,
      "lng": 128.61084429097687,
      "title": "뚜레쥬르 산격대우점",
      "description": "대구 북구 동북로 163",
      "url": "http://place.map.kakao.com/7849993",
      "region": "대구광역시"
    },
    {
      "lat": 35.922891139829595,
      "lng": 128.63759905526157,
      "title": "뚜레쥬르 이시아폴리스점",
      "description": "대구 동구 팔공로51길 31",
      "url": "http://place.map.kakao.com/22961357",
      "region": "대구광역시"
    },
    {
      "lat": 35.8578870786864,
      "lng": 128.53029311893,
      "title": "뚜레쥬르 대구용산점",
      "description": "대구 달서구 용산로 225",
      "url": "http://place.map.kakao.com/7849663",
      "region": "대구광역시"
    },
    {
      "lat": 35.87014962357423,
      "lng": 128.5587702131833,
      "title": "뚜레쥬르 대구서구청점",
      "description": "대구 서구 국채보상로50길 20",
      "url": "http://place.map.kakao.com/316234648",
      "region": "대구광역시"
    },
    {
      "lat": 35.8385883520922,
      "lng": 128.628232416596,
      "title": "뚜레쥬르 대구황금점",
      "description": "대구 수성구 청수로38길 7",
      "url": "http://place.map.kakao.com/1921238961",
      "region": "대구광역시"
    },
    {
      "lat": 35.81394329679886,
      "lng": 128.52204430977253,
      "title": "뚜레쥬르 대구진천역점",
      "description": "대구 달서구 월배로 71",
      "url": "http://place.map.kakao.com/1626547916",
      "region": "대구광역시"
    },
    {
      "lat": 35.86343655008207,
      "lng": 128.69556492798236,
      "title": "뚜레쥬르 대구율하점",
      "description": "대구 동구 안심로22길 40",
      "url": "http://place.map.kakao.com/15954782",
      "region": "대구광역시"
    },
    {
      "lat": 35.8551590773087,
      "lng": 128.503115970654,
      "title": "뚜레쥬르 성서이곡점",
      "description": "대구 달서구 계대동문로 98",
      "url": "http://place.map.kakao.com/14556679",
      "region": "대구광역시"
    },
    {
      "lat": 35.83820112254974,
      "lng": 128.60146122341564,
      "title": "뚜레쥬르 대구효성점",
      "description": "대구 남구 신촌2길 3",
      "url": "http://place.map.kakao.com/13049694",
      "region": "대구광역시"
    },
    {
      "lat": 35.8666948191948,
      "lng": 128.45711392109357,
      "title": "뚜레쥬르 대구다사점",
      "description": "대구 달성군 다사읍 다사로 71",
      "url": "http://place.map.kakao.com/232360942",
      "region": "대구광역시"
    },
    {
      "lat": 35.859603214011244,
      "lng": 128.5617739749831,
      "title": "뚜레쥬르 대구내당점",
      "description": "대구 서구 달구벌대로361길 1",
      "url": "http://place.map.kakao.com/1127023645",
      "region": "대구광역시"
    },
    {
      "lat": 35.8619806998012,
      "lng": 128.647819184548,
      "title": "뚜레쥬르 만촌무열로점",
      "description": "대구 수성구 무열로 35",
      "url": "http://place.map.kakao.com/17615604",
      "region": "대구광역시"
    },
    {
      "lat": 35.81705498500481,
      "lng": 128.51798451085395,
      "title": "뚜레쥬르 대구월배점",
      "description": "대구 달서구 조암남로 150",
      "url": "http://place.map.kakao.com/186065764",
      "region": "대구광역시"
    },
    {
      "lat": 35.94240828144693,
      "lng": 128.56323353099063,
      "title": "뚜레쥬르 대구칠곡점",
      "description": "대구 북구 학정로 421",
      "url": "http://place.map.kakao.com/14096232",
      "region": "대구광역시"
    },
    {
      "lat": 35.86734352714029,
      "lng": 128.72388331337996,
      "title": "뚜레쥬르 대구동호점",
      "description": "대구 동구 금강로 2",
      "url": "http://place.map.kakao.com/14540457",
      "region": "대구광역시"
    },
    {
      "lat": 35.82524982606263,
      "lng": 128.5266874378951,
      "title": "뚜레쥬르 대구신월성점",
      "description": "대구 달서구 조암로 28",
      "url": "http://place.map.kakao.com/557643832",
      "region": "대구광역시"
    },
    {
      "lat": 35.9363977015716,
      "lng": 128.56171010808,
      "title": "뚜레쥬르 대구센트럴점",
      "description": "대구 북구 대천로 100",
      "url": "http://place.map.kakao.com/11094282",
      "region": "대구광역시"
    },
    {
      "lat": 35.87847350970045,
      "lng": 128.7153108733487,
      "title": "뚜레쥬르 대구혁신도시점",
      "description": "대구 동구 이노밸리로 166",
      "url": "http://place.map.kakao.com/26823434",
      "region": "대구광역시"
    },
    {
      "lat": 35.9132322178746,
      "lng": 128.546875945212,
      "title": "뚜레쥬르 대구매천점",
      "description": "대구 북구 학정로 38",
      "url": "http://place.map.kakao.com/8315516",
      "region": "대구광역시"
    },
    {
      "lat": 35.94202941684276,
      "lng": 128.63097382303388,
      "title": "뚜레쥬르 대구연경점",
      "description": "대구 동구 동화천로77길 2",
      "url": "http://place.map.kakao.com/169226229",
      "region": "대구광역시"
    },
    {
      "lat": 35.85649220379471,
      "lng": 128.46434833992615,
      "title": "뚜레쥬르 대구대실점",
      "description": "대구 달성군 다사읍 대실역남로 14",
      "url": "http://place.map.kakao.com/346646964",
      "region": "대구광역시"
    },
    {
      "lat": 35.87481364745549,
      "lng": 128.54995181191987,
      "title": "뚜레쥬르 대구신평리점",
      "description": "대구 서구 당산로 446",
      "url": "http://place.map.kakao.com/732771007",
      "region": "대구광역시"
    },
    {
      "lat": 35.84433427784798,
      "lng": 128.61237900985682,
      "title": "뚜레쥬르 대구중동점",
      "description": "대구 수성구 수성로 211",
      "url": "http://place.map.kakao.com/446511793",
      "region": "대구광역시"
    },
    {
      "lat": 35.8448172535083,
      "lng": 128.699974042791,
      "title": "뚜레쥬르 시지고산점",
      "description": "대구 수성구 천을로 91",
      "url": "http://place.map.kakao.com/14653733",
      "region": "대구광역시"
    },
    {
      "lat": 35.692833538818554,
      "lng": 128.46064980193265,
      "title": "뚜레쥬르 테크노유가점",
      "description": "대구 달성군 유가읍 테크노상업로4길 12",
      "url": "http://place.map.kakao.com/1816731001",
      "region": "대구광역시"
    },
    {
      "lat": 35.843352853111796,
      "lng": 128.56612918986718,
      "title": "뚜레쥬르 대구가톨릭대학교의료원점",
      "description": "대구 남구 두류공원로17길 33",
      "url": "http://place.map.kakao.com/35202804",
      "region": "대구광역시"
    },
    {
      "lat": 35.90147442269321,
      "lng": 128.5113292364068,
      "title": "뚜레쥬르 대구금호점",
      "description": "대구 북구 내곡로 71",
      "url": "http://place.map.kakao.com/26823432",
      "region": "대구광역시"
    },
    {
      "lat": 35.8585422875269,
      "lng": 128.465904862229,
      "title": "뚜레쥬르 대구죽곡점",
      "description": "대구 달성군 다사읍 대실역북로1길 9",
      "url": "http://place.map.kakao.com/7849900",
      "region": "대구광역시"
    },
    {
      "lat": 37.5065943099788,
      "lng": 126.672482212485,
      "title": "뚜레쥬르 카페석남점",
      "description": "인천 서구 가정로 246",
      "url": "http://place.map.kakao.com/1155912941",
      "region": "인천광역시"
    },
    {
      "lat": 37.4988066709866,
      "lng": 126.723473415526,
      "title": "뚜레쥬르 부평중앙점",
      "description": "인천 부평구 부흥로 283",
      "url": "http://place.map.kakao.com/19188892",
      "region": "인천광역시"
    },
    {
      "lat": 37.45720460698585,
      "lng": 126.69953204738655,
      "title": "뚜레쥬르 인천시청점",
      "description": "인천 남동구 구월로 81",
      "url": "http://place.map.kakao.com/21942383",
      "region": "인천광역시"
    },
    {
      "lat": 37.593711206385784,
      "lng": 126.70991423591326,
      "title": "뚜레쥬르 검단신도시",
      "description": "인천 서구 이음5로 20",
      "url": "http://place.map.kakao.com/1457605582",
      "region": "인천광역시"
    },
    {
      "lat": 37.448684518054,
      "lng": 126.673004944674,
      "title": "뚜레쥬르 주안파크자이점",
      "description": "인천 미추홀구 인하로221번길 6",
      "url": "http://place.map.kakao.com/2114411285",
      "region": "인천광역시"
    },
    {
      "lat": 37.465948652592,
      "lng": 126.65645789864,
      "title": "뚜레쥬르 제물포역점",
      "description": "인천 미추홀구 수봉로 1",
      "url": "http://place.map.kakao.com/1207893229",
      "region": "인천광역시"
    },
    {
      "lat": 37.45427491078613,
      "lng": 126.64839645024617,
      "title": "뚜레쥬르 용현자이크레스트점",
      "description": "인천 미추홀구 독배로 383",
      "url": "http://place.map.kakao.com/1641576068",
      "region": "인천광역시"
    },
    {
      "lat": 37.50641469800605,
      "lng": 126.70810235372944,
      "title": "뚜레쥬르 산곡푸르지오점",
      "description": "인천 부평구 마장로324번길 82",
      "url": "http://place.map.kakao.com/20644715",
      "region": "인천광역시"
    },
    {
      "lat": 37.483296829263,
      "lng": 126.507968880739,
      "title": "뚜레쥬르 영종운서점",
      "description": "인천 중구 넙디로 38",
      "url": "http://place.map.kakao.com/298331781",
      "region": "인천광역시"
    },
    {
      "lat": 37.402605740021,
      "lng": 126.70956942942,
      "title": "뚜레쥬르 호구포역점",
      "description": "인천 남동구 호구포로 219",
      "url": "http://place.map.kakao.com/909861504",
      "region": "인천광역시"
    },
    {
      "lat": 37.47690372921179,
      "lng": 126.64719722593955,
      "title": "뚜레쥬르 인천송림점",
      "description": "인천 동구 송림로 113",
      "url": "http://place.map.kakao.com/8270219",
      "region": "인천광역시"
    },
    {
      "lat": 37.51291524613517,
      "lng": 126.70368842070592,
      "title": "뚜레쥬르 부평청천점",
      "description": "인천 부평구 세월천로 51",
      "url": "http://place.map.kakao.com/1306371896",
      "region": "인천광역시"
    },
    {
      "lat": 37.4513252269272,
      "lng": 126.63743530038,
      "title": "뚜레쥬르 인천용현점",
      "description": "인천 미추홀구 낙섬중로 36",
      "url": "http://place.map.kakao.com/7849166",
      "region": "인천광역시"
    },
    {
      "lat": 37.49282818250739,
      "lng": 126.68552033493027,
      "title": "뚜레쥬르 인천가좌점",
      "description": "인천 서구 장고개로337번길 13",
      "url": "http://place.map.kakao.com/1580487912",
      "region": "인천광역시"
    },
    {
      "lat": 37.53671831545275,
      "lng": 126.62777949589513,
      "title": "뚜레쥬르 청라시티프라디움점",
      "description": "인천 서구 청라한내로 131",
      "url": "http://place.map.kakao.com/1829498908",
      "region": "인천광역시"
    },
    {
      "lat": 37.53406335391101,
      "lng": 126.65148995980891,
      "title": "뚜레쥬르 청라센타시아점",
      "description": "인천 서구 중봉대로612번길 16",
      "url": "http://place.map.kakao.com/21605292",
      "region": "인천광역시"
    },
    {
      "lat": 37.4630061781575,
      "lng": 126.695299466782,
      "title": "뚜레쥬르 간석역점",
      "description": "인천 미추홀구 주안로 226",
      "url": "http://place.map.kakao.com/1676860770",
      "region": "인천광역시"
    },
    {
      "lat": 37.52321783369771,
      "lng": 126.66959729066276,
      "title": "뚜레쥬르 루원SK점",
      "description": "인천 서구 가정로 437",
      "url": "http://place.map.kakao.com/265138393",
      "region": "인천광역시"
    },
    {
      "lat": 37.45881924703116,
      "lng": 126.73095506382555,
      "title": "뚜레쥬르 인천만수시장점",
      "description": "인천 남동구 만수로19번길 3",
      "url": "http://place.map.kakao.com/12394893",
      "region": "인천광역시"
    },
    {
      "lat": 37.46239933298686,
      "lng": 126.72063253074937,
      "title": "뚜레쥬르 간석벽산점",
      "description": "인천 남동구 호구포로 898",
      "url": "http://place.map.kakao.com/27461309",
      "region": "인천광역시"
    },
    {
      "lat": 37.5083878069687,
      "lng": 126.735214250406,
      "title": "뚜레쥬르 부평삼산점",
      "description": "인천 부평구 체육관로 32",
      "url": "http://place.map.kakao.com/17615484",
      "region": "인천광역시"
    },
    {
      "lat": 37.4105793446003,
      "lng": 126.62548125789439,
      "title": "뚜레쥬르 송도더테라스점",
      "description": "인천 연수구 센트럴로 415",
      "url": "http://place.map.kakao.com/998324687",
      "region": "인천광역시"
    },
    {
      "lat": 37.5279114164843,
      "lng": 126.733932486171,
      "title": "뚜레쥬르 계양작전점",
      "description": "인천 계양구 장제로 672",
      "url": "http://place.map.kakao.com/17370161",
      "region": "인천광역시"
    },
    {
      "lat": 37.61313444193033,
      "lng": 126.6862228950282,
      "title": "뚜레쥬르 인천불로창성점",
      "description": "인천 서구 검단로768번길 10",
      "url": "http://place.map.kakao.com/13049742",
      "region": "인천광역시"
    },
    {
      "lat": 37.41431059894434,
      "lng": 126.67815518353758,
      "title": "뚜레쥬르 연수단비점",
      "description": "인천 연수구 청능대로113번길 43",
      "url": "http://place.map.kakao.com/8345804",
      "region": "인천광역시"
    },
    {
      "lat": 37.5307915670426,
      "lng": 126.717114807579,
      "title": "뚜레쥬르 인천효성점",
      "description": "인천 계양구 봉오대로 613",
      "url": "http://place.map.kakao.com/1035786500",
      "region": "인천광역시"
    },
    {
      "lat": 37.37504663569123,
      "lng": 126.65473343561482,
      "title": "뚜레쥬르 송도글로벌파크점",
      "description": "인천 연수구 송도문화로28번길 27",
      "url": "http://place.map.kakao.com/1209061944",
      "region": "인천광역시"
    },
    {
      "lat": 37.48901226100705,
      "lng": 126.56306986406642,
      "title": "뚜레쥬르 영종하늘도시점",
      "description": "인천 중구 하늘중앙로195번길 29",
      "url": "http://place.map.kakao.com/21251820",
      "region": "인천광역시"
    },
    {
      "lat": 37.4748998022443,
      "lng": 126.630655950131,
      "title": "뚜레쥬르 동인천역점",
      "description": "인천 중구 자유공원로 3-12",
      "url": "http://place.map.kakao.com/1859275019",
      "region": "인천광역시"
    },
    {
      "lat": 37.53884020664942,
      "lng": 126.73660241997929,
      "title": "뚜레쥬르 계양구청점",
      "description": "인천 계양구 계산새로 71",
      "url": "http://place.map.kakao.com/10366646",
      "region": "인천광역시"
    },
    {
      "lat": 37.5042567251351,
      "lng": 126.739680288845,
      "title": "뚜레쥬르 부개점",
      "description": "인천 부평구 부개로 73",
      "url": "http://place.map.kakao.com/407928748",
      "region": "인천광역시"
    },
    {
      "lat": 37.392344620152095,
      "lng": 126.6323848867852,
      "title": "뚜레쥬르 송도아트윈점",
      "description": "인천 연수구 인천타워대로 253-25",
      "url": "http://place.map.kakao.com/1008251954",
      "region": "인천광역시"
    },
    {
      "lat": 37.39873457715893,
      "lng": 126.64027618508366,
      "title": "뚜레쥬르 송도그린워크점",
      "description": "인천 연수구 아트센터대로97번길 30",
      "url": "http://place.map.kakao.com/157631498",
      "region": "인천광역시"
    },
    {
      "lat": 37.4889759002433,
      "lng": 126.739774032003,
      "title": "뚜레쥬르 부개역북부점",
      "description": "인천 부평구 부일로 87",
      "url": "http://place.map.kakao.com/15957223",
      "region": "인천광역시"
    },
    {
      "lat": 37.58425610756552,
      "lng": 126.71392822808055,
      "title": "뚜레쥬르 검단아라점",
      "description": "인천 서구 푸르내2길 4",
      "url": "http://place.map.kakao.com/1753283493",
      "region": "인천광역시"
    },
    {
      "lat": 37.4497866682562,
      "lng": 126.45360328659166,
      "title": "뚜레쥬르 인천공항T1입국점",
      "description": "인천 중구 공항로 272",
      "url": "http://place.map.kakao.com/106133914",
      "region": "인천광역시"
    },
    {
      "lat": 37.413632948201986,
      "lng": 126.6159526483655,
      "title": "뚜레쥬르 송도호반에듀시티점",
      "description": "인천 연수구 랜드마크로 110",
      "url": "http://place.map.kakao.com/1594817323",
      "region": "인천광역시"
    },
    {
      "lat": 37.46122358695901,
      "lng": 126.64451522341164,
      "title": "뚜레쥬르 인천숭의점",
      "description": "인천 미추홀구 인주대로45번길 44",
      "url": "http://place.map.kakao.com/1837165382",
      "region": "인천광역시"
    },
    {
      "lat": 37.5925926422077,
      "lng": 126.69683381217256,
      "title": "뚜레쥬르 인천원당점",
      "description": "인천 서구 고산후로95번길 20",
      "url": "http://place.map.kakao.com/7849167",
      "region": "인천광역시"
    },
    {
      "lat": 37.48562542707815,
      "lng": 126.71832541964322,
      "title": "뚜레쥬르 인천동수역점",
      "description": "인천 부평구 경인로 883",
      "url": "http://place.map.kakao.com/8317697",
      "region": "인천광역시"
    },
    {
      "lat": 37.3974992995145,
      "lng": 126.735523546306,
      "title": "뚜레쥬르 소래포구역점",
      "description": "인천 남동구 소래역남로 10",
      "url": "http://place.map.kakao.com/21158276",
      "region": "인천광역시"
    },
    {
      "lat": 37.521775271637175,
      "lng": 126.74326592910064,
      "title": "뚜레쥬르 삼산미래타운점",
      "description": "인천 부평구 부평북로 448",
      "url": "http://place.map.kakao.com/11518323",
      "region": "인천광역시"
    },
    {
      "lat": 37.64177229990185,
      "lng": 126.49009889219772,
      "title": "뚜레쥬르 카페강화길상점",
      "description": "인천 강화군 길상면 마니산로 15",
      "url": "http://place.map.kakao.com/1563860910",
      "region": "인천광역시"
    },
    {
      "lat": 37.45554854244805,
      "lng": 126.65653486111258,
      "title": "뚜레쥬르 용현독정이점",
      "description": "인천 미추홀구 인주대로 178",
      "url": "http://place.map.kakao.com/988959745",
      "region": "인천광역시"
    },
    {
      "lat": 37.5637823259452,
      "lng": 126.67343630799124,
      "title": "뚜레쥬르 카페검암1지구점",
      "description": "인천 서구 승학로 470",
      "url": "http://place.map.kakao.com/1392191251",
      "region": "인천광역시"
    },
    {
      "lat": 35.152698811167,
      "lng": 126.91120112308,
      "title": "뚜레쥬르 광주금남로점",
      "description": "광주 동구 금남로 162-1",
      "url": "http://place.map.kakao.com/10366164",
      "region": "광주광역시"
    },
    {
      "lat": 35.13516719332155,
      "lng": 126.9016873493297,
      "title": "뚜레쥬르 광주백운점",
      "description": "광주 남구 독립로 18",
      "url": "http://place.map.kakao.com/1670624440",
      "region": "광주광역시"
    },
    {
      "lat": 35.1649525288974,
      "lng": 126.919872326096,
      "title": "뚜레쥬르 광주서방점",
      "description": "광주 북구 동문대로 2",
      "url": "http://place.map.kakao.com/910665269",
      "region": "광주광역시"
    },
    {
      "lat": 35.1753694109266,
      "lng": 126.933053020903,
      "title": "뚜레쥬르 두암미라보점",
      "description": "광주 북구 군왕로 157",
      "url": "http://place.map.kakao.com/19766765",
      "region": "광주광역시"
    },
    {
      "lat": 35.18015597074423,
      "lng": 126.89028150931811,
      "title": "뚜레쥬르 광주용봉점",
      "description": "광주 북구 비엔날레로 94",
      "url": "http://place.map.kakao.com/7850600",
      "region": "광주광역시"
    },
    {
      "lat": 35.18016945086,
      "lng": 126.81124120606,
      "title": "뚜레쥬르 광주흑석점",
      "description": "광주 광산구 풍영로101번안길 1-7",
      "url": "http://place.map.kakao.com/17905938",
      "region": "광주광역시"
    },
    {
      "lat": 35.1458399379405,
      "lng": 126.881243455544,
      "title": "뚜레쥬르 광주화정힐스테이트점",
      "description": "광주 서구 화정로 220",
      "url": "http://place.map.kakao.com/1418303345",
      "region": "광주광역시"
    },
    {
      "lat": 35.1271588753796,
      "lng": 126.911425240721,
      "title": "뚜레쥬르 광주봉선점",
      "description": "광주 남구 봉선중앙로 70-1",
      "url": "http://place.map.kakao.com/506073934",
      "region": "광주광역시"
    },
    {
      "lat": 35.212369244096756,
      "lng": 126.8814574650934,
      "title": "뚜레쥬르 광주양산호반점",
      "description": "광주 북구 양산로71번길 39",
      "url": "http://place.map.kakao.com/12394664",
      "region": "광주광역시"
    },
    {
      "lat": 35.18044510515158,
      "lng": 126.81820749810602,
      "title": "뚜레쥬르 광주수완대방점",
      "description": "광주 광산구 임방울대로 216",
      "url": "http://place.map.kakao.com/20616075",
      "region": "광주광역시"
    },
    {
      "lat": 35.13102239168485,
      "lng": 126.85494135798989,
      "title": "뚜레쥬르 광주금호종원점",
      "description": "광주 서구 화개1로79번길 3",
      "url": "http://place.map.kakao.com/7849283",
      "region": "광주광역시"
    },
    {
      "lat": 35.1501478168896,
      "lng": 126.847650058195,
      "title": "뚜레쥬르 상무점",
      "description": "광주 서구 치평로 32",
      "url": "http://place.map.kakao.com/1146207522",
      "region": "광주광역시"
    },
    {
      "lat": 35.14410033455283,
      "lng": 126.85705800668858,
      "title": "뚜레쥬르 광주금호운천점",
      "description": "광주 서구 운천로 129",
      "url": "http://place.map.kakao.com/1961148460",
      "region": "광주광역시"
    },
    {
      "lat": 35.1479452388082,
      "lng": 126.777875408239,
      "title": "뚜레쥬르 광주선운점",
      "description": "광주 광산구 선운중앙로 56",
      "url": "http://place.map.kakao.com/26825570",
      "region": "광주광역시"
    },
    {
      "lat": 35.2136626373259,
      "lng": 126.846159720497,
      "title": "뚜레쥬르 광주월계점",
      "description": "광주 광산구 월계로 187",
      "url": "http://place.map.kakao.com/10366165",
      "region": "광주광역시"
    },
    {
      "lat": 35.1641551454855,
      "lng": 126.859766995052,
      "title": "뚜레쥬르 광주버들마을점",
      "description": "광주 서구 상무버들로 35",
      "url": "http://place.map.kakao.com/19358206",
      "region": "광주광역시"
    },
    {
      "lat": 35.22082949479075,
      "lng": 126.850657285171,
      "title": "뚜레쥬르 광주첨단대라수점",
      "description": "광주 광산구 첨단중앙로182번길 90",
      "url": "http://place.map.kakao.com/1257940584",
      "region": "광주광역시"
    },
    {
      "lat": 35.17852438750555,
      "lng": 126.8770110442463,
      "title": "뚜레쥬르 광주운암점",
      "description": "광주 북구 북문대로 88",
      "url": "http://place.map.kakao.com/121281250",
      "region": "광주광역시"
    },
    {
      "lat": 35.19052312093298,
      "lng": 126.82429641783037,
      "title": "뚜레쥬르 광주수완점",
      "description": "광주 광산구 임방울대로 342",
      "url": "http://place.map.kakao.com/22298843",
      "region": "광주광역시"
    },
    {
      "lat": 35.15386427311639,
      "lng": 126.88638560871318,
      "title": "뚜레쥬르 광주농성영무점",
      "description": "광주 서구 상무대로1147번길 7",
      "url": "http://place.map.kakao.com/2095693792",
      "region": "광주광역시"
    },
    {
      "lat": 35.22007059071925,
      "lng": 126.84215721623218,
      "title": "뚜레쥬르 광주첨단쌍암점",
      "description": "광주 광산구 첨단중앙로 164",
      "url": "http://place.map.kakao.com/1498209407",
      "region": "광주광역시"
    },
    {
      "lat": 35.130166440913854,
      "lng": 126.8984215932645,
      "title": "뚜레쥬르 광주진월점",
      "description": "광주 남구 서문대로 793",
      "url": "http://place.map.kakao.com/1723158531",
      "region": "광주광역시"
    },
    {
      "lat": 35.1921772435417,
      "lng": 126.892175878709,
      "title": "뚜레쥬르 광주매곡점",
      "description": "광주 북구 매곡로 85",
      "url": "http://place.map.kakao.com/7850480",
      "region": "광주광역시"
    },
    {
      "lat": 35.18532502714082,
      "lng": 126.9226849496248,
      "title": "뚜레쥬르 광주문흥2호점",
      "description": "광주 북구 서하로 389",
      "url": "http://place.map.kakao.com/8343764",
      "region": "광주광역시"
    },
    {
      "lat": 35.15540996004366,
      "lng": 126.84765451661137,
      "title": "뚜레쥬르 상무치평점",
      "description": "광주 서구 상무중앙로 95",
      "url": "http://place.map.kakao.com/15284152",
      "region": "광주광역시"
    },
    {
      "lat": 35.1958936383649,
      "lng": 126.815379639129,
      "title": "뚜레쥬르 광주수완장덕점",
      "description": "광주 광산구 풍영로 275",
      "url": "http://place.map.kakao.com/305765489",
      "region": "광주광역시"
    },
    {
      "lat": 35.16071000104311,
      "lng": 126.87974779443982,
      "title": "뚜레쥬르 광주터미널점",
      "description": "광주 서구 무진대로 904",
      "url": "http://place.map.kakao.com/12394678",
      "region": "광주광역시"
    },
    {
      "lat": 35.171719632872566,
      "lng": 126.8639780705467,
      "title": "뚜레쥬르 광주동림점",
      "description": "광주 서구 하남대로 654",
      "url": "http://place.map.kakao.com/20805821",
      "region": "광주광역시"
    },
    {
      "lat": 35.1976756884541,
      "lng": 126.837440382475,
      "title": "뚜레쥬르 광주신창점",
      "description": "광주 광산구 신창로131번길 10",
      "url": "http://place.map.kakao.com/11412227",
      "region": "광주광역시"
    },
    {
      "lat": 35.19056192991122,
      "lng": 126.81882509001557,
      "title": "뚜레쥬르 광주수완롯데점",
      "description": "광주 광산구 장신로 82",
      "url": "http://place.map.kakao.com/1224309379",
      "region": "광주광역시"
    },
    {
      "lat": 35.1591572804584,
      "lng": 126.859134597592,
      "title": "뚜레쥬르 광주518공원점",
      "description": "광주 서구 상무민주로 97",
      "url": "http://place.map.kakao.com/8640066",
      "region": "광주광역시"
    },
    {
      "lat": 35.101846305015606,
      "lng": 126.89406079300686,
      "title": "뚜레쥬르 광주효천블랙데이점",
      "description": "광주 남구 효우로 200",
      "url": "http://place.map.kakao.com/1060663123",
      "region": "광주광역시"
    },
    {
      "lat": 36.3661841334856,
      "lng": 127.376932654878,
      "title": "뚜레쥬르 대전서구만년점",
      "description": "대전 서구 만년남로 10",
      "url": "http://place.map.kakao.com/2048949527",
      "region": "대전광역시"
    },
    {
      "lat": 36.35600622259361,
      "lng": 127.36208923048473,
      "title": "뚜레쥬르 대전월평계룡점",
      "description": "대전 서구 월평로 46",
      "url": "http://place.map.kakao.com/18254949",
      "region": "대전광역시"
    },
    {
      "lat": 36.3391041311359,
      "lng": 127.396339488191,
      "title": "뚜레쥬르 대전용문점",
      "description": "대전 서구 탄방로 108",
      "url": "http://place.map.kakao.com/1528943797",
      "region": "대전광역시"
    },
    {
      "lat": 36.3250276811654,
      "lng": 127.40893177555394,
      "title": "뚜레쥬르 대전오류중앙점",
      "description": "대전 중구 계룡로 846",
      "url": "http://place.map.kakao.com/8282469",
      "region": "대전광역시"
    },
    {
      "lat": 36.346550779520236,
      "lng": 127.38636142610606,
      "title": "뚜레쥬르 대전탄방역점",
      "description": "대전 서구 문정로 64",
      "url": "http://place.map.kakao.com/10373362",
      "region": "대전광역시"
    },
    {
      "lat": 36.36182072961211,
      "lng": 127.33677703758138,
      "title": "뚜레쥬르 대전장대점",
      "description": "대전 유성구 문화원로 2",
      "url": "http://place.map.kakao.com/11294321",
      "region": "대전광역시"
    },
    {
      "lat": 36.29669915691203,
      "lng": 127.33824696414091,
      "title": "뚜레쥬르 대전관저점",
      "description": "대전 서구 구봉로 137",
      "url": "http://place.map.kakao.com/1521884451",
      "region": "대전광역시"
    },
    {
      "lat": 36.3512759146302,
      "lng": 127.437518410231,
      "title": "뚜레쥬르 대전복합터미널점",
      "description": "대전 동구 동서대로1695번길 30",
      "url": "http://place.map.kakao.com/184524243",
      "region": "대전광역시"
    },
    {
      "lat": 36.3297061744867,
      "lng": 127.443421993047,
      "title": "뚜레쥬르 대전대동오거리점",
      "description": "대전 동구 동대전로 80-2",
      "url": "http://place.map.kakao.com/21437500",
      "region": "대전광역시"
    },
    {
      "lat": 36.3519567811915,
      "lng": 127.344568612163,
      "title": "뚜레쥬르 대전도안봉명점",
      "description": "대전 유성구 계룡로132번길 10",
      "url": "http://place.map.kakao.com/1046722002",
      "region": "대전광역시"
    },
    {
      "lat": 36.3676549891286,
      "lng": 127.43298917963,
      "title": "뚜레쥬르 대전법동점",
      "description": "대전 대덕구 동춘당로 167",
      "url": "http://place.map.kakao.com/7848982",
      "region": "대전광역시"
    },
    {
      "lat": 36.33618955088918,
      "lng": 127.41132693028496,
      "title": "뚜레쥬르 대전중촌점",
      "description": "대전 중구 목중로 24",
      "url": "http://place.map.kakao.com/7858192",
      "region": "대전광역시"
    },
    {
      "lat": 36.4255433770019,
      "lng": 127.387568699369,
      "title": "뚜레쥬르 대전관평롯데점",
      "description": "대전 유성구 관들1길 1",
      "url": "http://place.map.kakao.com/8282341",
      "region": "대전광역시"
    },
    {
      "lat": 36.35957182097526,
      "lng": 127.37763166048717,
      "title": "뚜레쥬르 대전월평선사점",
      "description": "대전 서구 청사로 128",
      "url": "http://place.map.kakao.com/127688226",
      "region": "대전광역시"
    },
    {
      "lat": 36.32048142680517,
      "lng": 127.4430178331248,
      "title": "뚜레쥬르 동대전하나로마트점",
      "description": "대전 동구 계족로 63",
      "url": "http://place.map.kakao.com/23825324",
      "region": "대전광역시"
    },
    {
      "lat": 36.337896018717686,
      "lng": 127.36687294950003,
      "title": "뚜레쥬르 대전내동롯데점",
      "description": "대전 서구 신갈마로 46",
      "url": "http://place.map.kakao.com/8316200",
      "region": "대전광역시"
    },
    {
      "lat": 36.36259633607578,
      "lng": 127.36775209008586,
      "title": "뚜레쥬르 대전월평다모아점",
      "description": "대전 서구 월평동로 83",
      "url": "http://place.map.kakao.com/7849669",
      "region": "대전광역시"
    },
    {
      "lat": 36.3869565320447,
      "lng": 127.316228172797,
      "title": "뚜레쥬르 대전노은호반점",
      "description": "대전 유성구 지족로 355",
      "url": "http://place.map.kakao.com/10366171",
      "region": "대전광역시"
    },
    {
      "lat": 36.36203388115633,
      "lng": 127.39133708975305,
      "title": "뚜레쥬르 대전둔산샘머리점",
      "description": "대전 서구 청사로 281",
      "url": "http://place.map.kakao.com/17614621",
      "region": "대전광역시"
    },
    {
      "lat": 36.308668594495686,
      "lng": 127.37397335569511,
      "title": "뚜레쥬르 대전복수목화점",
      "description": "대전 서구 복수서로 50",
      "url": "http://place.map.kakao.com/21657662",
      "region": "대전광역시"
    },
    {
      "lat": 36.306642316468,
      "lng": 127.336827988049,
      "title": "뚜레쥬르 대전관저센터점",
      "description": "대전 서구 관저북로 53",
      "url": "http://place.map.kakao.com/1799290082",
      "region": "대전광역시"
    },
    {
      "lat": 36.4520183838237,
      "lng": 127.432740346638,
      "title": "뚜레쥬르 대전신탄진대청점",
      "description": "대전 대덕구 대청로 38",
      "url": "http://place.map.kakao.com/393350856",
      "region": "대전광역시"
    },
    {
      "lat": 36.29650623854957,
      "lng": 127.32660132084223,
      "title": "뚜레쥬르 대전관저더샵점",
      "description": "대전 서구 관저로14번길 40",
      "url": "http://place.map.kakao.com/1906363755",
      "region": "대전광역시"
    },
    {
      "lat": 36.35336929338975,
      "lng": 127.38962260067876,
      "title": "뚜레쥬르 대전둔산법원점",
      "description": "대전 서구 둔산로137번길 44",
      "url": "http://place.map.kakao.com/7858185",
      "region": "대전광역시"
    },
    {
      "lat": 36.3229970440887,
      "lng": 127.398611044806,
      "title": "뚜레쥬르 대전태평점",
      "description": "대전 중구 평촌로 111",
      "url": "http://place.map.kakao.com/16687618",
      "region": "대전광역시"
    },
    {
      "lat": 36.35568399508005,
      "lng": 127.42869371210264,
      "title": "뚜레쥬르 대전한숲점",
      "description": "대전 대덕구 계족로489번길 78",
      "url": "http://place.map.kakao.com/7858225",
      "region": "대전광역시"
    },
    {
      "lat": 36.3181293855097,
      "lng": 127.391365834052,
      "title": "뚜레쥬르 대전버드내점",
      "description": "대전 중구 태평로 15",
      "url": "http://place.map.kakao.com/13089724",
      "region": "대전광역시"
    },
    {
      "lat": 36.358321489856145,
      "lng": 127.38871696818866,
      "title": "뚜레쥬르 대전사학연금점",
      "description": "대전 서구 한밭대로 809",
      "url": "http://place.map.kakao.com/19883962",
      "region": "대전광역시"
    },
    {
      "lat": 36.35530082694794,
      "lng": 127.38198835005343,
      "title": "뚜레쥬르 대전을지대병원점",
      "description": "대전 서구 둔산서로 95",
      "url": "http://place.map.kakao.com/1782709927",
      "region": "대전광역시"
    },
    {
      "lat": 36.3999801951071,
      "lng": 127.40569674674,
      "title": "뚜레쥬르 대전엑스포점",
      "description": "대전 유성구 엑스포로 488",
      "url": "http://place.map.kakao.com/7849668",
      "region": "대전광역시"
    },
    {
      "lat": 36.345944224268855,
      "lng": 127.33918167884852,
      "title": "뚜레쥬르 대전도안상대점",
      "description": "대전 유성구 상대동로 34",
      "url": "http://place.map.kakao.com/21546221",
      "region": "대전광역시"
    },
    {
      "lat": 36.3193096078206,
      "lng": 127.344008374137,
      "title": "뚜레쥬르 대전도안수목토점",
      "description": "대전 서구 원도안로179번길 7-7",
      "url": "http://place.map.kakao.com/18686018",
      "region": "대전광역시"
    },
    {
      "lat": 36.3486991606767,
      "lng": 127.298284818876,
      "title": "뚜레쥬르 대전한밭대점",
      "description": "대전 유성구 학하중앙로 15",
      "url": "http://place.map.kakao.com/20955665",
      "region": "대전광역시"
    },
    {
      "lat": 36.33000976714148,
      "lng": 127.34133675140811,
      "title": "뚜레쥬르 대전도안목원대점",
      "description": "대전 서구 도안북로 116",
      "url": "http://place.map.kakao.com/18073994",
      "region": "대전광역시"
    },
    {
      "lat": 36.31026863754736,
      "lng": 127.44343327056586,
      "title": "뚜레쥬르 이츠마트석교점",
      "description": "대전 중구 대종로224번길 28",
      "url": "http://place.map.kakao.com/822725032",
      "region": "대전광역시"
    },
    {
      "lat": 36.4467466472079,
      "lng": 127.412101636879,
      "title": "뚜레쥬르 대전목상점",
      "description": "대전 대덕구 대덕대로1470번길 52",
      "url": "http://place.map.kakao.com/12249341",
      "region": "대전광역시"
    },
    {
      "lat": 36.3169125824551,
      "lng": 127.415461601408,
      "title": "뚜레쥬르 대전충남대병원점",
      "description": "대전 중구 문화로 282",
      "url": "http://place.map.kakao.com/17578901",
      "region": "대전광역시"
    },
    {
      "lat": 36.281048238566,
      "lng": 127.467464434886,
      "title": "뚜레쥬르 대전낭월점",
      "description": "대전 동구 산내로 1317",
      "url": "http://place.map.kakao.com/19364298",
      "region": "대전광역시"
    },
    {
      "lat": 36.28794694601251,
      "lng": 127.3779374424392,
      "title": "뚜레쥬르 하나로클럽대전점",
      "description": "대전 중구 대둔산로199번길 43",
      "url": "http://place.map.kakao.com/27434851",
      "region": "대전광역시"
    },
    {
      "lat": 35.5311689296379,
      "lng": 129.32134851762,
      "title": "뚜레쥬르 울산신정현대점",
      "description": "울산 남구 대암로 50",
      "url": "http://place.map.kakao.com/21229845",
      "region": "울산광역시"
    },
    {
      "lat": 35.53824382216597,
      "lng": 129.33749320664595,
      "title": "뚜레쥬르 울산삼산점",
      "description": "울산 남구 삼산중로48번길 13",
      "url": "http://place.map.kakao.com/1134885244",
      "region": "울산광역시"
    },
    {
      "lat": 35.5521941299095,
      "lng": 129.258859314216,
      "title": "뚜레쥬르 울산무거점",
      "description": "울산 남구 대학로147번길 61",
      "url": "http://place.map.kakao.com/7850690",
      "region": "울산광역시"
    },
    {
      "lat": 35.42904209095148,
      "lng": 129.30634113146857,
      "title": "뚜레쥬르 울산온산덕신점",
      "description": "울산 울주군 온산읍 덕남로 93",
      "url": "http://place.map.kakao.com/365508314",
      "region": "울산광역시"
    },
    {
      "lat": 35.5468543000471,
      "lng": 129.332750993719,
      "title": "뚜레쥬르 울산삼산본점",
      "description": "울산 남구 월평로 258",
      "url": "http://place.map.kakao.com/10363183",
      "region": "울산광역시"
    },
    {
      "lat": 35.56024119293256,
      "lng": 129.29517056462507,
      "title": "뚜레쥬르 울산유곡혁신점",
      "description": "울산 중구 종가4길 13",
      "url": "http://place.map.kakao.com/1729663922",
      "region": "울산광역시"
    },
    {
      "lat": 35.5357583281345,
      "lng": 129.300795848412,
      "title": "뚜레쥬르 울산문수아이파크점",
      "description": "울산 남구 동산로 48",
      "url": "http://place.map.kakao.com/26560221",
      "region": "울산광역시"
    },
    {
      "lat": 35.53561301093585,
      "lng": 129.29025739012513,
      "title": "뚜레쥬르 울산옥동본점",
      "description": "울산 남구 문수로335번길 5",
      "url": "http://place.map.kakao.com/19730302",
      "region": "울산광역시"
    },
    {
      "lat": 35.64641007341346,
      "lng": 129.35370045127377,
      "title": "뚜레쥬르 울산매곡점",
      "description": "울산 북구 신기3길 40",
      "url": "http://place.map.kakao.com/32310523",
      "region": "울산광역시"
    },
    {
      "lat": 35.5350058090521,
      "lng": 129.328161457616,
      "title": "뚜레쥬르 울산달동본점",
      "description": "울산 남구 번영로107번길 6",
      "url": "http://place.map.kakao.com/9778296",
      "region": "울산광역시"
    },
    {
      "lat": 35.55480297140747,
      "lng": 129.34549400426022,
      "title": "뚜레쥬르 울산반구강변점",
      "description": "울산 중구 반구로 39",
      "url": "http://place.map.kakao.com/26825262",
      "region": "울산광역시"
    },
    {
      "lat": 35.527268481066535,
      "lng": 129.43180190884624,
      "title": "뚜레쥬르 울산지웰자이점",
      "description": "울산 동구 서부로 51",
      "url": "http://place.map.kakao.com/1285449430",
      "region": "울산광역시"
    },
    {
      "lat": 35.4919530075478,
      "lng": 129.427601160778,
      "title": "뚜레쥬르 울산일산점",
      "description": "울산 동구 등대로 12",
      "url": "http://place.map.kakao.com/24545990",
      "region": "울산광역시"
    },
    {
      "lat": 35.560099902757806,
      "lng": 129.1161541946316,
      "title": "뚜레쥬르 울산언양교동점",
      "description": "울산 울주군 삼남읍 남상평2길 44",
      "url": "http://place.map.kakao.com/26850200",
      "region": "울산광역시"
    },
    {
      "lat": 35.5235645528626,
      "lng": 129.318695733814,
      "title": "뚜레쥬르 울산야음롯데점",
      "description": "울산 남구 중앙로 22",
      "url": "http://place.map.kakao.com/970429146",
      "region": "울산광역시"
    },
    {
      "lat": 35.485456140295845,
      "lng": 129.30395898466926,
      "title": "뚜레쥬르 울산덕하점",
      "description": "울산 울주군 청량읍 상남길 54",
      "url": "http://place.map.kakao.com/843580638",
      "region": "울산광역시"
    },
    {
      "lat": 35.556412834638465,
      "lng": 129.35719370266503,
      "title": "뚜레쥬르 울산명촌점",
      "description": "울산 북구 명촌로 43",
      "url": "http://place.map.kakao.com/901968562",
      "region": "울산광역시"
    },
    {
      "lat": 35.545582557312,
      "lng": 129.313274757242,
      "title": "뚜레쥬르 울산신정푸르지오점",
      "description": "울산 남구 팔등로 63",
      "url": "http://place.map.kakao.com/2103095745",
      "region": "울산광역시"
    },
    {
      "lat": 35.602550029087844,
      "lng": 129.36391086898203,
      "title": "뚜레쥬르 울산송정점",
      "description": "울산 북구 박상진13로 20",
      "url": "http://place.map.kakao.com/888998798",
      "region": "울산광역시"
    },
    {
      "lat": 35.63626703803109,
      "lng": 129.43836167888497,
      "title": "뚜레쥬르 울산강동산하점",
      "description": "울산 북구 산하중앙3로 142",
      "url": "http://place.map.kakao.com/680003916",
      "region": "울산광역시"
    },
    {
      "lat": 35.5420721249057,
      "lng": 129.428873330382,
      "title": "뚜레쥬르 울산남목현대점",
      "description": "울산 동구 동해안로 50",
      "url": "http://place.map.kakao.com/12394876",
      "region": "울산광역시"
    },
    {
      "lat": 35.56989976712785,
      "lng": 129.24349624520866,
      "title": "뚜레쥬르 울산구영점",
      "description": "울산 울주군 범서읍 대리2길 57",
      "url": "http://place.map.kakao.com/1068596636",
      "region": "울산광역시"
    },
    {
      "lat": 35.57013001019716,
      "lng": 129.12537130895515,
      "title": "뚜레쥬르 울산언양읍성점",
      "description": "울산 울주군 언양읍 읍성로 165",
      "url": "http://place.map.kakao.com/1444495667",
      "region": "울산광역시"
    },
    {
      "lat": 35.4124473830634,
      "lng": 129.280181078717,
      "title": "뚜레쥬르 울산남창점",
      "description": "울산 울주군 온양읍 대운길 17",
      "url": "http://place.map.kakao.com/1273569351",
      "region": "울산광역시"
    },
    {
      "lat": 35.56255556159167,
      "lng": 129.2255899175547,
      "title": "뚜레쥬르 울산천상제일점",
      "description": "울산 울주군 범서읍 천상중앙길 100",
      "url": "http://place.map.kakao.com/13497482",
      "region": "울산광역시"
    },
    {
      "lat": 35.5563655935074,
      "lng": 129.275267214537,
      "title": "뚜레쥬르 울산다운점",
      "description": "울산 중구 운곡길 1",
      "url": "http://place.map.kakao.com/45688442",
      "region": "울산광역시"
    },
    {
      "lat": 35.4840301015274,
      "lng": 129.414720364655,
      "title": "뚜레쥬르 울산방어점",
      "description": "울산 동구 화문로 51",
      "url": "http://place.map.kakao.com/12394862",
      "region": "울산광역시"
    },
    {
      "lat": 35.51070262036221,
      "lng": 129.42613363610013,
      "title": "뚜레쥬르 울산전하동점",
      "description": "울산 동구 진성14길 114",
      "url": "http://place.map.kakao.com/18759773",
      "region": "울산광역시"
    },
    {
      "lat": 35.55748207293802,
      "lng": 129.25421546700306,
      "title": "뚜레쥬르 울산원예하나로마트점",
      "description": "울산 울주군 범서읍 장검길 10",
      "url": "http://place.map.kakao.com/1585311770",
      "region": "울산광역시"
    },
    {
      "lat": 35.5200017827516,
      "lng": 129.429066422045,
      "title": "뚜레쥬르 울산대병원점",
      "description": "울산 동구 대학병원로 25",
      "url": "http://place.map.kakao.com/1798485714",
      "region": "울산광역시"
    },
    {
      "lat": 35.62892038185079,
      "lng": 129.35072628125866,
      "title": "뚜레쥬르 울산호계엘리야병원점",
      "description": "울산 북구 호계로 285",
      "url": "http://place.map.kakao.com/951571414",
      "region": "울산광역시"
    },
    {
      "lat": 36.48408557678788,
      "lng": 127.25197100612917,
      "title": "뚜레쥬르 세종새롬점",
      "description": "세종특별자치시 새롬중앙로 33",
      "url": "http://place.map.kakao.com/1759177082",
      "region": "세종특별자치시"
    },
    {
      "lat": 36.529124496103826,
      "lng": 127.26481607301685,
      "title": "뚜레쥬르 세종해밀점",
      "description": "세종특별자치시 해밀3로 51",
      "url": "http://place.map.kakao.com/418801340",
      "region": "세종특별자치시"
    },
    {
      "lat": 36.47676144789985,
      "lng": 127.28874787054359,
      "title": "뚜레쥬르 세종보람점",
      "description": "세종특별자치시 남세종로 462",
      "url": "http://place.map.kakao.com/365864259",
      "region": "세종특별자치시"
    },
    {
      "lat": 36.529844006800886,
      "lng": 127.3655977947551,
      "title": "뚜레쥬르 세종부강점",
      "description": "세종특별자치시 부강면 부강로 47",
      "url": "http://place.map.kakao.com/444704904",
      "region": "세종특별자치시"
    },
    {
      "lat": 36.479329372355,
      "lng": 127.255311065322,
      "title": "뚜레쥬르 세종첫마을점",
      "description": "세종특별자치시 노을3로 84",
      "url": "http://place.map.kakao.com/838157226",
      "region": "세종특별자치시"
    },
    {
      "lat": 36.497561430263595,
      "lng": 127.30909757609172,
      "title": "뚜레쥬르 세종반곡점",
      "description": "세종특별자치시 한누리대로 1864",
      "url": "http://place.map.kakao.com/64043652",
      "region": "세종특별자치시"
    },
    {
      "lat": 36.5116242232911,
      "lng": 127.243622897827,
      "title": "뚜레쥬르 세종아름점",
      "description": "세종특별자치시 보듬3로 143",
      "url": "http://place.map.kakao.com/1066196583",
      "region": "세종특별자치시"
    },
    {
      "lat": 36.603510158394,
      "lng": 127.291207892486,
      "title": "뚜레쥬르 조치원욱일점",
      "description": "세종특별자치시 조치원읍 행복10길 3",
      "url": "http://place.map.kakao.com/853567457",
      "region": "세종특별자치시"
    },
    {
      "lat": 36.50495941730467,
      "lng": 127.26226125305173,
      "title": "뚜레쥬르 정부세종청사점",
      "description": "세종특별자치시 도움6로 11",
      "url": "http://place.map.kakao.com/575492635",
      "region": "세종특별자치시"
    },
    {
      "lat": 36.50520295102885,
      "lng": 127.24955464244792,
      "title": "뚜레쥬르 세종센텀파크점",
      "description": "세종특별자치시 달빛로 77",
      "url": "http://place.map.kakao.com/26538168",
      "region": "세종특별자치시"
    },
    {
      "lat": 36.472560041026426,
      "lng": 127.27821155200549,
      "title": "뚜레쥬르 세종대평점",
      "description": "세종특별자치시 한누리대로 2257",
      "url": "http://place.map.kakao.com/339017429",
      "region": "세종특별자치시"
    },
    {
      "lat": 36.479681619814734,
      "lng": 127.2970218441604,
      "title": "뚜레쥬르 세종소담점",
      "description": "세종특별자치시 보람동로 14",
      "url": "http://place.map.kakao.com/618416147",
      "region": "세종특별자치시"
    },
    {
      "lat": 36.49569396768821,
      "lng": 127.24911786292061,
      "title": "뚜레쥬르 세종다정점",
      "description": "세종특별자치시 다정중앙로 58",
      "url": "http://place.map.kakao.com/1072881379",
      "region": "세종특별자치시"
    },
    {
      "lat": 37.3902065986914,
      "lng": 126.953669342718,
      "title": "뚜레쥬르 안양범계역직영점",
      "description": "경기 안양시 동안구 평촌대로217번길 45",
      "url": "http://place.map.kakao.com/19575468",
      "region": "경기도"
    },
    {
      "lat": 37.2032994464771,
      "lng": 127.067961236184,
      "title": "뚜레쥬르 동탄메타폴리스점",
      "description": "경기 화성시 동탄중앙로 200",
      "url": "http://place.map.kakao.com/707258742",
      "region": "경기도"
    },
    {
      "lat": 37.38546883931729,
      "lng": 127.12237418766176,
      "title": "뚜레쥬르 카페서현역점",
      "description": "경기 성남시 분당구 황새울로 332",
      "url": "http://place.map.kakao.com/1935032564",
      "region": "경기도"
    },
    {
      "lat": 37.29521449043926,
      "lng": 126.99368418906039,
      "title": "뚜레쥬르 수원정자점",
      "description": "경기 수원시 장안구 대평로 80",
      "url": "http://place.map.kakao.com/1986068774",
      "region": "경기도"
    },
    {
      "lat": 37.63008841630032,
      "lng": 126.83190676414449,
      "title": "뚜레쥬르 화정중앙점",
      "description": "경기 고양시 덕양구 화중로 32-31",
      "url": "http://place.map.kakao.com/26992403",
      "region": "경기도"
    },
    {
      "lat": 37.4732067622545,
      "lng": 127.142763063754,
      "title": "뚜레쥬르 위례중앙점",
      "description": "경기 성남시 수정구 위례광장로 300",
      "url": "http://place.map.kakao.com/1452345750",
      "region": "경기도"
    },
    {
      "lat": 37.39367279323796,
      "lng": 126.97876131393006,
      "title": "뚜레쥬르 안양인덕원점",
      "description": "경기 안양시 동안구 흥안대로456번길 56",
      "url": "http://place.map.kakao.com/19952100",
      "region": "경기도"
    },
    {
      "lat": 37.273680457993315,
      "lng": 126.96971867726954,
      "title": "뚜레쥬르 카페서수원점",
      "description": "경기 수원시 권선구 서부로 1822-55",
      "url": "http://place.map.kakao.com/1510137995",
      "region": "경기도"
    },
    {
      "lat": 37.4410439332731,
      "lng": 126.791536176892,
      "title": "뚜레쥬르 시흥대야로데오점",
      "description": "경기 시흥시 비둘기공원7길 57",
      "url": "http://place.map.kakao.com/26495787",
      "region": "경기도"
    },
    {
      "lat": 37.5073943429351,
      "lng": 126.75240450836,
      "title": "뚜레쥬르 상동역점",
      "description": "경기 부천시 원미구 길주로77번길 61",
      "url": "http://place.map.kakao.com/27107141",
      "region": "경기도"
    },
    {
      "lat": 37.35372984754929,
      "lng": 126.72465209133057,
      "title": "뚜레쥬르 카페시흥정왕점",
      "description": "경기 시흥시 옥구상가2길 3",
      "url": "http://place.map.kakao.com/1519166074",
      "region": "경기도"
    },
    {
      "lat": 37.46606020812882,
      "lng": 127.12673419331792,
      "title": "뚜레쥬르 카페복정역점",
      "description": "경기 성남시 수정구 성남대로 1526",
      "url": "http://place.map.kakao.com/1654702200",
      "region": "경기도"
    },
    {
      "lat": 37.2648369359329,
      "lng": 127.021052511259,
      "title": "뚜레쥬르 매교솔밭사거리점",
      "description": "경기 수원시 팔달구 세지로 150",
      "url": "http://place.map.kakao.com/162575591",
      "region": "경기도"
    },
    {
      "lat": 37.6482384155289,
      "lng": 126.88402539755903,
      "title": "뚜레쥬르 카페고양삼송점",
      "description": "경기 고양시 덕양구 덕수천1로 64",
      "url": "http://place.map.kakao.com/1208122764",
      "region": "경기도"
    },
    {
      "lat": 37.205961939717,
      "lng": 127.112000506707,
      "title": "뚜레쥬르 동탄영천점",
      "description": "경기 화성시 지산2길 4-12",
      "url": "http://place.map.kakao.com/922617621",
      "region": "경기도"
    },
    {
      "lat": 37.8600862803444,
      "lng": 126.777443247496,
      "title": "뚜레쥬르 문산당동점",
      "description": "경기 파주시 문산읍 방촌로 1626",
      "url": "http://place.map.kakao.com/18985343",
      "region": "경기도"
    },
    {
      "lat": 37.60109244458206,
      "lng": 126.72165483086735,
      "title": "뚜레쥬르 김포풍무점",
      "description": "경기 김포시 풍무로 62",
      "url": "http://place.map.kakao.com/7850888",
      "region": "경기도"
    },
    {
      "lat": 37.4037331441923,
      "lng": 126.95471817875,
      "title": "뚜레쥬르 안양수촌마을점",
      "description": "경기 안양시 동안구 관평로305번길 41",
      "url": "http://place.map.kakao.com/21322864",
      "region": "경기도"
    },
    {
      "lat": 37.418950158393606,
      "lng": 127.1313338792262,
      "title": "뚜레쥬르 성남여수점",
      "description": "경기 성남시 중원구 여수울로15번길 4-6",
      "url": "http://place.map.kakao.com/18497219",
      "region": "경기도"
    },
    {
      "lat": 37.631129953894735,
      "lng": 127.11655523451036,
      "title": "뚜레쥬르 카페구리갈매점",
      "description": "경기 구리시 산마루로 24",
      "url": "http://place.map.kakao.com/1284774462",
      "region": "경기도"
    },
    {
      "lat": 37.655675277964875,
      "lng": 127.25508372549788,
      "title": "뚜레쥬르 남양주호평효성점",
      "description": "경기 남양주시 늘을1로 286",
      "url": "http://place.map.kakao.com/26628082",
      "region": "경기도"
    },
    {
      "lat": 37.39445851980961,
      "lng": 127.11220018388393,
      "title": "뚜레쥬르 카페판교역점",
      "description": "경기 성남시 분당구 분당내곡로 117",
      "url": "http://place.map.kakao.com/1776630740",
      "region": "경기도"
    },
    {
      "lat": 37.305495405493545,
      "lng": 126.99561216983474,
      "title": "뚜레쥬르 수원정자블루밍점",
      "description": "경기 수원시 장안구 파장로 47",
      "url": "http://place.map.kakao.com/21225747",
      "region": "경기도"
    },
    {
      "lat": 37.166671487914286,
      "lng": 127.10714049558067,
      "title": "뚜레쥬르 동탄호수공원점",
      "description": "경기 화성시 동탄순환대로 127-9",
      "url": "http://place.map.kakao.com/1153057880",
      "region": "경기도"
    },
    {
      "lat": 37.4192082961911,
      "lng": 126.909471957642,
      "title": "뚜레쥬르 안양관악역점",
      "description": "경기 안양시 만안구 경수대로1273번길 43",
      "url": "http://place.map.kakao.com/15856106",
      "region": "경기도"
    },
    {
      "lat": 37.21477935033133,
      "lng": 127.04397217059005,
      "title": "뚜레쥬르 병점중심상가점",
      "description": "경기 화성시 효행로 1068",
      "url": "http://place.map.kakao.com/36407996",
      "region": "경기도"
    },
    {
      "lat": 37.32651878347765,
      "lng": 126.79999922995792,
      "title": "뚜레쥬르 안산센트럴포레점",
      "description": "경기 안산시 단원구 화랑로 102",
      "url": "http://place.map.kakao.com/1813743528",
      "region": "경기도"
    },
    {
      "lat": 37.4855587592659,
      "lng": 126.782276685794,
      "title": "뚜레쥬르 카페부천역점",
      "description": "경기 부천시 원미구 부천로 11",
      "url": "http://place.map.kakao.com/1868585008",
      "region": "경기도"
    },
    {
      "lat": 37.591303157459826,
      "lng": 127.13936053363602,
      "title": "뚜레쥬르 카페구리수택점",
      "description": "경기 구리시 체육관로74번길 23",
      "url": "http://place.map.kakao.com/979728029",
      "region": "경기도"
    },
    {
      "lat": 37.44117531197556,
      "lng": 127.13152526384279,
      "title": "뚜레쥬르 성남태평점",
      "description": "경기 성남시 수정구 제일로 165-1",
      "url": "http://place.map.kakao.com/10367673",
      "region": "경기도"
    },
    {
      "lat": 37.66975236319225,
      "lng": 126.76136567470078,
      "title": "뚜레쥬르 일산주엽역점",
      "description": "경기 고양시 일산서구 중앙로 1425",
      "url": "http://place.map.kakao.com/21682359",
      "region": "경기도"
    },
    {
      "lat": 37.28974535469611,
      "lng": 127.00104879982239,
      "title": "뚜레쥬르 수원정자시장점",
      "description": "경기 수원시 장안구 수성로262번길 2",
      "url": "http://place.map.kakao.com/15457127",
      "region": "경기도"
    },
    {
      "lat": 37.400177374735186,
      "lng": 126.93310596977993,
      "title": "뚜레쥬르 평촌자이아이파크점",
      "description": "경기 안양시 동안구 비산로 18",
      "url": "http://place.map.kakao.com/667763061",
      "region": "경기도"
    },
    {
      "lat": 37.30077097485302,
      "lng": 126.86368691287913,
      "title": "뚜레쥬르 안산상록수점",
      "description": "경기 안산시 상록구 샘골로 190",
      "url": "http://place.map.kakao.com/10369653",
      "region": "경기도"
    },
    {
      "lat": 37.27426548575837,
      "lng": 127.00196186878378,
      "title": "뚜레쥬르 수원역푸르지오자이점",
      "description": "경기 수원시 팔달구 팔달로 63",
      "url": "http://place.map.kakao.com/36497705",
      "region": "경기도"
    },
    {
      "lat": 37.38926917636841,
      "lng": 126.97705403006853,
      "title": "뚜레쥬르 의왕내손점",
      "description": "경기 의왕시 내손중앙로 4",
      "url": "http://place.map.kakao.com/998792822",
      "region": "경기도"
    },
    {
      "lat": 37.56216338435172,
      "lng": 127.1930117572972,
      "title": "뚜레쥬르 미사역점",
      "description": "경기 하남시 미사강변동로 79",
      "url": "http://place.map.kakao.com/180197307",
      "region": "경기도"
    },
    {
      "lat": 37.23931784385003,
      "lng": 127.05421160024392,
      "title": "뚜레쥬르 수원망포점",
      "description": "경기 수원시 영통구 태장로 73",
      "url": "http://place.map.kakao.com/1706295025",
      "region": "경기도"
    },
    {
      "lat": 37.3691794689141,
      "lng": 126.81190912265457,
      "title": "뚜레쥬르 시흥능곡점",
      "description": "경기 시흥시 장현능곡로 198",
      "url": "http://place.map.kakao.com/19300237",
      "region": "경기도"
    },
    {
      "lat": 37.7114200565154,
      "lng": 126.75020300386,
      "title": "뚜레쥬르 파주한빛마을점",
      "description": "경기 파주시 와석순환로 86",
      "url": "http://place.map.kakao.com/17615552",
      "region": "경기도"
    },
    {
      "lat": 37.82791163716492,
      "lng": 127.09123403466654,
      "title": "뚜레쥬르 양주옥정고점",
      "description": "경기 양주시 옥정로7길 9-5",
      "url": "http://place.map.kakao.com/1961902518",
      "region": "경기도"
    },
    {
      "lat": 37.6537830105418,
      "lng": 126.841400771641,
      "title": "뚜레쥬르 고양원당역점",
      "description": "경기 고양시 덕양구 고양대로 1415",
      "url": "http://place.map.kakao.com/1002526980",
      "region": "경기도"
    },
    {
      "lat": 37.3188435400444,
      "lng": 126.834875657939,
      "title": "뚜레쥬르 카페안산중앙점",
      "description": "경기 안산시 단원구 고잔로 76",
      "url": "http://place.map.kakao.com/212454958",
      "region": "경기도"
    },
    {
      "lat": 37.50537904330249,
      "lng": 126.76306720782733,
      "title": "뚜레쥬르 부천은하점",
      "description": "경기 부천시 원미구 길주로 183",
      "url": "http://place.map.kakao.com/7858558",
      "region": "경기도"
    },
    {
      "lat": 37.5272890778272,
      "lng": 126.815841232911,
      "title": "뚜레쥬르 부천고강점",
      "description": "경기 부천시 오정구 역곡로 479",
      "url": "http://place.map.kakao.com/12394552",
      "region": "경기도"
    },
    {
      "lat": 38.18647804211527,
      "lng": 128.59248357820027,
      "title": "뚜레쥬르 속초조양점",
      "description": "강원특별자치도 속초시 온정로 25",
      "url": "http://place.map.kakao.com/27595397",
      "region": "강원특별자치도"
    },
    {
      "lat": 37.85931180306146,
      "lng": 127.72392707456548,
      "title": "뚜레쥬르 남춘천점",
      "description": "강원특별자치도 춘천시 행촌로 27",
      "url": "http://place.map.kakao.com/8273460",
      "region": "강원특별자치도"
    },
    {
      "lat": 37.764405150192104,
      "lng": 128.88039270802673,
      "title": "뚜레쥬르 강릉교동점",
      "description": "강원특별자치도 강릉시 교동광장로 139",
      "url": "http://place.map.kakao.com/10364591",
      "region": "강원특별자치도"
    },
    {
      "lat": 37.3303310014359,
      "lng": 127.949290215995,
      "title": "뚜레쥬르 원주단구점",
      "description": "강원특별자치도 원주시 서원대로 402",
      "url": "http://place.map.kakao.com/21658691",
      "region": "강원특별자치도"
    },
    {
      "lat": 37.4481378653259,
      "lng": 129.175772403904,
      "title": "뚜레쥬르 삼척교동점",
      "description": "강원특별자치도 삼척시 청석로 63",
      "url": "http://place.map.kakao.com/15233373",
      "region": "강원특별자치도"
    },
    {
      "lat": 37.3498404777182,
      "lng": 127.926426615719,
      "title": "뚜레쥬르 원주봉화산점",
      "description": "강원특별자치도 원주시 백간공원길 22",
      "url": "http://place.map.kakao.com/11094971",
      "region": "강원특별자치도"
    },
    {
      "lat": 37.86390176445829,
      "lng": 127.7374748119312,
      "title": "뚜레쥬르 춘천효자점",
      "description": "강원특별자치도 춘천시 공지로 240",
      "url": "http://place.map.kakao.com/889931009",
      "region": "강원특별자치도"
    },
    {
      "lat": 37.85928768584714,
      "lng": 127.73537887710012,
      "title": "뚜레쥬르 춘천퇴계중앙점",
      "description": "강원특별자치도 춘천시 퇴계로 146",
      "url": "http://place.map.kakao.com/1725807292",
      "region": "강원특별자치도"
    },
    {
      "lat": 37.8789732620518,
      "lng": 127.750898771086,
      "title": "뚜레쥬르 춘천후평점",
      "description": "강원특별자치도 춘천시 후석로 312",
      "url": "http://place.map.kakao.com/826857336",
      "region": "강원특별자치도"
    },
    {
      "lat": 37.77011899675125,
      "lng": 128.91352271880382,
      "title": "뚜레쥬르 강릉포남동점",
      "description": "강원특별자치도 강릉시 하평길 46",
      "url": "http://place.map.kakao.com/21345327",
      "region": "강원특별자치도"
    },
    {
      "lat": 37.5242932222395,
      "lng": 129.110756589928,
      "title": "뚜레쥬르 동해점",
      "description": "강원특별자치도 동해시 천곡로 49",
      "url": "http://place.map.kakao.com/992501269",
      "region": "강원특별자치도"
    },
    {
      "lat": 37.35000471749659,
      "lng": 127.9486745117881,
      "title": "뚜레쥬르 원주중앙점",
      "description": "강원특별자치도 원주시 원일로 114",
      "url": "http://place.map.kakao.com/17850677",
      "region": "강원특별자치도"
    },
    {
      "lat": 37.3231054791896,
      "lng": 127.956834959548,
      "title": "뚜레쥬르 원주단관택지점",
      "description": "강원특별자치도 원주시 단구로 374",
      "url": "http://place.map.kakao.com/293137820",
      "region": "강원특별자치도"
    },
    {
      "lat": 37.1590003608308,
      "lng": 128.986895442568,
      "title": "뚜레쥬르 태백상장점",
      "description": "강원특별자치도 태백시 감천로 6",
      "url": "http://place.map.kakao.com/8121267",
      "region": "강원특별자치도"
    },
    {
      "lat": 37.637472098258485,
      "lng": 128.55967180606706,
      "title": "뚜레쥬르 진부중앙점",
      "description": "강원특별자치도 평창군 진부면 경강로 3615-1",
      "url": "http://place.map.kakao.com/26607276",
      "region": "강원특별자치도"
    },
    {
      "lat": 37.4898429147421,
      "lng": 127.98545813333914,
      "title": "뚜레쥬르 횡성점",
      "description": "강원특별자치도 횡성군 횡성읍 문정로 20",
      "url": "http://place.map.kakao.com/983525538",
      "region": "강원특별자치도"
    },
    {
      "lat": 37.68201597830945,
      "lng": 127.87726236407755,
      "title": "뚜레쥬르 홍천연봉점",
      "description": "강원특별자치도 홍천군 홍천읍 연봉로 32",
      "url": "http://place.map.kakao.com/18149068",
      "region": "강원특별자치도"
    },
    {
      "lat": 37.3158185468372,
      "lng": 127.959905741188,
      "title": "뚜레쥬르 원주관설점",
      "description": "강원특별자치도 원주시 치악고교길 21",
      "url": "http://place.map.kakao.com/10369658",
      "region": "강원특별자치도"
    },
    {
      "lat": 37.3404494791687,
      "lng": 127.923070302387,
      "title": "뚜레쥬르 강원영업팀",
      "description": "강원특별자치도 원주시 시청로 25",
      "url": "http://place.map.kakao.com/25850115",
      "region": "강원특별자치도"
    },
    {
      "lat": 38.075120137695244,
      "lng": 128.62417656696712,
      "title": "뚜레쥬르 양양점",
      "description": "강원특별자치도 양양군 양양읍 남문3길 11-2",
      "url": "http://place.map.kakao.com/13049658",
      "region": "강원특별자치도"
    },
    {
      "lat": 37.3618373735901,
      "lng": 127.959078404089,
      "title": "뚜레쥬르 원주태장점",
      "description": "강원특별자치도 원주시 현충로58번길 42",
      "url": "http://place.map.kakao.com/7851123",
      "region": "강원특별자치도"
    },
    {
      "lat": 37.75294359545982,
      "lng": 128.89669799516204,
      "title": "뚜레쥬르 강릉중앙시장점",
      "description": "강원특별자치도 강릉시 금성로 39",
      "url": "http://place.map.kakao.com/11075438",
      "region": "강원특별자치도"
    },
    {
      "lat": 37.90641633068805,
      "lng": 127.72796441504275,
      "title": "뚜레쥬르 춘천강북벨몽드점",
      "description": "강원특별자치도 춘천시 사우4길 36",
      "url": "http://place.map.kakao.com/1174257896",
      "region": "강원특별자치도"
    },
    {
      "lat": 37.323669441377234,
      "lng": 127.97952468039276,
      "title": "뚜레쥬르 원주혁신점",
      "description": "강원특별자치도 원주시 혁신로 37-3",
      "url": "http://place.map.kakao.com/2114125948",
      "region": "강원특별자치도"
    },
    {
      "lat": 37.34194560121218,
      "lng": 127.96589528264343,
      "title": "뚜레쥬르 원주봉산점",
      "description": "강원특별자치도 원주시 행구로 79",
      "url": "http://place.map.kakao.com/10365273",
      "region": "강원특별자치도"
    },
    {
      "lat": 37.36996570433952,
      "lng": 127.93672804919949,
      "title": "뚜레쥬르 원주상지대점",
      "description": "강원특별자치도 원주시 우산로 71",
      "url": "http://place.map.kakao.com/17847001",
      "region": "강원특별자치도"
    },
    {
      "lat": 37.38256757539399,
      "lng": 127.87310798121231,
      "title": "뚜레쥬르 원주기업도시점",
      "description": "강원특별자치도 원주시 지정면 신지정로 322-1",
      "url": "http://place.map.kakao.com/1886611643",
      "region": "강원특별자치도"
    },
    {
      "lat": 37.324161726477925,
      "lng": 127.8291847156579,
      "title": "뚜레쥬르 원주문막점",
      "description": "강원특별자치도 원주시 문막읍 왕건로 52",
      "url": "http://place.map.kakao.com/7851121",
      "region": "강원특별자치도"
    },
    {
      "lat": 37.883362556989745,
      "lng": 127.7390874610274,
      "title": "뚜레쥬르 춘천한림대점",
      "description": "강원특별자치도 춘천시 삭주로 76",
      "url": "http://place.map.kakao.com/21685719",
      "region": "강원특별자치도"
    },
    {
      "lat": 37.76120025453352,
      "lng": 128.90699412446628,
      "title": "뚜레쥬르 강릉합동마트점",
      "description": "강원특별자치도 강릉시 경강로2224번길 12-1",
      "url": "http://place.map.kakao.com/979705861",
      "region": "강원특별자치도"
    },
    {
      "lat": 37.183411406074796,
      "lng": 128.4676003648121,
      "title": "뚜레쥬르 영월중앙점",
      "description": "강원특별자치도 영월군 영월읍 중앙로 36",
      "url": "http://place.map.kakao.com/21342963",
      "region": "강원특별자치도"
    },
    {
      "lat": 37.1789889347337,
      "lng": 128.459545009373,
      "title": "뚜레쥬르 영월하송점",
      "description": "강원특별자치도 영월군 영월읍 하송로 115",
      "url": "http://place.map.kakao.com/19901229",
      "region": "강원특별자치도"
    },
    {
      "lat": 37.744785769654,
      "lng": 128.883825805112,
      "title": "뚜레쥬르 강릉내곡점",
      "description": "강원특별자치도 강릉시 범일로 653",
      "url": "http://place.map.kakao.com/10524154",
      "region": "강원특별자치도"
    },
    {
      "lat": 37.8934406231187,
      "lng": 128.827216201957,
      "title": "뚜레쥬르 주문진점",
      "description": "강원특별자치도 강릉시 주문진읍 주문로 107",
      "url": "http://place.map.kakao.com/12394607",
      "region": "강원특별자치도"
    },
    {
      "lat": 37.302413604019,
      "lng": 127.920186985151,
      "title": "뚜레쥬르 원주흥업점",
      "description": "강원특별자치도 원주시 흥업면 남원로 72",
      "url": "http://place.map.kakao.com/7851124",
      "region": "강원특별자치도"
    },
    {
      "lat": 37.3462451719763,
      "lng": 127.928765929064,
      "title": "뚜레쥬르 비앤비파트너스강원점",
      "description": "강원특별자치도 원주시 봉화로 22",
      "url": "http://place.map.kakao.com/1107742028",
      "region": "강원특별자치도"
    },
    {
      "lat": 38.1041906312765,
      "lng": 127.706111054534,
      "title": "뚜레쥬르 화천2호점",
      "description": "강원특별자치도 화천군 화천읍 중앙로 20",
      "url": "http://place.map.kakao.com/21244890",
      "region": "강원특별자치도"
    },
    {
      "lat": 38.10667803508791,
      "lng": 127.98918976677443,
      "title": "뚜레쥬르 양구점",
      "description": "강원특별자치도 양구군 양구읍 중앙길 18",
      "url": "http://place.map.kakao.com/7856673",
      "region": "강원특별자치도"
    },
    {
      "lat": 37.3147493744124,
      "lng": 127.821364092448,
      "title": "뚜레쥬르 원주문막극동점",
      "description": "강원특별자치도 원주시 문막읍 건등로 67-1",
      "url": "http://place.map.kakao.com/21210600",
      "region": "강원특별자치도"
    },
    {
      "lat": 37.7571112737513,
      "lng": 128.869451573158,
      "title": "뚜레쥬르 강릉유천하나로점",
      "description": "강원특별자치도 강릉시 선수촌로63번길 14-8",
      "url": "http://place.map.kakao.com/325190761",
      "region": "강원특별자치도"
    },
    {
      "lat": 37.6924177682462,
      "lng": 127.898636423027,
      "title": "뚜레쥬르 홍천갈마점",
      "description": "강원특별자치도 홍천군 홍천읍 갈마로 16",
      "url": "http://place.map.kakao.com/21248818",
      "region": "강원특별자치도"
    },
    {
      "lat": 37.277067326353674,
      "lng": 127.90240412326504,
      "title": "뚜레쥬르 원주연세대점",
      "description": "강원특별자치도 원주시 흥업면 연세대길 1",
      "url": "http://place.map.kakao.com/23612358",
      "region": "강원특별자치도"
    },
    {
      "lat": 36.620107861375416,
      "lng": 127.51442499443631,
      "title": "뚜레쥬르 청주용암부영점",
      "description": "충북 청주시 상당구 중흥로 199",
      "url": "http://place.map.kakao.com/7849870",
      "region": "충청북도"
    },
    {
      "lat": 36.668643063323614,
      "lng": 127.48861287687609,
      "title": "뚜레쥬르 청주율량점",
      "description": "충북 청주시 청원구 율봉로 178",
      "url": "http://place.map.kakao.com/17614767",
      "region": "충청북도"
    },
    {
      "lat": 36.63370201336684,
      "lng": 127.45983486783234,
      "title": "뚜레쥬르 충대중문점",
      "description": "충북 청주시 서원구 내수동로 112",
      "url": "http://place.map.kakao.com/21302175",
      "region": "충청북도"
    },
    {
      "lat": 36.628684875208485,
      "lng": 127.43667535402308,
      "title": "뚜레쥬르 청주가경점",
      "description": "충북 청주시 흥덕구 가경로 155",
      "url": "http://place.map.kakao.com/453709830",
      "region": "충청북도"
    },
    {
      "lat": 36.6215313237695,
      "lng": 127.317581607176,
      "title": "뚜레쥬르 오송파라곤점",
      "description": "충북 청주시 흥덕구 오송읍 오송생명7로 164",
      "url": "http://place.map.kakao.com/115829135",
      "region": "충청북도"
    },
    {
      "lat": 36.611758805137285,
      "lng": 127.47153401736468,
      "title": "뚜레쥬르 청주산남계룡점",
      "description": "충북 청주시 서원구 산남로 22",
      "url": "http://place.map.kakao.com/12394941",
      "region": "충청북도"
    },
    {
      "lat": 36.6497591828664,
      "lng": 127.46054428069,
      "title": "뚜레쥬르 청주봉명아이파크점",
      "description": "충북 청주시 흥덕구 덕암로114번길 37",
      "url": "http://place.map.kakao.com/15809390",
      "region": "충청북도"
    },
    {
      "lat": 36.6393794162407,
      "lng": 127.435292134791,
      "title": "뚜레쥬르 청주복대어울림점",
      "description": "충북 청주시 흥덕구 대신로73번길 1",
      "url": "http://place.map.kakao.com/12394927",
      "region": "충청북도"
    },
    {
      "lat": 36.7232902315782,
      "lng": 127.536398655507,
      "title": "뚜레쥬르 청원내수점",
      "description": "충북 청주시 청원구 내수읍 청암로 54",
      "url": "http://place.map.kakao.com/17122626",
      "region": "충청북도"
    },
    {
      "lat": 36.98276523701947,
      "lng": 127.94215982795693,
      "title": "뚜레쥬르 충주신연수점",
      "description": "충북 충주시 연수동산로 2",
      "url": "http://place.map.kakao.com/10371158",
      "region": "충청북도"
    },
    {
      "lat": 36.30014251882628,
      "lng": 127.56205865637453,
      "title": "뚜레쥬르 옥천양수점",
      "description": "충북 옥천군 옥천읍 양수로 23-7",
      "url": "http://place.map.kakao.com/1185736440",
      "region": "충청북도"
    },
    {
      "lat": 37.15356025818101,
      "lng": 128.2253613990216,
      "title": "뚜레쥬르 제천장락주공점",
      "description": "충북 제천시 장락로 129",
      "url": "http://place.map.kakao.com/629800955",
      "region": "충청북도"
    },
    {
      "lat": 36.9120081379439,
      "lng": 127.544548785129,
      "title": "뚜레쥬르 충북혁신도시점",
      "description": "충북 음성군 맹동면 대하로 277",
      "url": "http://place.map.kakao.com/26553088",
      "region": "충청북도"
    },
    {
      "lat": 36.61839452830808,
      "lng": 127.3121022999449,
      "title": "뚜레쥬르 오송센트럴시티점",
      "description": "충북 청주시 흥덕구 오송읍 오송생명7로 118",
      "url": "http://place.map.kakao.com/186576485",
      "region": "충청북도"
    },
    {
      "lat": 36.983340773757,
      "lng": 127.460327716298,
      "title": "뚜레쥬르 음성공장점",
      "description": "충북 음성군 대소면 대소산단로 20",
      "url": "http://place.map.kakao.com/22961174",
      "region": "충청북도"
    },
    {
      "lat": 37.138570946584615,
      "lng": 128.21153457403307,
      "title": "뚜레쥬르 제천중앙점",
      "description": "충북 제천시 풍양로13길 14",
      "url": "http://place.map.kakao.com/7857518",
      "region": "충청북도"
    },
    {
      "lat": 36.616188638749925,
      "lng": 127.43087368232946,
      "title": "뚜레쥬르 청주가경아이파크점",
      "description": "충북 청주시 흥덕구 서현로 68",
      "url": "http://place.map.kakao.com/97768211",
      "region": "충청북도"
    },
    {
      "lat": 36.48441249348123,
      "lng": 127.72028767255371,
      "title": "뚜레쥬르 충북보은점",
      "description": "충북 보은군 보은읍 삼산로 15",
      "url": "http://place.map.kakao.com/11084125",
      "region": "충청북도"
    },
    {
      "lat": 36.64253532337034,
      "lng": 127.42703390009416,
      "title": "뚜레쥬르 청주지웰시티점",
      "description": "충북 청주시 흥덕구 대농로 39",
      "url": "http://place.map.kakao.com/25645851",
      "region": "충청북도"
    },
    {
      "lat": 37.140011824135755,
      "lng": 128.19911461157005,
      "title": "뚜레쥬르 제천하소로점",
      "description": "충북 제천시 하소로 42",
      "url": "http://place.map.kakao.com/833331185",
      "region": "충청북도"
    },
    {
      "lat": 36.60979484068312,
      "lng": 127.50420732430055,
      "title": "뚜레쥬르 청주용암현대점",
      "description": "충북 청주시 상당구 월평로184번길 8",
      "url": "http://place.map.kakao.com/12394928",
      "region": "충청북도"
    },
    {
      "lat": 37.0038207539725,
      "lng": 127.817739440704,
      "title": "뚜레쥬르 서충주파라뷰점",
      "description": "충북 충주시 주덕읍 화개2길 3",
      "url": "http://place.map.kakao.com/1063964958",
      "region": "충청북도"
    },
    {
      "lat": 36.611204715206675,
      "lng": 127.49336518715249,
      "title": "뚜레쥬르 청주분평주공점",
      "description": "충북 청주시 서원구 월평로 78",
      "url": "http://place.map.kakao.com/7849868",
      "region": "충청북도"
    },
    {
      "lat": 36.90245216305566,
      "lng": 127.53381960363194,
      "title": "뚜레쥬르 진천혁신도시점",
      "description": "충북 진천군 덕산읍 시가로 14",
      "url": "http://place.map.kakao.com/1338269899",
      "region": "충청북도"
    },
    {
      "lat": 36.8731234608944,
      "lng": 127.44040127212362,
      "title": "뚜레쥬르 진천장관점",
      "description": "충북 진천군 진천읍 진광로 97-12",
      "url": "http://place.map.kakao.com/1809602758",
      "region": "충청북도"
    },
    {
      "lat": 36.643947015519494,
      "lng": 127.48944537167557,
      "title": "뚜레쥬르 청주시청점",
      "description": "충북 청주시 상당구 중앙로 80",
      "url": "http://place.map.kakao.com/1639422733",
      "region": "충청북도"
    },
    {
      "lat": 36.6558679561967,
      "lng": 127.487921483012,
      "title": "뚜레쥬르 청주내덕중앙로점",
      "description": "충북 청주시 청원구 중앙로 209",
      "url": "http://place.map.kakao.com/1257086875",
      "region": "충청북도"
    },
    {
      "lat": 36.6306507559805,
      "lng": 127.424894326062,
      "title": "뚜레쥬르 청주비하계룡점",
      "description": "충북 청주시 흥덕구 2순환로1168번길 26",
      "url": "http://place.map.kakao.com/12394920",
      "region": "충청북도"
    },
    {
      "lat": 36.6207346085799,
      "lng": 127.446603390903,
      "title": "뚜레쥬르 청주개신주공점",
      "description": "충북 청주시 서원구 경신로 40",
      "url": "http://place.map.kakao.com/8276480",
      "region": "충청북도"
    },
    {
      "lat": 37.01781630785847,
      "lng": 127.82769461665872,
      "title": "뚜레쥬르 서충주신도시점",
      "description": "충북 충주시 중앙탑면 원앙4길 21",
      "url": "http://place.map.kakao.com/1004567892",
      "region": "충청북도"
    },
    {
      "lat": 36.7839112057124,
      "lng": 127.581322491204,
      "title": "뚜레쥬르 충북증평점",
      "description": "충북 증평군 증평읍 중앙로 202",
      "url": "http://place.map.kakao.com/17507157",
      "region": "충청북도"
    },
    {
      "lat": 36.70805808215425,
      "lng": 127.41963021266459,
      "title": "뚜레쥬르 오창한라점",
      "description": "충북 청주시 청원구 오창읍 오창중앙로 96",
      "url": "http://place.map.kakao.com/7850686",
      "region": "충청북도"
    },
    {
      "lat": 36.297584145113305,
      "lng": 127.57568237344775,
      "title": "뚜레쥬르 충북옥천점",
      "description": "충북 옥천군 옥천읍 문장로 88-10",
      "url": "http://place.map.kakao.com/23359602",
      "region": "충청북도"
    },
    {
      "lat": 36.9350221156342,
      "lng": 127.692587370832,
      "title": "뚜레쥬르 충북음성점",
      "description": "충북 음성군 음성읍 수정로 55",
      "url": "http://place.map.kakao.com/8318516",
      "region": "충청북도"
    },
    {
      "lat": 36.62849295930868,
      "lng": 127.48230298208262,
      "title": "뚜레쥬르 청주모충점",
      "description": "충북 청주시 서원구 무심서로413번길 5",
      "url": "http://place.map.kakao.com/842052525",
      "region": "충청북도"
    },
    {
      "lat": 36.617263120307584,
      "lng": 127.4437965420277,
      "title": "뚜레쥬르 청주가경주공점",
      "description": "충북 청주시 흥덕구 가경로 16-2",
      "url": "http://place.map.kakao.com/17139912",
      "region": "충청북도"
    },
    {
      "lat": 36.9734347673414,
      "lng": 127.800624974508,
      "title": "뚜레쥬르 충주주덕점",
      "description": "충북 충주시 주덕읍 신양로 124",
      "url": "http://place.map.kakao.com/18326676",
      "region": "충청북도"
    },
    {
      "lat": 36.671842176467585,
      "lng": 127.49965848973365,
      "title": "뚜레쥬르 청주율량칸타빌점",
      "description": "충북 청주시 청원구 율량로 135",
      "url": "http://place.map.kakao.com/26825313",
      "region": "충청북도"
    },
    {
      "lat": 36.618211976939584,
      "lng": 127.51938915869285,
      "title": "뚜레쥬르 청주동남점",
      "description": "충북 청주시 상당구 중고개로 140",
      "url": "http://place.map.kakao.com/234904068",
      "region": "충청북도"
    },
    {
      "lat": 36.95693222930857,
      "lng": 127.92529290976361,
      "title": "뚜레쥬르 호암신도시점",
      "description": "충북 충주시 호암수청1로 47",
      "url": "http://place.map.kakao.com/2037347167",
      "region": "충청북도"
    },
    {
      "lat": 36.61701948100292,
      "lng": 127.50222210445592,
      "title": "뚜레쥬르 청주영운제일점",
      "description": "충북 청주시 상당구 영운천로 29",
      "url": "http://place.map.kakao.com/1852228161",
      "region": "충청북도"
    },
    {
      "lat": 36.6315889163287,
      "lng": 127.506697210177,
      "title": "뚜레쥬르 청주금천장자점",
      "description": "충북 청주시 상당구 수영로 303-1",
      "url": "http://place.map.kakao.com/21346629",
      "region": "충청북도"
    },
    {
      "lat": 36.621738852110695,
      "lng": 127.42908793989153,
      "title": "뚜레쥬르 청주강서점",
      "description": "충북 청주시 흥덕구 서현중로 35",
      "url": "http://place.map.kakao.com/15977636",
      "region": "충청북도"
    },
    {
      "lat": 37.15872155282007,
      "lng": 128.22087540211743,
      "title": "뚜레쥬르 제천고암점",
      "description": "충북 제천시 용두천로46길 35",
      "url": "http://place.map.kakao.com/543319353",
      "region": "충청북도"
    },
    {
      "lat": 36.610873079971064,
      "lng": 127.46578330201997,
      "title": "뚜레쥬르 청주산남점",
      "description": "충북 청주시 서원구 산남로 75",
      "url": "http://place.map.kakao.com/20941446",
      "region": "충청북도"
    },
    {
      "lat": 36.79339551233757,
      "lng": 127.12270321097157,
      "title": "뚜레쥬르 천안쌍용역점",
      "description": "충남 천안시 서북구 충무로 143-7",
      "url": "http://place.map.kakao.com/25069037",
      "region": "충청남도"
    },
    {
      "lat": 36.82801164839615,
      "lng": 127.15786031300283,
      "title": "뚜레쥬르 천안신부점",
      "description": "충남 천안시 동남구 북일로 70",
      "url": "http://place.map.kakao.com/1953916566",
      "region": "충청남도"
    },
    {
      "lat": 36.8417542466507,
      "lng": 127.125494678953,
      "title": "뚜레쥬르 천안성성신도시점",
      "description": "충남 천안시 서북구 성성6로 51",
      "url": "http://place.map.kakao.com/592856029",
      "region": "충청남도"
    },
    {
      "lat": 36.7672138473163,
      "lng": 126.447438195735,
      "title": "뚜레쥬르 서산예천점",
      "description": "충남 서산시 예천7로 4-12",
      "url": "http://place.map.kakao.com/1488741572",
      "region": "충청남도"
    },
    {
      "lat": 36.832104751966,
      "lng": 127.141917074933,
      "title": "뚜레쥬르 천안두정아크로텔점",
      "description": "충남 천안시 서북구 성정두정로 70",
      "url": "http://place.map.kakao.com/27395742",
      "region": "충청남도"
    },
    {
      "lat": 36.818171603432745,
      "lng": 127.10878001668324,
      "title": "뚜레쥬르 천안불당신도시점",
      "description": "충남 천안시 서북구 불당25로 192",
      "url": "http://place.map.kakao.com/326718558",
      "region": "충청남도"
    },
    {
      "lat": 36.8265613946482,
      "lng": 127.122214750351,
      "title": "뚜레쥬르 천안백석점",
      "description": "충남 천안시 서북구 한들3로 35-17",
      "url": "http://place.map.kakao.com/25817394",
      "region": "충청남도"
    },
    {
      "lat": 36.7791831924098,
      "lng": 127.15157765021353,
      "title": "뚜레쥬르 천안청당점",
      "description": "충남 천안시 동남구 청당4로 61",
      "url": "http://place.map.kakao.com/1240677501",
      "region": "충청남도"
    },
    {
      "lat": 36.7949065434961,
      "lng": 127.115643453889,
      "title": "뚜레쥬르 천안월봉점",
      "description": "충남 천안시 서북구 월봉4로 88-11",
      "url": "http://place.map.kakao.com/7849424",
      "region": "충청남도"
    },
    {
      "lat": 36.65711711112435,
      "lng": 126.68277111796145,
      "title": "뚜레쥬르 내포신도시점",
      "description": "충남 홍성군 홍북읍 애향1길 1",
      "url": "http://place.map.kakao.com/423663904",
      "region": "충청남도"
    },
    {
      "lat": 36.2891992013472,
      "lng": 127.24175634919726,
      "title": "뚜레쥬르 논산계룡대점",
      "description": "충남 계룡시 엄사면 엄사중앙로 95",
      "url": "http://place.map.kakao.com/10366083",
      "region": "충청남도"
    },
    {
      "lat": 36.2810502911128,
      "lng": 126.912446968241,
      "title": "뚜레쥬르 충남부여점",
      "description": "충남 부여군 부여읍 석탑로 55",
      "url": "http://place.map.kakao.com/7849992",
      "region": "충청남도"
    },
    {
      "lat": 36.59184201489802,
      "lng": 126.66934243302649,
      "title": "뚜레쥬르 홍성삼성마트점",
      "description": "충남 홍성군 홍성읍 홍장북로 416",
      "url": "http://place.map.kakao.com/20495016",
      "region": "충청남도"
    },
    {
      "lat": 36.45086982835454,
      "lng": 126.79906907055519,
      "title": "뚜레쥬르 충남청양점",
      "description": "충남 청양군 청양읍 중앙로7길 36",
      "url": "http://place.map.kakao.com/234428946",
      "region": "충청남도"
    },
    {
      "lat": 36.77358455735419,
      "lng": 127.07197767264677,
      "title": "뚜레쥬르 아산북수점",
      "description": "충남 아산시 배방읍 북수로 102",
      "url": "http://place.map.kakao.com/17977313",
      "region": "충청남도"
    },
    {
      "lat": 36.8880346624525,
      "lng": 126.65222520517,
      "title": "뚜레쥬르 당진수청점",
      "description": "충남 당진시 수청2로 42",
      "url": "http://place.map.kakao.com/1235574193",
      "region": "충청남도"
    },
    {
      "lat": 36.6901492155631,
      "lng": 126.8300757476,
      "title": "뚜레쥬르 예산터미널점",
      "description": "충남 예산군 예산읍 역전로 124",
      "url": "http://place.map.kakao.com/7850917",
      "region": "충청남도"
    },
    {
      "lat": 36.473427961002,
      "lng": 127.135801890222,
      "title": "뚜레쥬르 공주신관제일점",
      "description": "충남 공주시 번영1로 72",
      "url": "http://place.map.kakao.com/269269564",
      "region": "충청남도"
    },
    {
      "lat": 36.9285255927487,
      "lng": 127.034550791688,
      "title": "뚜레쥬르 아산둔포농협하나로마트점",
      "description": "충남 아산시 둔포면 충무로 1759",
      "url": "http://place.map.kakao.com/397600741",
      "region": "충청남도"
    },
    {
      "lat": 36.8317600207483,
      "lng": 127.152516445826,
      "title": "뚜레쥬르 천안두정포레나",
      "description": "충남 천안시 서북구 북일로 6",
      "url": "http://place.map.kakao.com/990168517",
      "region": "충청남도"
    },
    {
      "lat": 36.78363404948147,
      "lng": 127.02012922528834,
      "title": "뚜레쥬르 아산모종점",
      "description": "충남 아산시 모종로22번길 7",
      "url": "http://place.map.kakao.com/1584937513",
      "region": "충청남도"
    },
    {
      "lat": 36.80524374887066,
      "lng": 127.11600750159683,
      "title": "뚜레쥬르 천안대원점",
      "description": "충남 천안시 서북구 불당11로 101",
      "url": "http://place.map.kakao.com/1596051386",
      "region": "충청남도"
    },
    {
      "lat": 36.1046579873851,
      "lng": 127.491155816419,
      "title": "뚜레쥬르 충남금산점",
      "description": "충남 금산군 금산읍 비범로 19",
      "url": "http://place.map.kakao.com/7859477",
      "region": "충청남도"
    },
    {
      "lat": 36.45574150116528,
      "lng": 127.12444601665761,
      "title": "뚜레쥬르 공주중앙점",
      "description": "충남 공주시 웅진로 173",
      "url": "http://place.map.kakao.com/11250822",
      "region": "충청남도"
    },
    {
      "lat": 36.2752926830154,
      "lng": 126.886801561964,
      "title": "뚜레쥬르 규암농협하나로마트점",
      "description": "충남 부여군 규암면 규암로 15",
      "url": "http://place.map.kakao.com/1872794462",
      "region": "충청남도"
    },
    {
      "lat": 36.8908528839571,
      "lng": 126.639690435835,
      "title": "뚜레쥬르 당진문예의전당점",
      "description": "충남 당진시 시청1로 71",
      "url": "http://place.map.kakao.com/26302591",
      "region": "충청남도"
    },
    {
      "lat": 36.19419633761774,
      "lng": 127.08895164486917,
      "title": "뚜레쥬르 논산부영점",
      "description": "충남 논산시 시민로331번길 14",
      "url": "http://place.map.kakao.com/8315515",
      "region": "충청남도"
    },
    {
      "lat": 36.75440523173746,
      "lng": 126.29464091833377,
      "title": "뚜레쥬르 충남태안점",
      "description": "충남 태안군 태안읍 환동로 81-2",
      "url": "http://place.map.kakao.com/7859479",
      "region": "충청남도"
    },
    {
      "lat": 36.786894770814946,
      "lng": 127.08455461039638,
      "title": "뚜레쥬르 아산탕정점",
      "description": "충남 아산시 탕정면 한들물빛5로 11",
      "url": "http://place.map.kakao.com/1455383665",
      "region": "충청남도"
    },
    {
      "lat": 36.92331434594882,
      "lng": 127.05439894924613,
      "title": "뚜레쥬르 아산테크노밸리점",
      "description": "충남 아산시 둔포면 아산밸리중앙로 58-5",
      "url": "http://place.map.kakao.com/1468004415",
      "region": "충청남도"
    },
    {
      "lat": 36.4740051704186,
      "lng": 127.147554591545,
      "title": "뚜레쥬르 공주신월점",
      "description": "충남 공주시 번영1로 181",
      "url": "http://place.map.kakao.com/17923750",
      "region": "충청남도"
    },
    {
      "lat": 36.65271797349945,
      "lng": 126.67350104019158,
      "title": "뚜레쥬르 홍성내포극동점",
      "description": "충남 홍성군 홍북읍 신대로 33",
      "url": "http://place.map.kakao.com/799793783",
      "region": "충청남도"
    },
    {
      "lat": 36.8084639422921,
      "lng": 126.772626076565,
      "title": "뚜레쥬르 충남합덕점",
      "description": "충남 당진시 합덕읍 중동길 43-1",
      "url": "http://place.map.kakao.com/11484397",
      "region": "충청남도"
    },
    {
      "lat": 36.7811008248254,
      "lng": 127.0046243715336,
      "title": "뚜레쥬르 온양역점",
      "description": "충남 아산시 온천대로 1504",
      "url": "http://place.map.kakao.com/11272303",
      "region": "충청남도"
    },
    {
      "lat": 36.35920968081274,
      "lng": 126.60240766741043,
      "title": "뚜레쥬르 충남보령죽정점",
      "description": "충남 보령시 지장골길 79",
      "url": "http://place.map.kakao.com/21690854",
      "region": "충청남도"
    },
    {
      "lat": 36.9014960286493,
      "lng": 126.64549273444,
      "title": "뚜레쥬르 당진터미널점",
      "description": "충남 당진시 밤절로 140",
      "url": "http://place.map.kakao.com/258861148",
      "region": "충청남도"
    },
    {
      "lat": 36.91651074716286,
      "lng": 127.13265563047361,
      "title": "뚜레쥬르 천안성환점",
      "description": "충남 천안시 서북구 성환읍 성환2로 104",
      "url": "http://place.map.kakao.com/21272824",
      "region": "충청남도"
    },
    {
      "lat": 36.204445268776205,
      "lng": 127.0846076504682,
      "title": "뚜레쥬르 논산반월점",
      "description": "충남 논산시 해월로 154",
      "url": "http://place.map.kakao.com/542186926",
      "region": "충청남도"
    },
    {
      "lat": 36.79648211291303,
      "lng": 127.10028532080139,
      "title": "뚜레쥬르 천안불당프라디움점",
      "description": "충남 천안시 서북구 공원로 176",
      "url": "http://place.map.kakao.com/375963836",
      "region": "충청남도"
    },
    {
      "lat": 36.822467553115,
      "lng": 126.451320534722,
      "title": "뚜레쥬르 서산테크노밸리점",
      "description": "충남 서산시 성연면 성연3로 35",
      "url": "http://place.map.kakao.com/27562991",
      "region": "충청남도"
    },
    {
      "lat": 36.7711525935842,
      "lng": 127.05071477911018,
      "title": "뚜레쥬르 아산배방모산점",
      "description": "충남 아산시 배방읍 배방로 58-40",
      "url": "http://place.map.kakao.com/1147294011",
      "region": "충청남도"
    },
    {
      "lat": 36.7492007956117,
      "lng": 126.306345232798,
      "title": "뚜레쥬르 충남태안하나로마트점",
      "description": "충남 태안군 태안읍 중앙로 170",
      "url": "http://place.map.kakao.com/17615382",
      "region": "충청남도"
    },
    {
      "lat": 36.190714266115464,
      "lng": 127.09904819655874,
      "title": "뚜레쥬르 논산하나로장군마트점",
      "description": "충남 논산시 중앙로 264",
      "url": "http://place.map.kakao.com/8103279",
      "region": "충청남도"
    },
    {
      "lat": 36.7724996994279,
      "lng": 126.996222955731,
      "title": "뚜레쥬르 아산용화점",
      "description": "충남 아산시 온중로 21",
      "url": "http://place.map.kakao.com/21218904",
      "region": "충청남도"
    },
    {
      "lat": 36.347255613822405,
      "lng": 126.6059463292848,
      "title": "뚜레쥬르 충남보령한내대로점",
      "description": "충남 보령시 작은오랏4길 15-22",
      "url": "http://place.map.kakao.com/21474035",
      "region": "충청남도"
    },
    {
      "lat": 35.9637649906353,
      "lng": 126.710530575154,
      "title": "뚜레쥬르 군산수송오투점",
      "description": "전북특별자치도 군산시 축동로 49",
      "url": "http://place.map.kakao.com/14666078",
      "region": "전북특별자치도"
    },
    {
      "lat": 35.83201524385803,
      "lng": 127.11408724421183,
      "title": "뚜레쥬르 전주서신점",
      "description": "전북특별자치도 전주시 완산구 당산로 54",
      "url": "http://place.map.kakao.com/7849290",
      "region": "전북특별자치도"
    },
    {
      "lat": 35.8155680550694,
      "lng": 127.10835073442,
      "title": "뚜레쥬르 전북도청점",
      "description": "전북특별자치도 전주시 완산구 홍산남로 60",
      "url": "http://place.map.kakao.com/1095824559",
      "region": "전북특별자치도"
    },
    {
      "lat": 35.8654638092198,
      "lng": 127.127293314163,
      "title": "뚜레쥬르 전주송천점",
      "description": "전북특별자치도 전주시 덕진구 솔내로 170-1",
      "url": "http://place.map.kakao.com/622643017",
      "region": "전북특별자치도"
    },
    {
      "lat": 35.95618877701113,
      "lng": 126.97131029113892,
      "title": "뚜레쥬르 전북익산영등점",
      "description": "전북특별자치도 익산시 고봉로30길 10",
      "url": "http://place.map.kakao.com/1557692182",
      "region": "전북특별자치도"
    },
    {
      "lat": 35.8059130797281,
      "lng": 127.127407332941,
      "title": "뚜레쥬르 전주효자1가점",
      "description": "전북특별자치도 전주시 완산구 용머리로 158",
      "url": "http://place.map.kakao.com/10369186",
      "region": "전북특별자치도"
    },
    {
      "lat": 35.843881862930594,
      "lng": 127.13834236459017,
      "title": "뚜레쥬르 전북대사대부고점",
      "description": "전북특별자치도 전주시 덕진구 조경단로 107",
      "url": "http://place.map.kakao.com/12394910",
      "region": "전북특별자치도"
    },
    {
      "lat": 35.8002412583267,
      "lng": 127.11412255766,
      "title": "뚜레쥬르 전주신일강변점",
      "description": "전북특별자치도 전주시 완산구 효자천변1길 28",
      "url": "http://place.map.kakao.com/21509712",
      "region": "전북특별자치도"
    },
    {
      "lat": 35.966510968282975,
      "lng": 126.70130126165014,
      "title": "뚜레쥬르 군산나운점",
      "description": "전북특별자치도 군산시 수송로 48",
      "url": "http://place.map.kakao.com/12394947",
      "region": "전북특별자치도"
    },
    {
      "lat": 35.966599901742256,
      "lng": 126.71948011385624,
      "title": "뚜레쥬르 군산수송공원점",
      "description": "전북특별자치도 군산시 수송동로 79",
      "url": "http://place.map.kakao.com/12394935",
      "region": "전북특별자치도"
    },
    {
      "lat": 35.97696887754171,
      "lng": 126.74167643930953,
      "title": "뚜레쥬르 군산디오션점",
      "description": "전북특별자치도 군산시 궁포3로 14",
      "url": "http://place.map.kakao.com/989416858",
      "region": "전북특별자치도"
    },
    {
      "lat": 35.841616063345306,
      "lng": 127.07703696678867,
      "title": "뚜레쥬르 전주만성점",
      "description": "전북특별자치도 전주시 덕진구 만성중앙로 54-47",
      "url": "http://place.map.kakao.com/1651170402",
      "region": "전북특별자치도"
    },
    {
      "lat": 35.84056618216986,
      "lng": 127.10945284833376,
      "title": "뚜레쥬르 전주하가점",
      "description": "전북특별자치도 전주시 덕진구 가리내로 262",
      "url": "http://place.map.kakao.com/737817593",
      "region": "전북특별자치도"
    },
    {
      "lat": 35.82654068837626,
      "lng": 127.16615065526906,
      "title": "뚜레쥬르 전주인후점",
      "description": "전북특별자치도 전주시 덕진구 무삼지로 6",
      "url": "http://place.map.kakao.com/19171453",
      "region": "전북특별자치도"
    },
    {
      "lat": 35.581136296577824,
      "lng": 126.8553985483111,
      "title": "뚜레쥬르 카페정읍수성점",
      "description": "전북특별자치도 정읍시 수성택지5길 24-8",
      "url": "http://place.map.kakao.com/1888988834",
      "region": "전북특별자치도"
    },
    {
      "lat": 35.946459626557576,
      "lng": 126.94479665068327,
      "title": "뚜레쥬르 모현e편한세상점",
      "description": "전북특별자치도 익산시 선화로10길 17",
      "url": "http://place.map.kakao.com/19330854",
      "region": "전북특별자치도"
    },
    {
      "lat": 35.5611674298814,
      "lng": 126.868220569744,
      "title": "뚜레쥬르 정읍상동점",
      "description": "전북특별자치도 정읍시 상동중앙로 49",
      "url": "http://place.map.kakao.com/12353940",
      "region": "전북특별자치도"
    },
    {
      "lat": 35.7278965135819,
      "lng": 126.737392041855,
      "title": "뚜레쥬르 전북부안점",
      "description": "전북특별자치도 부안군 부안읍 석정로 199",
      "url": "http://place.map.kakao.com/8317700",
      "region": "전북특별자치도"
    },
    {
      "lat": 35.8323567258055,
      "lng": 127.167939120632,
      "title": "뚜레쥬르 전주아중점",
      "description": "전북특별자치도 전주시 덕진구 석소로 58",
      "url": "http://place.map.kakao.com/21288421",
      "region": "전북특별자치도"
    },
    {
      "lat": 35.838994939903216,
      "lng": 127.05830324002373,
      "title": "뚜레쥬르 전북혁신도시점",
      "description": "전북특별자치도 완주군 이서면 출판로 46-5",
      "url": "http://place.map.kakao.com/26931727",
      "region": "전북특별자치도"
    },
    {
      "lat": 35.95995576523539,
      "lng": 126.99783725057367,
      "title": "뚜레쥬르 익산부송점",
      "description": "전북특별자치도 익산시 무왕로26길 8-1",
      "url": "http://place.map.kakao.com/8270217",
      "region": "전북특별자치도"
    },
    {
      "lat": 35.9457634203877,
      "lng": 126.688119298328,
      "title": "뚜레쥬르 군산대점",
      "description": "전북특별자치도 군산시 미제3길 2",
      "url": "http://place.map.kakao.com/14743912",
      "region": "전북특별자치도"
    },
    {
      "lat": 35.867274602144974,
      "lng": 127.11645964435098,
      "title": "뚜레쥬르 전주다농L마트점",
      "description": "전북특별자치도 전주시 덕진구 시천로 96-14",
      "url": "http://place.map.kakao.com/1414340428",
      "region": "전북특별자치도"
    },
    {
      "lat": 35.95962341236632,
      "lng": 126.97541282376233,
      "title": "뚜레쥬르 익산제일점",
      "description": "전북특별자치도 익산시 고봉로32길 40",
      "url": "http://place.map.kakao.com/1535184908",
      "region": "전북특별자치도"
    },
    {
      "lat": 35.9230221962441,
      "lng": 127.123730138838,
      "title": "뚜레쥬르 삼례농협하나로마트점",
      "description": "전북특별자치도 완주군 삼례읍 삼봉1로 5",
      "url": "http://place.map.kakao.com/1339069833",
      "region": "전북특별자치도"
    },
    {
      "lat": 35.83400317593342,
      "lng": 127.1002077669626,
      "title": "뚜레쥬르 전주서곡점",
      "description": "전북특별자치도 전주시 완산구 서곡로 55",
      "url": "http://place.map.kakao.com/21259941",
      "region": "전북특별자치도"
    },
    {
      "lat": 35.9637245175169,
      "lng": 126.957683038763,
      "title": "뚜레쥬르 익산원광대점",
      "description": "전북특별자치도 익산시 무왕로 892",
      "url": "http://place.map.kakao.com/7857180",
      "region": "전북특별자치도"
    },
    {
      "lat": 35.41409002931119,
      "lng": 127.38663215888316,
      "title": "뚜레쥬르 남원하나로마트점",
      "description": "전북특별자치도 남원시 동문로 94",
      "url": "http://place.map.kakao.com/2009534234",
      "region": "전북특별자치도"
    },
    {
      "lat": 35.9777467302433,
      "lng": 126.723909051469,
      "title": "뚜레쥬르 군산터미널점",
      "description": "전북특별자치도 군산시 해망로 25",
      "url": "http://place.map.kakao.com/525717942",
      "region": "전북특별자치도"
    },
    {
      "lat": 35.9454407591863,
      "lng": 126.931638147509,
      "title": "뚜레쥬르 익산장신휴먼시아점",
      "description": "전북특별자치도 익산시 오산면 군익로 411",
      "url": "http://place.map.kakao.com/1606921336",
      "region": "전북특별자치도"
    },
    {
      "lat": 35.93065309765017,
      "lng": 126.95668119450337,
      "title": "뚜레쥬르 익산동산이마트점",
      "description": "전북특별자치도 익산시 서동로 31",
      "url": "http://place.map.kakao.com/21462475",
      "region": "전북특별자치도"
    },
    {
      "lat": 35.96688613266822,
      "lng": 126.67905749358883,
      "title": "뚜레쥬르 군산산북점",
      "description": "전북특별자치도 군산시 칠성안2길 38",
      "url": "http://place.map.kakao.com/1363712253",
      "region": "전북특별자치도"
    },
    {
      "lat": 35.834538623649244,
      "lng": 127.12935675280256,
      "title": "뚜레쥬르 전주고속터미널점",
      "description": "전북특별자치도 전주시 덕진구 가리내로 70",
      "url": "http://place.map.kakao.com/993890051",
      "region": "전북특별자치도"
    },
    {
      "lat": 35.37280650020997,
      "lng": 127.13667652660669,
      "title": "뚜레쥬르 전북순창점",
      "description": "전북특별자치도 순창군 순창읍 교성리 57-1",
      "url": "http://place.map.kakao.com/1823740066",
      "region": "전북특별자치도"
    },
    {
      "lat": 35.800053672395,
      "lng": 126.902091752578,
      "title": "뚜레쥬르 김제검산점",
      "description": "전북특별자치도 김제시 금성로 111",
      "url": "http://place.map.kakao.com/18831598",
      "region": "전북특별자치도"
    },
    {
      "lat": 35.435090877755,
      "lng": 126.695673457449,
      "title": "뚜레쥬르 전북고창점",
      "description": "전북특별자치도 고창군 고창읍 중앙로 184",
      "url": "http://place.map.kakao.com/13049755",
      "region": "전북특별자치도"
    },
    {
      "lat": 35.8143983883182,
      "lng": 127.13328979547,
      "title": "뚜레쥬르 예수병원점",
      "description": "전북특별자치도 전주시 완산구 서원로 365",
      "url": "http://place.map.kakao.com/1363886579",
      "region": "전북특별자치도"
    },
    {
      "lat": 34.75896660132092,
      "lng": 127.6673461601562,
      "title": "뚜레쥬르 여수학동점",
      "description": "전남 여수시 선소로 69",
      "url": "http://place.map.kakao.com/7856712",
      "region": "전라남도"
    },
    {
      "lat": 34.8010839176898,
      "lng": 126.379611857258,
      "title": "뚜레쥬르 목포대성점",
      "description": "전남 목포시 청호로 96",
      "url": "http://place.map.kakao.com/21690423",
      "region": "전라남도"
    },
    {
      "lat": 34.9510631608791,
      "lng": 127.519781938017,
      "title": "뚜레쥬르 순천연향점",
      "description": "전남 순천시 연향3로 33",
      "url": "http://place.map.kakao.com/15825479",
      "region": "전라남도"
    },
    {
      "lat": 34.74813399947811,
      "lng": 127.6762598583965,
      "title": "뚜레쥬르 여수웅천점",
      "description": "전남 여수시 웅천중앙로 85",
      "url": "http://place.map.kakao.com/1305858909",
      "region": "전라남도"
    },
    {
      "lat": 34.67364329132136,
      "lng": 126.90228496658601,
      "title": "뚜레쥬르 전남장흥점",
      "description": "전남 장흥군 장흥읍 토요시장1길 9-1",
      "url": "http://place.map.kakao.com/1324858880",
      "region": "전라남도"
    },
    {
      "lat": 35.0209160951297,
      "lng": 126.785293394349,
      "title": "뚜레쥬르 나주혁신중앙점",
      "description": "전남 나주시 빛가람로 676",
      "url": "http://place.map.kakao.com/1661198041",
      "region": "전라남도"
    },
    {
      "lat": 34.7210426179544,
      "lng": 127.751738364067,
      "title": "뚜레쥬르 여수돌산점",
      "description": "전남 여수시 돌산읍 강남로 64",
      "url": "http://place.map.kakao.com/1287070078",
      "region": "전라남도"
    },
    {
      "lat": 35.310715703564,
      "lng": 126.981694875042,
      "title": "뚜레쥬르 전남담양점",
      "description": "전남 담양군 담양읍 죽향대로 1176",
      "url": "http://place.map.kakao.com/601031738",
      "region": "전라남도"
    },
    {
      "lat": 34.8069916248561,
      "lng": 126.424552627553,
      "title": "뚜레쥬르 목포하당중흥점",
      "description": "전남 목포시 비파로 96",
      "url": "http://place.map.kakao.com/2137302299",
      "region": "전라남도"
    },
    {
      "lat": 34.60532701345247,
      "lng": 127.28118237982225,
      "title": "뚜레쥬르 전남고흥점",
      "description": "전남 고흥군 고흥읍 터미널길 3",
      "url": "http://place.map.kakao.com/541392909",
      "region": "전라남도"
    },
    {
      "lat": 34.57296017686843,
      "lng": 126.59837910642125,
      "title": "뚜레쥬르 해남군청점",
      "description": "전남 해남군 해남읍 군청길 13",
      "url": "http://place.map.kakao.com/1662902341",
      "region": "전라남도"
    },
    {
      "lat": 34.75352719356697,
      "lng": 127.70547158839628,
      "title": "뚜레쥬르 여수여서점",
      "description": "전남 여수시 여서1로 75",
      "url": "http://place.map.kakao.com/10362501",
      "region": "전라남도"
    },
    {
      "lat": 34.766725530024765,
      "lng": 127.65896063736162,
      "title": "뚜레쥬르 여수쌍봉점",
      "description": "전남 여수시 쌍봉로 27",
      "url": "http://place.map.kakao.com/89743983",
      "region": "전라남도"
    },
    {
      "lat": 34.9402024130486,
      "lng": 127.527319918937,
      "title": "뚜레쥬르 순천연향2지구점",
      "description": "전남 순천시 안산길 8",
      "url": "http://place.map.kakao.com/33909740",
      "region": "전라남도"
    },
    {
      "lat": 34.9360261057008,
      "lng": 127.696011823374,
      "title": "뚜레쥬르 광양중마사랑점",
      "description": "전남 광양시 오류2길 1",
      "url": "http://place.map.kakao.com/15396084",
      "region": "전라남도"
    },
    {
      "lat": 34.76155278657444,
      "lng": 127.63961950306955,
      "title": "뚜레쥬르 여수죽림점",
      "description": "전남 여수시 소라면 죽림로 7",
      "url": "http://place.map.kakao.com/21604807",
      "region": "전라남도"
    },
    {
      "lat": 35.017084369733396,
      "lng": 126.79405168684848,
      "title": "뚜레쥬르 나주빛가람점",
      "description": "전남 나주시 그린로 341",
      "url": "http://place.map.kakao.com/26499685",
      "region": "전라남도"
    },
    {
      "lat": 34.75266276090419,
      "lng": 127.74364711700032,
      "title": "뚜레쥬르 여수엑스포타운점",
      "description": "전남 여수시 박람회길 38",
      "url": "http://place.map.kakao.com/1579319577",
      "region": "전라남도"
    },
    {
      "lat": 34.97819683137423,
      "lng": 127.57715386630856,
      "title": "뚜레쥬르 전남광양칠성점",
      "description": "전남 광양시 광양읍 서평로 43",
      "url": "http://place.map.kakao.com/785316065",
      "region": "전라남도"
    },
    {
      "lat": 34.9745410806534,
      "lng": 127.607417935167,
      "title": "뚜레쥬르 전남광양용강점",
      "description": "전남 광양시 광양읍 기두5길 2",
      "url": "http://place.map.kakao.com/966703879",
      "region": "전라남도"
    },
    {
      "lat": 34.76151158200347,
      "lng": 127.65617220204156,
      "title": "뚜레쥬르 여수도원점",
      "description": "전남 여수시 무선로 6",
      "url": "http://place.map.kakao.com/10367602",
      "region": "전라남도"
    },
    {
      "lat": 34.8130015878378,
      "lng": 126.459219131162,
      "title": "뚜레쥬르 목포남악도청점",
      "description": "전남 무안군 삼향읍 남악2로74번길 39",
      "url": "http://place.map.kakao.com/18050924",
      "region": "전라남도"
    },
    {
      "lat": 34.9548635842167,
      "lng": 127.692423521728,
      "title": "뚜레쥬르 전남광양마동점",
      "description": "전남 광양시 사동로 203",
      "url": "http://place.map.kakao.com/795565437",
      "region": "전라남도"
    },
    {
      "lat": 34.933975576858295,
      "lng": 127.54791756071417,
      "title": "뚜레쥬르 순천신대점",
      "description": "전남 순천시 해룡면 향매로 77",
      "url": "http://place.map.kakao.com/1060593136",
      "region": "전라남도"
    },
    {
      "lat": 34.81188216852127,
      "lng": 126.47155567604722,
      "title": "뚜레쥬르 목포남악부영점",
      "description": "전남 무안군 삼향읍 남악5로72번길 4",
      "url": "http://place.map.kakao.com/14501191",
      "region": "전라남도"
    },
    {
      "lat": 35.0587570541748,
      "lng": 126.982223755222,
      "title": "뚜레쥬르 화순하나로마트점",
      "description": "전남 화순군 화순읍 쌍충로 74",
      "url": "http://place.map.kakao.com/17614659",
      "region": "전라남도"
    },
    {
      "lat": 34.80469768563156,
      "lng": 126.4847198186788,
      "title": "뚜레쥬르 남악오룡점",
      "description": "전남 무안군 일로읍 오룡중앙동로 65",
      "url": "http://place.map.kakao.com/280952291",
      "region": "전라남도"
    },
    {
      "lat": 34.31642460038062,
      "lng": 126.75133562657714,
      "title": "뚜레쥬르 전남완도점",
      "description": "전남 완도군 완도읍 장보고대로 237",
      "url": "http://place.map.kakao.com/7849287",
      "region": "전라남도"
    },
    {
      "lat": 34.7315569063355,
      "lng": 127.717597617848,
      "title": "뚜레쥬르 여수국동점",
      "description": "전남 여수시 신월로 677",
      "url": "http://place.map.kakao.com/21683385",
      "region": "전라남도"
    },
    {
      "lat": 35.2999107177536,
      "lng": 126.781858744887,
      "title": "뚜레쥬르 전남장성점",
      "description": "전남 장성군 장성읍 영천로 162",
      "url": "http://place.map.kakao.com/1168419382",
      "region": "전라남도"
    },
    {
      "lat": 34.7715466095562,
      "lng": 127.702104177102,
      "title": "뚜레쥬르 여수미평점",
      "description": "전남 여수시 대학로 15",
      "url": "http://place.map.kakao.com/21682132",
      "region": "전라남도"
    },
    {
      "lat": 34.94804272954,
      "lng": 127.490052012504,
      "title": "뚜레쥬르 순천터미널점",
      "description": "전남 순천시 이수로 21",
      "url": "http://place.map.kakao.com/14761036",
      "region": "전라남도"
    },
    {
      "lat": 34.93384426683318,
      "lng": 127.51678809585891,
      "title": "뚜레쥬르 순천연향3지구점",
      "description": "전남 순천시 팔마2길 56",
      "url": "http://place.map.kakao.com/20750550",
      "region": "전라남도"
    },
    {
      "lat": 34.93487316094722,
      "lng": 127.49437705314087,
      "title": "뚜레쥬르 순천오천점",
      "description": "전남 순천시 오천6길 6",
      "url": "http://place.map.kakao.com/217969394",
      "region": "전라남도"
    },
    {
      "lat": 34.480495935652,
      "lng": 126.265073735929,
      "title": "뚜레쥬르 진도점",
      "description": "전남 진도군 진도읍 남동1길 64",
      "url": "http://place.map.kakao.com/1427243604",
      "region": "전라남도"
    },
    {
      "lat": 34.815953591893205,
      "lng": 126.41854674422333,
      "title": "뚜레쥬르 목포석현점",
      "description": "전남 목포시 텃골로13번길 79",
      "url": "http://place.map.kakao.com/1871225325",
      "region": "전라남도"
    },
    {
      "lat": 34.9857874763836,
      "lng": 127.503590422889,
      "title": "뚜레쥬르 순천선평점",
      "description": "전남 순천시 서면 삼산로 267",
      "url": "http://place.map.kakao.com/1660625917",
      "region": "전라남도"
    },
    {
      "lat": 34.63900924599719,
      "lng": 126.76814688109535,
      "title": "뚜레쥬르 전남강진점",
      "description": "전남 강진군 강진읍 중앙로 102",
      "url": "http://place.map.kakao.com/11076808",
      "region": "전라남도"
    },
    {
      "lat": 35.0638547843878,
      "lng": 126.519934546893,
      "title": "뚜레쥬르 전남함평점",
      "description": "전남 함평군 함평읍 영수길 175",
      "url": "http://place.map.kakao.com/8099826",
      "region": "전라남도"
    },
    {
      "lat": 34.97219096493909,
      "lng": 127.52366481007317,
      "title": "뚜레쥬르 순천법원점",
      "description": "전남 순천시 왕지5길 11",
      "url": "http://place.map.kakao.com/124860860",
      "region": "전라남도"
    },
    {
      "lat": 34.954271874174,
      "lng": 127.532313653715,
      "title": "뚜레쥬르 순천왕지유심천점",
      "description": "전남 순천시 왕궁길 23",
      "url": "http://place.map.kakao.com/11479540",
      "region": "전라남도"
    },
    {
      "lat": 34.81701103804095,
      "lng": 126.39927219118556,
      "title": "뚜레쥬르 목포용해점",
      "description": "전남 목포시 용당로 339",
      "url": "http://place.map.kakao.com/774084042",
      "region": "전라남도"
    },
    {
      "lat": 34.96035806045369,
      "lng": 127.52316470552017,
      "title": "뚜레쥬르 순천조례골드점",
      "description": "전남 순천시 태봉길 31",
      "url": "http://place.map.kakao.com/995272326",
      "region": "전라남도"
    },
    {
      "lat": 34.5257641757669,
      "lng": 127.1404471627,
      "title": "뚜레쥬르 녹동하나로마트점",
      "description": "전남 고흥군 도양읍 우주항공로 21",
      "url": "http://place.map.kakao.com/605065975",
      "region": "전라남도"
    },
    {
      "lat": 34.9720594744316,
      "lng": 127.589707062581,
      "title": "뚜레쥬르 전남광양하나로마트점",
      "description": "전남 광양시 광양읍 신재로 10",
      "url": "http://place.map.kakao.com/725453996",
      "region": "전라남도"
    },
    {
      "lat": 36.56590416477227,
      "lng": 128.69916963960623,
      "title": "뚜레쥬르 안동옥동점",
      "description": "경북 안동시 경북대로 417",
      "url": "http://place.map.kakao.com/11286194",
      "region": "경상북도"
    },
    {
      "lat": 36.5758129058848,
      "lng": 128.50118852755,
      "title": "뚜레쥬르 경북신도청점",
      "description": "경북 안동시 풍천면 수호로 63",
      "url": "http://place.map.kakao.com/378920495",
      "region": "경상북도"
    },
    {
      "lat": 36.1397867950048,
      "lng": 128.315866054597,
      "title": "뚜레쥬르 구미현진점",
      "description": "경북 구미시 도봉로 76-61",
      "url": "http://place.map.kakao.com/550930821",
      "region": "경상북도"
    },
    {
      "lat": 36.15312410843919,
      "lng": 128.3466233935357,
      "title": "뚜레쥬르 구미문성점",
      "description": "경북 구미시 고아읍 문성로 34",
      "url": "http://place.map.kakao.com/133087360",
      "region": "경상북도"
    },
    {
      "lat": 35.84432455101526,
      "lng": 129.21142173722376,
      "title": "뚜레쥬르 경주중앙점",
      "description": "경북 경주시 중앙로 49",
      "url": "http://place.map.kakao.com/7850351",
      "region": "경상북도"
    },
    {
      "lat": 36.1287640256373,
      "lng": 128.336699668758,
      "title": "뚜레쥬르 구미원평점",
      "description": "경북 구미시 구미중앙로21길 21",
      "url": "http://place.map.kakao.com/181017112",
      "region": "경상북도"
    },
    {
      "lat": 36.1542771329433,
      "lng": 128.310934527128,
      "title": "뚜레쥬르 구미봉곡중앙점",
      "description": "경북 구미시 봉곡북로 65",
      "url": "http://place.map.kakao.com/26531033",
      "region": "경상북도"
    },
    {
      "lat": 36.5866679949976,
      "lng": 128.191462506949,
      "title": "뚜레쥬르 문경모전점",
      "description": "경북 문경시 당교로 261",
      "url": "http://place.map.kakao.com/8344454",
      "region": "경상북도"
    },
    {
      "lat": 36.55572089632347,
      "lng": 128.75101789913023,
      "title": "뚜레쥬르 경북안동용상점",
      "description": "경북 안동시 중평길 107-27",
      "url": "http://place.map.kakao.com/1253266267",
      "region": "경상북도"
    },
    {
      "lat": 36.15446635982043,
      "lng": 128.43223382048288,
      "title": "뚜레쥬르 구미확장점",
      "description": "경북 구미시 산동읍 신당1로 24",
      "url": "http://place.map.kakao.com/1578937008",
      "region": "경상북도"
    },
    {
      "lat": 35.81237208610205,
      "lng": 128.7548823026086,
      "title": "뚜레쥬르 경산사동사랑점",
      "description": "경북 경산시 백자로 71",
      "url": "http://place.map.kakao.com/637484551",
      "region": "경상북도"
    },
    {
      "lat": 36.0065755360546,
      "lng": 129.33534280675335,
      "title": "뚜레쥬르 포항효자SK점",
      "description": "경북 포항시 남구 효성로 15",
      "url": "http://place.map.kakao.com/7849800",
      "region": "경상북도"
    },
    {
      "lat": 36.1144378272599,
      "lng": 128.338705778839,
      "title": "뚜레쥬르 구미형곡제일점",
      "description": "경북 구미시 신시로 73",
      "url": "http://place.map.kakao.com/422717703",
      "region": "경상북도"
    },
    {
      "lat": 36.13878014784998,
      "lng": 128.41855848176027,
      "title": "뚜레쥬르 구미옥계점",
      "description": "경북 구미시 옥계북로 9",
      "url": "http://place.map.kakao.com/1481583040",
      "region": "경상북도"
    },
    {
      "lat": 36.41824781528641,
      "lng": 128.15272680352604,
      "title": "뚜레쥬르 상주터미널점",
      "description": "경북 상주시 삼백로 82",
      "url": "http://place.map.kakao.com/12394639",
      "region": "경상북도"
    },
    {
      "lat": 35.8147931428528,
      "lng": 128.731417916642,
      "title": "뚜레쥬르 경산옥곡점",
      "description": "경북 경산시 경산로13길 3-3",
      "url": "http://place.map.kakao.com/727002493",
      "region": "경상북도"
    },
    {
      "lat": 36.0855091179653,
      "lng": 128.355318779483,
      "title": "뚜레쥬르 구미상모점",
      "description": "경북 구미시 상사서로 33-2",
      "url": "http://place.map.kakao.com/10366652",
      "region": "경상북도"
    },
    {
      "lat": 35.843289392772235,
      "lng": 129.18452905765238,
      "title": "뚜레쥬르 경주충효서라벌중앙점",
      "description": "경북 경주시 충효중앙길 57",
      "url": "http://place.map.kakao.com/1079053190",
      "region": "경상북도"
    },
    {
      "lat": 36.0720922641725,
      "lng": 129.3337743342412,
      "title": "뚜레쥬르 포항이인점",
      "description": "경북 포항시 북구 흥해읍 이인로 73",
      "url": "http://place.map.kakao.com/986197526",
      "region": "경상북도"
    },
    {
      "lat": 36.0383801492945,
      "lng": 129.365965777341,
      "title": "뚜레쥬르 포항중앙점",
      "description": "경북 포항시 북구 중앙로 288",
      "url": "http://place.map.kakao.com/10369104",
      "region": "경상북도"
    },
    {
      "lat": 36.0750789562061,
      "lng": 129.383428811004,
      "title": "뚜레쥬르 포항두산위브점",
      "description": "경북 포항시 북구 새천년대로1249번길 10-11",
      "url": "http://place.map.kakao.com/20677373",
      "region": "경상북도"
    },
    {
      "lat": 35.64483380944674,
      "lng": 128.74162188433394,
      "title": "뚜레쥬르 경북청도점",
      "description": "경북 청도군 청도읍 청화로 139",
      "url": "http://place.map.kakao.com/704542344",
      "region": "경상북도"
    },
    {
      "lat": 36.55042413159989,
      "lng": 128.7339795275047,
      "title": "뚜레쥬르 안동정하점",
      "description": "경북 안동시 강남5길 39",
      "url": "http://place.map.kakao.com/7849950",
      "region": "경상북도"
    },
    {
      "lat": 36.08259155883741,
      "lng": 129.40217968674904,
      "title": "뚜레쥬르 포항양덕점",
      "description": "경북 포항시 북구 양덕로 44",
      "url": "http://place.map.kakao.com/7859782",
      "region": "경상북도"
    },
    {
      "lat": 36.092782024702295,
      "lng": 128.43189577613884,
      "title": "뚜레쥬르 구미구평점",
      "description": "경북 구미시 인동36길 24-2",
      "url": "http://place.map.kakao.com/13613445",
      "region": "경상북도"
    },
    {
      "lat": 35.8744591380941,
      "lng": 128.817489661322,
      "title": "뚜레쥬르 경산진량보국점",
      "description": "경북 경산시 진량읍 다문로 58",
      "url": "http://place.map.kakao.com/13049685",
      "region": "경상북도"
    },
    {
      "lat": 35.828638054329296,
      "lng": 128.71968722124333,
      "title": "뚜레쥬르 경산중산점",
      "description": "경북 경산시 펜타힐즈2로 57",
      "url": "http://place.map.kakao.com/1102629097",
      "region": "경상북도"
    },
    {
      "lat": 36.0274671904022,
      "lng": 129.349439570432,
      "title": "뚜레쥬르 포항양학점",
      "description": "경북 포항시 북구 양학로 44",
      "url": "http://place.map.kakao.com/1524764988",
      "region": "경상북도"
    },
    {
      "lat": 36.598804955046,
      "lng": 128.202118174531,
      "title": "뚜레쥬르 문경중앙점",
      "description": "경북 문경시 중앙로 160-1",
      "url": "http://place.map.kakao.com/25550304",
      "region": "경상북도"
    },
    {
      "lat": 35.96599165411916,
      "lng": 129.40316724474994,
      "title": "뚜레쥬르 포항문덕점",
      "description": "경북 포항시 남구 오천읍 원동로 34",
      "url": "http://place.map.kakao.com/13049684",
      "region": "경상북도"
    },
    {
      "lat": 35.834460522745296,
      "lng": 128.72770867298684,
      "title": "뚜레쥬르 경산정평점",
      "description": "경북 경산시 대학로 47",
      "url": "http://place.map.kakao.com/18630447",
      "region": "경상북도"
    },
    {
      "lat": 36.1258352602694,
      "lng": 128.099305465199,
      "title": "뚜레쥬르 김천부곡센트럴점",
      "description": "경북 김천시 부곡길 201",
      "url": "http://place.map.kakao.com/755917319",
      "region": "경상북도"
    },
    {
      "lat": 36.13468912990722,
      "lng": 128.11723037568737,
      "title": "뚜레쥬르 김천신음점",
      "description": "경북 김천시 시청로 69",
      "url": "http://place.map.kakao.com/12394653",
      "region": "경상북도"
    },
    {
      "lat": 35.91138443740438,
      "lng": 128.81613754946767,
      "title": "뚜레쥬르 경산하양점",
      "description": "경북 경산시 하양읍 하양로 69",
      "url": "http://place.map.kakao.com/434470857",
      "region": "경상북도"
    },
    {
      "lat": 36.108973836254684,
      "lng": 129.34670502759886,
      "title": "뚜레쥬르 포항흥해점",
      "description": "경북 포항시 북구 흥해읍 흥해로 48-2",
      "url": "http://place.map.kakao.com/10364687",
      "region": "경상북도"
    },
    {
      "lat": 35.88297369031664,
      "lng": 129.22605713194025,
      "title": "뚜레쥬르 경주용황점",
      "description": "경북 경주시 용황구획4길 25",
      "url": "http://place.map.kakao.com/1498757315",
      "region": "경상북도"
    },
    {
      "lat": 36.81526805504944,
      "lng": 128.60530332960727,
      "title": "뚜레쥬르 영주가흥제일점",
      "description": "경북 영주시 대학로 222",
      "url": "http://place.map.kakao.com/1722029678",
      "region": "경상북도"
    },
    {
      "lat": 35.841202748043614,
      "lng": 128.7641695888069,
      "title": "뚜레쥬르 경산신대부적점",
      "description": "경북 경산시 압량읍 압독3로 15",
      "url": "http://place.map.kakao.com/36637680",
      "region": "경상북도"
    },
    {
      "lat": 36.4119958113414,
      "lng": 129.36844955667684,
      "title": "뚜레쥬르 경북영덕점",
      "description": "경북 영덕군 영덕읍 덕곡길 101",
      "url": "http://place.map.kakao.com/23737455",
      "region": "경상북도"
    },
    {
      "lat": 36.08810276808588,
      "lng": 129.38785489400453,
      "title": "뚜레쥬르 포항법원대로점",
      "description": "경북 포항시 북구 신덕로 262",
      "url": "http://place.map.kakao.com/711903817",
      "region": "경상북도"
    },
    {
      "lat": 35.8567817459936,
      "lng": 129.223947412287,
      "title": "뚜레쥬르 경주동천점",
      "description": "경북 경주시 양정로 269",
      "url": "http://place.map.kakao.com/7850350",
      "region": "경상북도"
    },
    {
      "lat": 36.0158468685467,
      "lng": 129.352848502317,
      "title": "뚜레쥬르 포항쌍용점",
      "description": "경북 포항시 북구 중흥로 126",
      "url": "http://place.map.kakao.com/17733021",
      "region": "경상북도"
    },
    {
      "lat": 35.8787057522023,
      "lng": 128.839348048548,
      "title": "뚜레쥬르 진량농협하나로마트점",
      "description": "경북 경산시 진량읍 공단11로 257-10",
      "url": "http://place.map.kakao.com/894845449",
      "region": "경상북도"
    },
    {
      "lat": 36.890814431753945,
      "lng": 128.73508463667554,
      "title": "뚜레쥬르 경북봉화점",
      "description": "경북 봉화군 봉화읍 봉화로 1144",
      "url": "http://place.map.kakao.com/12394681",
      "region": "경상북도"
    },
    {
      "lat": 35.976417237940076,
      "lng": 129.41226573988897,
      "title": "뚜레쥬르 포항오천점",
      "description": "경북 포항시 남구 오천읍 충무로 23",
      "url": "http://place.map.kakao.com/21213477",
      "region": "경상북도"
    },
    {
      "lat": 35.24328502426682,
      "lng": 128.65172694811562,
      "title": "뚜레쥬르 창원봉곡점",
      "description": "경남 창원시 의창구 원이대로285번길 11",
      "url": "http://place.map.kakao.com/12394630",
      "region": "경상남도"
    },
    {
      "lat": 35.083332441555,
      "lng": 128.079822789267,
      "title": "뚜레쥬르 사천공군점",
      "description": "경남 사천시 사천읍 사천대로 1891-46",
      "url": "http://place.map.kakao.com/701837769",
      "region": "경상남도"
    },
    {
      "lat": 35.221265431728156,
      "lng": 128.68377529371028,
      "title": "뚜레쥬르 창원상남광장점",
      "description": "경남 창원시 성산구 마디미로37번길 3",
      "url": "http://place.map.kakao.com/762111628",
      "region": "경상남도"
    },
    {
      "lat": 35.260094962088615,
      "lng": 128.62568548988563,
      "title": "뚜레쥬르 창원중동점",
      "description": "경남 창원시 의창구 평산로207번길 4",
      "url": "http://place.map.kakao.com/1073861843",
      "region": "경상남도"
    },
    {
      "lat": 35.1854873825633,
      "lng": 128.08530264583,
      "title": "뚜레쥬르 진주망경점",
      "description": "경남 진주시 망경로 293-1",
      "url": "http://place.map.kakao.com/21288806",
      "region": "경상남도"
    },
    {
      "lat": 35.2366534026391,
      "lng": 128.866198196945,
      "title": "뚜레쥬르 김해내동점",
      "description": "경남 김해시 내외로77번길 22",
      "url": "http://place.map.kakao.com/20809560",
      "region": "경상남도"
    },
    {
      "lat": 35.2386783437115,
      "lng": 128.582441087305,
      "title": "뚜레쥬르 마산합성터미널점",
      "description": "경남 창원시 마산회원구 3.15대로 745",
      "url": "http://place.map.kakao.com/17615072",
      "region": "경상남도"
    },
    {
      "lat": 35.100567074215306,
      "lng": 128.81036460567844,
      "title": "뚜레쥬르 진해용원점",
      "description": "경남 창원시 진해구 용원로 9",
      "url": "http://place.map.kakao.com/118985089",
      "region": "경상남도"
    },
    {
      "lat": 35.30964356313995,
      "lng": 128.9861122112251,
      "title": "뚜레쥬르 양산물금역점",
      "description": "경남 양산시 물금읍 황산로 371",
      "url": "http://place.map.kakao.com/1401942152",
      "region": "경상남도"
    },
    {
      "lat": 35.2551511581165,
      "lng": 128.629146550481,
      "title": "뚜레쥬르 창원유니시티점",
      "description": "경남 창원시 의창구 중동로 60",
      "url": "http://place.map.kakao.com/872267778",
      "region": "경상남도"
    },
    {
      "lat": 35.208630002318074,
      "lng": 128.5823946896081,
      "title": "뚜레쥬르 마산산호마린점",
      "description": "경남 창원시 마산합포구 회원천북길 505",
      "url": "http://place.map.kakao.com/626016892",
      "region": "경상남도"
    },
    {
      "lat": 35.3177629658227,
      "lng": 129.02612827974076,
      "title": "뚜레쥬르 양산석산점",
      "description": "경남 양산시 동면 금오16길 6",
      "url": "http://place.map.kakao.com/20104131",
      "region": "경상남도"
    },
    {
      "lat": 35.23722490609385,
      "lng": 128.91435463608192,
      "title": "뚜레쥬르 김해안동푸르지오점",
      "description": "경남 김해시 안동길 31",
      "url": "http://place.map.kakao.com/1588734467",
      "region": "경상남도"
    },
    {
      "lat": 35.3589609655183,
      "lng": 129.043335453744,
      "title": "뚜레쥬르 양산북정점",
      "description": "경남 양산시 북정로 27",
      "url": "http://place.map.kakao.com/19338298",
      "region": "경상남도"
    },
    {
      "lat": 35.22850023046285,
      "lng": 128.88255506022765,
      "title": "뚜레쥬르 김해부원점",
      "description": "경남 김해시 가락로 22",
      "url": "http://place.map.kakao.com/7849414",
      "region": "경상남도"
    },
    {
      "lat": 35.22839850383065,
      "lng": 128.90196940007127,
      "title": "뚜레쥬르 김해삼정대로점",
      "description": "경남 김해시 김해대로2517번길 1",
      "url": "http://place.map.kakao.com/27526005",
      "region": "경상남도"
    },
    {
      "lat": 35.31787967960923,
      "lng": 129.00045625117363,
      "title": "뚜레쥬르 양산물금신도시점",
      "description": "경남 양산시 물금읍 야리로 15",
      "url": "http://place.map.kakao.com/1683821875",
      "region": "경상남도"
    },
    {
      "lat": 35.1999362582061,
      "lng": 128.57413068716,
      "title": "뚜레쥬르 카페마산해안대로점",
      "description": "경남 창원시 마산합포구 해안대로 303",
      "url": "http://place.map.kakao.com/2023672002",
      "region": "경상남도"
    },
    {
      "lat": 35.1949974406338,
      "lng": 128.800458198107,
      "title": "뚜레쥬르 장유젤미마을점",
      "description": "경남 김해시 번화1로80번길 9",
      "url": "http://place.map.kakao.com/26778636",
      "region": "경상남도"
    },
    {
      "lat": 35.1952141564546,
      "lng": 128.567153496489,
      "title": "뚜레쥬르 마산합포중앙점",
      "description": "경남 창원시 마산합포구 3.15대로 192",
      "url": "http://place.map.kakao.com/1385154858",
      "region": "경상남도"
    },
    {
      "lat": 35.1726923123272,
      "lng": 128.815327596261,
      "title": "뚜레쥬르 율하신도시점",
      "description": "경남 김해시 율하3로 56",
      "url": "http://place.map.kakao.com/19153626",
      "region": "경상남도"
    },
    {
      "lat": 35.21276026984156,
      "lng": 128.70318898616185,
      "title": "뚜레쥬르 창원성원점",
      "description": "경남 창원시 성산구 가음로15번길 52",
      "url": "http://place.map.kakao.com/10371153",
      "region": "경상남도"
    },
    {
      "lat": 35.2630325973655,
      "lng": 128.868319310801,
      "title": "뚜레쥬르 김해삼계점",
      "description": "경남 김해시 해반천로168번길 10",
      "url": "http://place.map.kakao.com/15291500",
      "region": "경상남도"
    },
    {
      "lat": 35.2220272648664,
      "lng": 128.590683085632,
      "title": "뚜레쥬르 마산양덕하버팰리스점",
      "description": "경남 창원시 마산회원구 양덕동2길 20",
      "url": "http://place.map.kakao.com/1633338686",
      "region": "경상남도"
    },
    {
      "lat": 35.1536949759341,
      "lng": 128.655816355004,
      "title": "뚜레쥬르 진해북원로터리점",
      "description": "경남 창원시 진해구 여명로 5",
      "url": "http://place.map.kakao.com/272740539",
      "region": "경상남도"
    },
    {
      "lat": 35.3353109474499,
      "lng": 129.027313049361,
      "title": "뚜레쥬르 양산터미널점",
      "description": "경남 양산시 양산역1길 2",
      "url": "http://place.map.kakao.com/13049679",
      "region": "경상남도"
    },
    {
      "lat": 35.23450897965671,
      "lng": 128.85491922324178,
      "title": "뚜레쥬르 김해외동점",
      "description": "경남 김해시 금관대로 1212",
      "url": "http://place.map.kakao.com/1587520850",
      "region": "경상남도"
    },
    {
      "lat": 35.1718160583018,
      "lng": 128.062574857165,
      "title": "뚜레쥬르 진주평거점",
      "description": "경남 진주시 평거로 7",
      "url": "http://place.map.kakao.com/1190704693",
      "region": "경상남도"
    },
    {
      "lat": 34.8831767714837,
      "lng": 128.625538678732,
      "title": "뚜레쥬르 거제고현점",
      "description": "경남 거제시 거제중앙로 1845",
      "url": "http://place.map.kakao.com/8281482",
      "region": "경상남도"
    },
    {
      "lat": 35.20721865407718,
      "lng": 128.7079880707448,
      "title": "뚜레쥬르 창원대방점",
      "description": "경남 창원시 성산구 창이대로881번길 9",
      "url": "http://place.map.kakao.com/1653931228",
      "region": "경상남도"
    },
    {
      "lat": 35.269467588947,
      "lng": 128.86454638924,
      "title": "뚜레쥬르 김해삼계가야점",
      "description": "경남 김해시 가야로38번길 4",
      "url": "http://place.map.kakao.com/21931779",
      "region": "경상남도"
    },
    {
      "lat": 35.2322631734097,
      "lng": 128.503428589583,
      "title": "뚜레쥬르 마산삼계점",
      "description": "경남 창원시 마산회원구 내서읍 삼계로 12",
      "url": "http://place.map.kakao.com/11083297",
      "region": "경상남도"
    },
    {
      "lat": 35.5675270846797,
      "lng": 128.168896130551,
      "title": "뚜레쥬르 경남합천점",
      "description": "경남 합천군 합천읍 옥산로 126",
      "url": "http://place.map.kakao.com/26475971",
      "region": "경상남도"
    },
    {
      "lat": 34.8578552324578,
      "lng": 128.4278746406413,
      "title": "뚜레쥬르 통영무전점",
      "description": "경남 통영시 무전8길 13-38",
      "url": "http://place.map.kakao.com/7857688",
      "region": "경상남도"
    },
    {
      "lat": 34.8961116820242,
      "lng": 128.568490497265,
      "title": "뚜레쥬르 거제사등점",
      "description": "경남 거제시 사등면 두동로 65",
      "url": "http://place.map.kakao.com/650817955",
      "region": "경상남도"
    },
    {
      "lat": 35.16777706771234,
      "lng": 128.827615557416,
      "title": "뚜레쥬르 율하2지구점",
      "description": "경남 김해시 율하로 484",
      "url": "http://place.map.kakao.com/1790582244",
      "region": "경상남도"
    },
    {
      "lat": 35.0818912735709,
      "lng": 128.088086444438,
      "title": "뚜레쥬르 사천점",
      "description": "경남 사천시 사천읍 평화1길 16",
      "url": "http://place.map.kakao.com/1742227024",
      "region": "경상남도"
    },
    {
      "lat": 35.1804938864199,
      "lng": 128.560267005319,
      "title": "뚜레쥬르 마산월영점",
      "description": "경남 창원시 마산합포구 해안대로 11",
      "url": "http://place.map.kakao.com/7849792",
      "region": "경상남도"
    },
    {
      "lat": 35.2042736632476,
      "lng": 128.814150611374,
      "title": "뚜레쥬르 장유내덕점",
      "description": "경남 김해시 금관대로599번길 26",
      "url": "http://place.map.kakao.com/141632006",
      "region": "경상남도"
    },
    {
      "lat": 35.1638604670721,
      "lng": 128.110676100128,
      "title": "뚜레쥬르 진주호탄점",
      "description": "경남 진주시 가호로 41",
      "url": "http://place.map.kakao.com/11084122",
      "region": "경상남도"
    },
    {
      "lat": 35.23599368766651,
      "lng": 128.6422917508474,
      "title": "뚜레쥬르 창원팔용아티움점",
      "description": "경남 창원시 의창구 창원대로397번길 11",
      "url": "http://place.map.kakao.com/972188729",
      "region": "경상남도"
    },
    {
      "lat": 35.155794093465,
      "lng": 128.71430403472365,
      "title": "뚜레쥬르 진해자은벚꽃점",
      "description": "경남 창원시 진해구 냉천로 164",
      "url": "http://place.map.kakao.com/567857364",
      "region": "경상남도"
    },
    {
      "lat": 35.180302175248976,
      "lng": 128.0902220147982,
      "title": "뚜레쥬르 진주강남점",
      "description": "경남 진주시 진주대로 895",
      "url": "http://place.map.kakao.com/11078729",
      "region": "경상남도"
    },
    {
      "lat": 35.088625904305076,
      "lng": 128.8187974731051,
      "title": "뚜레쥬르 부산신항점",
      "description": "경남 창원시 진해구 신항4로 58",
      "url": "http://place.map.kakao.com/1632218974",
      "region": "경상남도"
    },
    {
      "lat": 35.17989428026114,
      "lng": 128.79571569106957,
      "title": "뚜레쥬르 장유팔판마을점",
      "description": "경남 김해시 덕정로 95",
      "url": "http://place.map.kakao.com/694509930",
      "region": "경상남도"
    },
    {
      "lat": 33.4935070407255,
      "lng": 126.48678989308,
      "title": "뚜레쥬르 제주민속오일장점",
      "description": "제주특별자치도 제주시 일주서로 7864",
      "url": "http://place.map.kakao.com/574100125",
      "region": "제주특별자치도"
    },
    {
      "lat": 33.4853178776597,
      "lng": 126.501364826761,
      "title": "뚜레쥬르 제주연오로점",
      "description": "제주특별자치도 제주시 연오로 88",
      "url": "http://place.map.kakao.com/296553050",
      "region": "제주특별자치도"
    },
    {
      "lat": 33.474264052457826,
      "lng": 126.5478352508889,
      "title": "뚜레쥬르 제주아라아이파크점",
      "description": "제주특별자치도 제주시 인다10길 22",
      "url": "http://place.map.kakao.com/26825703",
      "region": "제주특별자치도"
    },
    {
      "lat": 33.25153234082406,
      "lng": 126.4257293531074,
      "title": "뚜레쥬르 제주중문점",
      "description": "제주특별자치도 서귀포시 천제연로 198",
      "url": "http://place.map.kakao.com/18275436",
      "region": "제주특별자치도"
    },
    {
      "lat": 33.4874508038125,
      "lng": 126.477453722576,
      "title": "뚜레쥬르 제주노형오거리점",
      "description": "제주특별자치도 제주시 월랑로 15",
      "url": "http://place.map.kakao.com/8347166",
      "region": "제주특별자치도"
    },
    {
      "lat": 33.4761015079507,
      "lng": 126.480874218137,
      "title": "뚜레쥬르 제주노형한라점",
      "description": "제주특별자치도 제주시 진군남4길 7-1",
      "url": "http://place.map.kakao.com/19696571",
      "region": "제주특별자치도"
    },
    {
      "lat": 33.50449592052549,
      "lng": 126.54183322362509,
      "title": "뚜레쥬르 제주일도점",
      "description": "제주특별자치도 제주시 고마로 113",
      "url": "http://place.map.kakao.com/11094976",
      "region": "제주특별자치도"
    },
    {
      "lat": 33.5149256958694,
      "lng": 126.589176936331,
      "title": "뚜레쥬르 제주도련점",
      "description": "제주특별자치도 제주시 연삼로 974",
      "url": "http://place.map.kakao.com/1174733578",
      "region": "제주특별자치도"
    },
    {
      "lat": 33.48955556899344,
      "lng": 126.53336399728474,
      "title": "뚜레쥬르 제주이도초교점",
      "description": "제주특별자치도 제주시 구남로4길 2-2",
      "url": "http://place.map.kakao.com/17894815",
      "region": "제주특별자치도"
    },
    {
      "lat": 33.350148632623885,
      "lng": 126.18334692203752,
      "title": "뚜레쥬르 제주한경점",
      "description": "제주특별자치도 제주시 한경면 신한로 1",
      "url": "http://place.map.kakao.com/818443022",
      "region": "제주특별자치도"
    },
    {
      "lat": 33.41236851628569,
      "lng": 126.2682450444189,
      "title": "뚜레쥬르 제주한림점",
      "description": "제주특별자치도 제주시 한림읍 명랑로4길 27",
      "url": "http://place.map.kakao.com/1057101521",
      "region": "제주특별자치도"
    },
    {
      "lat": 33.48585550741737,
      "lng": 126.43109541338481,
      "title": "뚜레쥬르 제주외도점",
      "description": "제주특별자치도 제주시 우정로 77",
      "url": "http://place.map.kakao.com/11076936",
      "region": "제주특별자치도"
    },
    {
      "lat": 33.290692197046,
      "lng": 126.283646943496,
      "title": "뚜레쥬르 영어도시점",
      "description": "제주특별자치도 서귀포시 대정읍 에듀시티로 50",
      "url": "http://place.map.kakao.com/2031008391",
      "region": "제주특별자치도"
    },
    {
      "lat": 33.48175759930918,
      "lng": 126.47689507618037,
      "title": "뚜레쥬르 제주노형타운점",
      "description": "제주특별자치도 제주시 노형6길 2",
      "url": "http://place.map.kakao.com/1334898337",
      "region": "제주특별자치도"
    },
    {
      "lat": 33.51439190571371,
      "lng": 126.57578773629115,
      "title": "뚜레쥬르 제주삼화점",
      "description": "제주특별자치도 제주시 화삼로 23",
      "url": "http://place.map.kakao.com/836241938",
      "region": "제주특별자치도"
    },
    {
      "lat": 33.464571157199956,
      "lng": 126.32018764966605,
      "title": "뚜레쥬르 제주애월점",
      "description": "제주특별자치도 제주시 애월읍 애월로 119",
      "url": "http://place.map.kakao.com/643993555",
      "region": "제주특별자치도"
    },
    {
      "lat": 33.4916153984375,
      "lng": 126.543690538442,
      "title": "뚜레쥬르 제주이도베라체점",
      "description": "제주특별자치도 제주시 승천로 83",
      "url": "http://place.map.kakao.com/1811505740",
      "region": "제주특별자치도"
    },
    {
      "lat": 33.4955588566665,
      "lng": 126.5270689159,
      "title": "뚜레쥬르 제주도남점",
      "description": "제주특별자치도 제주시 도남로 54",
      "url": "http://place.map.kakao.com/7849620",
      "region": "제주특별자치도"
    },
    {
      "lat": 33.2474893417777,
      "lng": 126.562459340716,
      "title": "뚜레쥬르 서귀포점",
      "description": "제주특별자치도 서귀포시 중정로 56-1",
      "url": "http://place.map.kakao.com/11083300",
      "region": "제주특별자치도"
    },
    {
      "lat": 33.500349969743,
      "lng": 126.520047857121,
      "title": "뚜레쥬르 제주서사라점",
      "description": "제주특별자치도 제주시 서사로 133",
      "url": "http://place.map.kakao.com/110000747",
      "region": "제주특별자치도"
    },
    {
      "lat": 33.54103793464105,
      "lng": 126.66805692617778,
      "title": "뚜레쥬르 제주함덕점",
      "description": "제주특별자치도 제주시 조천읍 신북로 546",
      "url": "http://place.map.kakao.com/1078439140",
      "region": "제주특별자치도"
    },
    {
      "lat": 33.48409341232692,
      "lng": 126.41189052502192,
      "title": "뚜레쥬르 제주하귀하나로점",
      "description": "제주특별자치도 제주시 애월읍 하광로 15",
      "url": "http://place.map.kakao.com/868430431",
      "region": "제주특별자치도"
    },
    {
      "lat": 33.22889813442284,
      "lng": 126.24829073739521,
      "title": "뚜레쥬르 제주모슬포점",
      "description": "제주특별자치도 서귀포시 대정읍 일주서로 2641",
      "url": "http://place.map.kakao.com/824643541",
      "region": "제주특별자치도"
    },
    {
      "lat": 33.258083189589,
      "lng": 126.572219671693,
      "title": "뚜레쥬르 서귀포동홍점",
      "description": "제주특별자치도 서귀포시 동홍중앙로 84",
      "url": "http://place.map.kakao.com/1532717967",
      "region": "제주특별자치도"
    },
    {
      "lat": 33.2527915493953,
      "lng": 126.502881725551,
      "title": "뚜레쥬르 서귀포신시가지점",
      "description": "제주특별자치도 서귀포시 대청로 29",
      "url": "http://place.map.kakao.com/1095566144",
      "region": "제주특별자치도"
    },
    {
      "lat": 33.25740929819627,
      "lng": 126.58031250750811,
      "title": "뚜레쥬르 서귀포하나로마트점",
      "description": "제주특별자치도 서귀포시 516로 40-1",
      "url": "http://place.map.kakao.com/1802962116",
      "region": "제주특별자치도"
    },
    {
      "lat": 33.5489548692645,
      "lng": 126.752006879417,
      "title": "뚜레쥬르 김녕하나로마트점",
      "description": "제주특별자치도 제주시 구좌읍 김송로 14",
      "url": "http://place.map.kakao.com/1222150759",
      "region": "제주특별자치도"
    },
    {
      "lat": 33.487209862078,
      "lng": 126.52512048662,
      "title": "뚜레쥬르 비앤비파트너스제주점",
      "description": "제주특별자치도 제주시 복지로 70",
      "url": "http://place.map.kakao.com/1107660322",
      "region": "제주특별자치도"
    },
    {
      "lat": 33.4894553486179,
      "lng": 126.427527486375,
      "title": "뚜레쥬르 제주물류센터",
      "description": "제주특별자치도 제주시 우정로8길 28",
      "url": "http://place.map.kakao.com/12665023",
      "region": "제주특별자치도"
    }
  ]
}