{
  "pins": [
    {
      "lat": 37.47844335279694,
      "lng": 127.05421654374456,
      "title": "개포래미안포레스트아파트",
      "description": "서울 강남구 개포로 264",
      "url": "http://place.map.kakao.com/701162038",
      "region": "서울특별시"
    },
    {
      "lat": 37.49856978131905,
      "lng": 127.04642014109963,
      "title": "개나리래미안아파트",
      "description": "서울 강남구 역삼로 306",
      "url": "http://place.map.kakao.com/10123859",
      "region": "서울특별시"
    },
    {
      "lat": 37.475404710357246,
      "lng": 127.10948007273332,
      "title": "래미안포레아파트",
      "description": "서울 강남구 밤고개로21길 25",
      "url": "http://place.map.kakao.com/22013294",
      "region": "서울특별시"
    },
    {
      "lat": 37.481287460486016,
      "lng": 127.06397918908269,
      "title": "래미안블레스티지아파트",
      "description": "서울 강남구 선릉로 8",
      "url": "http://place.map.kakao.com/27605711",
      "region": "서울특별시"
    },
    {
      "lat": 37.49751592497375,
      "lng": 127.05004728330309,
      "title": "역삼래미안아파트",
      "description": "서울 강남구 선릉로69길 19",
      "url": "http://place.map.kakao.com/10657563",
      "region": "서울특별시"
    },
    {
      "lat": 37.517485780654525,
      "lng": 127.05008663369085,
      "title": "래미안라클래시아파트",
      "description": "서울 강남구 삼성로 651",
      "url": "http://place.map.kakao.com/742839630",
      "region": "서울특별시"
    },
    {
      "lat": 37.500699316696824,
      "lng": 127.04753427154562,
      "title": "래미안펜타빌아파트",
      "description": "서울 강남구 역삼로 309",
      "url": "http://place.map.kakao.com/11366258",
      "region": "서울특별시"
    },
    {
      "lat": 37.524763172703494,
      "lng": 127.05611551013725,
      "title": "청담래미안로이뷰아파트",
      "description": "서울 강남구 영동대로142길 16",
      "url": "http://place.map.kakao.com/11091103",
      "region": "서울특별시"
    },
    {
      "lat": 37.47412411798923,
      "lng": 127.09408976051222,
      "title": "래미안강남힐즈아파트",
      "description": "서울 강남구 자곡로 101",
      "url": "http://place.map.kakao.com/17672815",
      "region": "서울특별시"
    },
    {
      "lat": 37.48924531078433,
      "lng": 127.08000508169303,
      "title": "래미안개포루체하임아파트",
      "description": "서울 강남구 개포로110길 50",
      "url": "http://place.map.kakao.com/1908191838",
      "region": "서울특별시"
    },
    {
      "lat": 37.5010439219419,
      "lng": 127.06548884594692,
      "title": "대치래미안하이스턴아파트",
      "description": "서울 강남구 도곡로93길 12",
      "url": "http://place.map.kakao.com/11374404",
      "region": "서울특별시"
    },
    {
      "lat": 37.49440021218252,
      "lng": 127.05799820242991,
      "title": "래미안대치팰리스1단지아파트",
      "description": "서울 강남구 삼성로51길 37",
      "url": "http://place.map.kakao.com/24561293",
      "region": "서울특별시"
    },
    {
      "lat": 37.495097408245705,
      "lng": 127.050552277708,
      "title": "래미안도곡카운티아파트",
      "description": "서울 강남구 도곡로 320",
      "url": "http://place.map.kakao.com/11078056",
      "region": "서울특별시"
    },
    {
      "lat": 37.49516364933424,
      "lng": 127.04724579539071,
      "title": "래미안그레이튼2차아파트",
      "description": "서울 강남구 도곡로43길 21",
      "url": "http://place.map.kakao.com/19558844",
      "region": "서울특별시"
    },
    {
      "lat": 37.4897778187728,
      "lng": 127.05065272084698,
      "title": "도곡삼성래미안아파트",
      "description": "서울 강남구 언주로 202",
      "url": "http://place.map.kakao.com/11053977",
      "region": "서울특별시"
    },
    {
      "lat": 37.49650037948605,
      "lng": 127.04814678878891,
      "title": "래미안그레이튼3차아파트",
      "description": "서울 강남구 도곡로43길 20",
      "url": "http://place.map.kakao.com/25979746",
      "region": "서울특별시"
    },
    {
      "lat": 37.5201293043693,
      "lng": 127.01961953172923,
      "title": "래미안신사아파트",
      "description": "서울 강남구 압구정로2길 20",
      "url": "http://place.map.kakao.com/11374645",
      "region": "서울특별시"
    },
    {
      "lat": 37.5161983767922,
      "lng": 127.042888326196,
      "title": "래미안삼성2차아파트",
      "description": "서울 강남구 선릉로130길 20",
      "url": "http://place.map.kakao.com/23993641",
      "region": "서울특별시"
    },
    {
      "lat": 37.49502762301779,
      "lng": 127.0609614388239,
      "title": "래미안대치팰리스2단지아파트",
      "description": "서울 강남구 삼성로51길 35",
      "url": "http://place.map.kakao.com/24561294",
      "region": "서울특별시"
    },
    {
      "lat": 37.49338127589065,
      "lng": 127.0454116518078,
      "title": "래미안레벤투스아파트 (2026년10월예정)",
      "description": "서울 강남구 도곡로 242",
      "url": "http://place.map.kakao.com/1193697693",
      "region": "서울특별시"
    },
    {
      "lat": 37.517133090190136,
      "lng": 127.06397358259878,
      "title": "래미안삼성1차아파트",
      "description": "서울 강남구 영동대로114길 56",
      "url": "http://place.map.kakao.com/11352462",
      "region": "서울특별시"
    },
    {
      "lat": 37.51659603354749,
      "lng": 127.06408171419244,
      "title": "래미안삼성1차아파트(201동)",
      "description": "서울 강남구 영동대로114길 56",
      "url": "http://place.map.kakao.com/19146362",
      "region": "서울특별시"
    },
    {
      "lat": 37.4992361050744,
      "lng": 127.047479061553,
      "title": "개나리래미안아파트 상가",
      "description": "서울 강남구 역삼로 306",
      "url": "http://place.map.kakao.com/26450195",
      "region": "서울특별시"
    },
    {
      "lat": 37.516665055296,
      "lng": 127.063068265081,
      "title": "삼성래미안1단지아파트",
      "description": "서울 강남구 영동대로114길 56",
      "url": "http://place.map.kakao.com/11134386",
      "region": "서울특별시"
    },
    {
      "lat": 37.515753401632686,
      "lng": 127.06276435403802,
      "title": "삼성래미안5단지아파트",
      "description": "서울 강남구 영동대로114길 56",
      "url": "http://place.map.kakao.com/11369172",
      "region": "서울특별시"
    },
    {
      "lat": 37.4813641578264,
      "lng": 127.06542078873,
      "title": "래미안블레스티지아파트 커뮤니티센터",
      "description": "서울 강남구 선릉로 8",
      "url": "http://place.map.kakao.com/505442174",
      "region": "서울특별시"
    },
    {
      "lat": 37.53738879127191,
      "lng": 127.13203463437566,
      "title": "래미안강동팰리스아파트",
      "description": "서울 강동구 천호대로 1077",
      "url": "http://place.map.kakao.com/22278330",
      "region": "서울특별시"
    },
    {
      "lat": 37.55264978731833,
      "lng": 127.14518350291279,
      "title": "래미안솔베뉴아파트",
      "description": "서울 강동구 양재대로 1650",
      "url": "http://place.map.kakao.com/202970040",
      "region": "서울특별시"
    },
    {
      "lat": 37.5595258727289,
      "lng": 127.149057394089,
      "title": "래미안힐스테이트고덕아파트",
      "description": "서울 강동구 아리수로50길 50",
      "url": "http://place.map.kakao.com/24480772",
      "region": "서울특별시"
    },
    {
      "lat": 37.5593848377067,
      "lng": 127.14872323444936,
      "title": "고덕래미안힐스테이트 커뮤니티센터",
      "description": "서울 강동구 아리수로50길 50",
      "url": "http://place.map.kakao.com/806877035",
      "region": "서울특별시"
    },
    {
      "lat": 37.64470812300841,
      "lng": 127.01806139822301,
      "title": "수유래미안아파트",
      "description": "서울 강북구 한천로159길 8",
      "url": "http://place.map.kakao.com/11140428",
      "region": "서울특별시"
    },
    {
      "lat": 37.613940803823745,
      "lng": 127.0207269361348,
      "title": "래미안트리베라1차아파트",
      "description": "서울 강북구 삼양로19길 25",
      "url": "http://place.map.kakao.com/11068194",
      "region": "서울특별시"
    },
    {
      "lat": 37.61679327600874,
      "lng": 127.02105053677946,
      "title": "삼성래미안트리베라2차아파트",
      "description": "서울 강북구 삼양로27길 19",
      "url": "http://place.map.kakao.com/11364020",
      "region": "서울특별시"
    },
    {
      "lat": 37.62597822471401,
      "lng": 127.01940716534453,
      "title": "래미안미아1차아파트",
      "description": "서울 강북구 삼양로 256",
      "url": "http://place.map.kakao.com/11322823",
      "region": "서울특별시"
    },
    {
      "lat": 37.519313142616056,
      "lng": 126.85147510847378,
      "title": "래미안목동아델리체아파트",
      "description": "서울 양천구 중앙로43길 14",
      "url": "http://place.map.kakao.com/751705075",
      "region": "서울특별시"
    },
    {
      "lat": 37.52438923566343,
      "lng": 126.8825465095654,
      "title": "양평동삼성래미안아파트",
      "description": "서울 영등포구 영등포로3길 9",
      "url": "http://place.map.kakao.com/10422826",
      "region": "서울특별시"
    },
    {
      "lat": 37.488107019216336,
      "lng": 126.9730210949366,
      "title": "래미안로이파크아파트",
      "description": "서울 동작구 사당로23길 112",
      "url": "http://place.map.kakao.com/27337123",
      "region": "서울특별시"
    },
    {
      "lat": 37.48932003259509,
      "lng": 126.97033403196725,
      "title": "동작삼성래미안아파트",
      "description": "서울 동작구 사당로23바길 9",
      "url": "http://place.map.kakao.com/7919743",
      "region": "서울특별시"
    },
    {
      "lat": 37.49935230215523,
      "lng": 126.95473287857449,
      "title": "래미안상도3차아파트",
      "description": "서울 동작구 상도로53길 8",
      "url": "http://place.map.kakao.com/10443225",
      "region": "서울특별시"
    },
    {
      "lat": 37.49805615751651,
      "lng": 126.95827553584185,
      "title": "래미안상도2차아파트",
      "description": "서울 동작구 상도로55길 47",
      "url": "http://place.map.kakao.com/8349619",
      "region": "서울특별시"
    },
    {
      "lat": 37.47270086012606,
      "lng": 126.98400590134916,
      "title": "방배래미안아파트",
      "description": "서울 서초구 방배선행길 2",
      "url": "http://place.map.kakao.com/7925596",
      "region": "서울특별시"
    },
    {
      "lat": 37.5052102695156,
      "lng": 126.934688470808,
      "title": "상도래미안1차아파트",
      "description": "서울 동작구 등용로 38",
      "url": "http://place.map.kakao.com/11050513",
      "region": "서울특별시"
    },
    {
      "lat": 37.48779919126669,
      "lng": 126.97444590305362,
      "title": "래미안로이파크 후면상가",
      "description": "서울 동작구 사당로23길 112",
      "url": "http://place.map.kakao.com/2066700158",
      "region": "서울특별시"
    },
    {
      "lat": 37.475047788414024,
      "lng": 126.99046745425962,
      "title": "방배래미안타워아파트",
      "description": "서울 서초구 남부순환로 2183",
      "url": "http://place.map.kakao.com/11338320",
      "region": "서울특별시"
    },
    {
      "lat": 37.50989217282603,
      "lng": 126.95003946254063,
      "title": "본동삼성래미안아파트",
      "description": "서울 동작구 매봉로 123",
      "url": "http://place.map.kakao.com/9047063",
      "region": "서울특별시"
    },
    {
      "lat": 37.54602806146173,
      "lng": 127.09037451947734,
      "title": "래미안파크스위트아파트",
      "description": "서울 광진구 광나루로 545",
      "url": "http://place.map.kakao.com/1947962633",
      "region": "서울특별시"
    },
    {
      "lat": 37.53774260268263,
      "lng": 127.08152777251904,
      "title": "래미안프리미어팰리스아파트",
      "description": "서울 광진구 아차산로 345",
      "url": "http://place.map.kakao.com/26936348",
      "region": "서울특별시"
    },
    {
      "lat": 37.51830016741403,
      "lng": 127.11103020209403,
      "title": "잠실래미안아이파크아파트 (2025년12월예정)",
      "description": "서울 송파구 신천동 20-4",
      "url": "http://place.map.kakao.com/1586673352",
      "region": "서울특별시"
    },
    {
      "lat": 37.56644531972429,
      "lng": 127.07242800941911,
      "title": "장안래미안1차아파트",
      "description": "서울 동대문구 장한로14길 81",
      "url": "http://place.map.kakao.com/11370869",
      "region": "서울특별시"
    },
    {
      "lat": 37.5655152921318,
      "lng": 127.07275309204,
      "title": "삼성래미안1차아파트 상가",
      "description": "서울 동대문구 장한로14길 81",
      "url": "http://place.map.kakao.com/26441374",
      "region": "서울특별시"
    },
    {
      "lat": 37.48773177713954,
      "lng": 126.89189949864326,
      "title": "삼성래미안아파트",
      "description": "서울 구로구 디지털로31길 90",
      "url": "http://place.map.kakao.com/7918168",
      "region": "서울특별시"
    },
    {
      "lat": 37.4875974759914,
      "lng": 126.890863963005,
      "title": "삼성래미안상가",
      "description": "서울 구로구 디지털로31길 86",
      "url": "http://place.map.kakao.com/14972259",
      "region": "서울특별시"
    },
    {
      "lat": 37.510062223958485,
      "lng": 126.86789249259968,
      "title": "목동삼성래미안2차아파트",
      "description": "서울 양천구 목동남로4길 81",
      "url": "http://place.map.kakao.com/11294149",
      "region": "서울특별시"
    },
    {
      "lat": 37.47182065304716,
      "lng": 126.87437750854227,
      "title": "철산래미안자이아파트",
      "description": "경기 광명시 디지털로 56",
      "url": "http://place.map.kakao.com/11156574",
      "region": "경기도"
    },
    {
      "lat": 37.4717299451265,
      "lng": 126.873807903748,
      "title": "철산래미안자이아파트 커뮤니티센터 골프연습장",
      "description": "경기 광명시 디지털로 56",
      "url": "http://place.map.kakao.com/25826620",
      "region": "경기도"
    },
    {
      "lat": 37.6669434576878,
      "lng": 127.04733633569171,
      "title": "방학삼성래미안1단지아파트",
      "description": "서울 도봉구 마들로 646",
      "url": "http://place.map.kakao.com/7925594",
      "region": "서울특별시"
    },
    {
      "lat": 37.665070018121,
      "lng": 127.04581639552215,
      "title": "방학삼성래미안2단지아파트",
      "description": "서울 도봉구 도봉로150길 42",
      "url": "http://place.map.kakao.com/7919750",
      "region": "서울특별시"
    },
    {
      "lat": 37.64683611245521,
      "lng": 127.02798350145045,
      "title": "쌍문삼성래미안아파트",
      "description": "서울 도봉구 우이천로 328",
      "url": "http://place.map.kakao.com/11054652",
      "region": "서울특별시"
    },
    {
      "lat": 37.67962236501131,
      "lng": 127.04652365173122,
      "title": "도봉래미안아파트",
      "description": "서울 도봉구 도봉로170길 40",
      "url": "http://place.map.kakao.com/10443221",
      "region": "서울특별시"
    },
    {
      "lat": 37.61984283215827,
      "lng": 127.05135702409821,
      "title": "래미안장위퍼스트하이아파트",
      "description": "서울 성북구 한천로 713",
      "url": "http://place.map.kakao.com/1976205896",
      "region": "서울특별시"
    },
    {
      "lat": 37.61801141391467,
      "lng": 127.05274216603736,
      "title": "래미안장위포레카운티아파트",
      "description": "서울 성북구 장월로 160",
      "url": "http://place.map.kakao.com/436830087",
      "region": "서울특별시"
    },
    {
      "lat": 37.576333475735964,
      "lng": 127.05249313864849,
      "title": "래미안크레시티아파트",
      "description": "서울 동대문구 사가정로 65",
      "url": "http://place.map.kakao.com/14825344",
      "region": "서울특별시"
    },
    {
      "lat": 37.5800222747363,
      "lng": 127.028470187838,
      "title": "래미안엘리니티아파트",
      "description": "서울 동대문구 한빛로 49",
      "url": "http://place.map.kakao.com/729771348",
      "region": "서울특별시"
    },
    {
      "lat": 37.6000844489313,
      "lng": 127.060230587332,
      "title": "래미안라그란데아파트",
      "description": "서울 동대문구 이문로35길 12",
      "url": "http://place.map.kakao.com/509200877",
      "region": "서울특별시"
    },
    {
      "lat": 37.57442433193186,
      "lng": 127.05626708717048,
      "title": "래미안미드카운티아파트",
      "description": "서울 동대문구 답십리로 141",
      "url": "http://place.map.kakao.com/27268395",
      "region": "서울특별시"
    },
    {
      "lat": 37.57159835155525,
      "lng": 127.05337841766884,
      "title": "래미안위브아파트",
      "description": "서울 동대문구 답십리로 130",
      "url": "http://place.map.kakao.com/15274985",
      "region": "서울특별시"
    },
    {
      "lat": 37.5809433375079,
      "lng": 127.06107557482015,
      "title": "래미안아름숲아파트",
      "description": "서울 동대문구 전농로16길 51",
      "url": "http://place.map.kakao.com/11351464",
      "region": "서울특별시"
    },
    {
      "lat": 37.575881093623536,
      "lng": 127.06530075116865,
      "title": "래미안엘파인아파트",
      "description": "서울 동대문구 한천로37길 33",
      "url": "http://place.map.kakao.com/10365447",
      "region": "서울특별시"
    },
    {
      "lat": 37.57396497479295,
      "lng": 127.07538758267157,
      "title": "래미안장안2차아파트",
      "description": "서울 동대문구 장안벚꽃로 167",
      "url": "http://place.map.kakao.com/11369378",
      "region": "서울특별시"
    },
    {
      "lat": 37.575349452596676,
      "lng": 127.0360394566192,
      "title": "래미안허브리츠아파트",
      "description": "서울 동대문구 정릉천동로 36",
      "url": "http://place.map.kakao.com/10439903",
      "region": "서울특별시"
    },
    {
      "lat": 37.59351808326114,
      "lng": 127.06011659303657,
      "title": "래미안이문2차아파트",
      "description": "서울 동대문구 이문로12길 3-10",
      "url": "http://place.map.kakao.com/11372259",
      "region": "서울특별시"
    },
    {
      "lat": 37.6000357871039,
      "lng": 127.056606840929,
      "title": "이문삼성래미안1차아파트",
      "description": "서울 동대문구 천장산로11길 22",
      "url": "http://place.map.kakao.com/7919960",
      "region": "서울특별시"
    },
    {
      "lat": 37.5771167281108,
      "lng": 127.05385329416,
      "title": "래미안크레시티3단지상가",
      "description": "서울 동대문구 사가정로 65",
      "url": "http://place.map.kakao.com/406633861",
      "region": "서울특별시"
    },
    {
      "lat": 37.5785508493644,
      "lng": 127.060000405845,
      "title": "래미안아름숲아파트상가",
      "description": "서울 동대문구 사가정로17길 15",
      "url": "http://place.map.kakao.com/26095026",
      "region": "서울특별시"
    },
    {
      "lat": 37.575515322358,
      "lng": 127.066852454538,
      "title": "래미안엘파인아파트(1000-1)",
      "description": "서울 동대문구 한천로33길 11",
      "url": "http://place.map.kakao.com/1305947013",
      "region": "서울특별시"
    },
    {
      "lat": 37.5763032962084,
      "lng": 127.037039515668,
      "title": "래미안허브리츠아파트(792-1)",
      "description": "서울 동대문구 고산자로29길 18",
      "url": "http://place.map.kakao.com/1306556655",
      "region": "서울특별시"
    },
    {
      "lat": 37.5729710011508,
      "lng": 127.07424439426738,
      "title": "삼성래미안주상가",
      "description": "서울 동대문구 장안벚꽃로 167",
      "url": "http://place.map.kakao.com/14972378",
      "region": "서울특별시"
    },
    {
      "lat": 37.51409477620258,
      "lng": 126.95080129071175,
      "title": "래미안트윈파크아파트",
      "description": "서울 동작구 노량진로23가길 23",
      "url": "http://place.map.kakao.com/11701316",
      "region": "서울특별시"
    },
    {
      "lat": 37.5051291729133,
      "lng": 126.933067856599,
      "title": "상도래미안1차아파트(447)",
      "description": "서울 동작구 등용로 37",
      "url": "http://place.map.kakao.com/1200210234",
      "region": "서울특별시"
    },
    {
      "lat": 37.553310836830384,
      "lng": 126.95300610568283,
      "title": "마포래미안푸르지오아파트",
      "description": "서울 마포구 마포대로 195",
      "url": "http://place.map.kakao.com/17638211",
      "region": "서울특별시"
    },
    {
      "lat": 37.54359818649498,
      "lng": 126.93599702078221,
      "title": "래미안마포웰스트림아파트",
      "description": "서울 마포구 토정로18길 11",
      "url": "http://place.map.kakao.com/22043391",
      "region": "서울특별시"
    },
    {
      "lat": 37.542259680963205,
      "lng": 126.94196248099253,
      "title": "래미안마포리버웰아파트",
      "description": "서울 마포구 토정로31길 23",
      "url": "http://place.map.kakao.com/17357275",
      "region": "서울특별시"
    },
    {
      "lat": 37.5433765814088,
      "lng": 126.94127702686515,
      "title": "래미안용강아파트",
      "description": "서울 마포구 큰우물로 28",
      "url": "http://place.map.kakao.com/7919745",
      "region": "서울특별시"
    },
    {
      "lat": 37.550756171638305,
      "lng": 126.95217027940218,
      "title": "공덕래미안5차아파트",
      "description": "서울 마포구 마포대로 173-15",
      "url": "http://place.map.kakao.com/14879750",
      "region": "서울특별시"
    },
    {
      "lat": 37.5431953961841,
      "lng": 126.95551657203,
      "title": "신공덕삼성래미안1차아파트",
      "description": "서울 마포구 백범로37길 12",
      "url": "http://place.map.kakao.com/8376396",
      "region": "서울특별시"
    },
    {
      "lat": 37.5499044146751,
      "lng": 126.95140243355593,
      "title": "래미안공덕4차아파트",
      "description": "서울 마포구 마포대로11길 50",
      "url": "http://place.map.kakao.com/11326984",
      "region": "서울특별시"
    },
    {
      "lat": 37.54896539011028,
      "lng": 126.94679502360975,
      "title": "염리삼성래미안아파트",
      "description": "서울 마포구 백범로25길 63",
      "url": "http://place.map.kakao.com/7919744",
      "region": "서울특별시"
    },
    {
      "lat": 37.54687895701406,
      "lng": 126.92707491451532,
      "title": "래미안밤섬리베뉴II아파트",
      "description": "서울 마포구 독막로20나길 21",
      "url": "http://place.map.kakao.com/17545977",
      "region": "서울특별시"
    },
    {
      "lat": 37.551024746417596,
      "lng": 126.95961307917939,
      "title": "공덕삼성래미안2차아파트",
      "description": "서울 마포구 마포대로20길 26",
      "url": "http://place.map.kakao.com/8205770",
      "region": "서울특별시"
    },
    {
      "lat": 37.548297243123734,
      "lng": 126.95191497165763,
      "title": "래미안공덕3차아파트",
      "description": "서울 마포구 마포대로7길 22",
      "url": "http://place.map.kakao.com/10157830",
      "region": "서울특별시"
    },
    {
      "lat": 37.546378645955734,
      "lng": 126.95803135091899,
      "title": "신공덕삼성래미안2차아파트",
      "description": "서울 마포구 만리재로 74",
      "url": "http://place.map.kakao.com/7925597",
      "region": "서울특별시"
    },
    {
      "lat": 37.54673756766916,
      "lng": 126.92573749909259,
      "title": "래미안밤섬리베뉴1아파트",
      "description": "서울 마포구 독막로20나길 22",
      "url": "http://place.map.kakao.com/17545967",
      "region": "서울특별시"
    },
    {
      "lat": 37.54547723784517,
      "lng": 126.9568957471628,
      "title": "신공덕삼성래미안3차아파트",
      "description": "서울 마포구 만리재로 60",
      "url": "http://place.map.kakao.com/7918302",
      "region": "서울특별시"
    },
    {
      "lat": 37.55494006692562,
      "lng": 126.95357773589026,
      "title": "마포래미안푸르지오아파트1단지 상가",
      "description": "서울 마포구 마포대로 195",
      "url": "http://place.map.kakao.com/27094981",
      "region": "서울특별시"
    },
    {
      "lat": 37.5437733076538,
      "lng": 126.941856072844,
      "title": "래미안용강아파트 상가",
      "description": "서울 마포구 큰우물로 26",
      "url": "http://place.map.kakao.com/26445857",
      "region": "서울특별시"
    },
    {
      "lat": 37.5533576241882,
      "lng": 126.952844242934,
      "title": "마포래미안푸르지오4단지아파트 커뮤니티센터",
      "description": "서울 마포구 마포대로 195",
      "url": "http://place.map.kakao.com/771935919",
      "region": "서울특별시"
    },
    {
      "lat": 37.5513197661,
      "lng": 126.960779672897,
      "title": "삼성래미안공덕2차아파트(201동)",
      "description": "서울 마포구 만리재옛길 101",
      "url": "http://place.map.kakao.com/1421640087",
      "region": "서울특별시"
    },
    {
      "lat": 37.549822702413,
      "lng": 126.947832135823,
      "title": "염리삼성래미안아파트(519)",
      "description": "서울 마포구 백범로25길 83",
      "url": "http://place.map.kakao.com/1199793744",
      "region": "서울특별시"
    },
    {
      "lat": 37.577934745775956,
      "lng": 126.91656163623432,
      "title": "DMC래미안클라시스아파트",
      "description": "서울 서대문구 증가로 191",
      "url": "http://place.map.kakao.com/8376394",
      "region": "서울특별시"
    },
    {
      "lat": 37.5761543538414,
      "lng": 126.9178066099872,
      "title": "래미안루센티아아파트",
      "description": "서울 서대문구 거북골로 100",
      "url": "http://place.map.kakao.com/484773719",
      "region": "서울특별시"
    },
    {
      "lat": 37.578354228651605,
      "lng": 126.95129791106295,
      "title": "홍제삼성래미안아파트",
      "description": "서울 서대문구 통일로 319",
      "url": "http://place.map.kakao.com/10443222",
      "region": "서울특별시"
    },
    {
      "lat": 37.57198896171074,
      "lng": 126.91265613489558,
      "title": "래미안남가좌2차아파트",
      "description": "서울 서대문구 수색로6길 43",
      "url": "http://place.map.kakao.com/11050514",
      "region": "서울특별시"
    },
    {
      "lat": 37.573666935484006,
      "lng": 126.91067768766229,
      "title": "DMC래미안e편한세상아파트",
      "description": "서울 서대문구 수색로 100",
      "url": "http://place.map.kakao.com/11581949",
      "region": "서울특별시"
    },
    {
      "lat": 37.5786002032661,
      "lng": 126.916029946444,
      "title": "DMC래미안클라시스아파트(377-1)",
      "description": "서울 서대문구 증가로 191",
      "url": "http://place.map.kakao.com/1201004783",
      "region": "서울특별시"
    },
    {
      "lat": 37.506544686158804,
      "lng": 126.9987050108016,
      "title": "래미안원베일리아파트",
      "description": "서울 서초구 반포대로 333",
      "url": "http://place.map.kakao.com/935580857",
      "region": "서울특별시"
    },
    {
      "lat": 37.503787457009174,
      "lng": 126.99385326860263,
      "title": "래미안원펜타스아파트",
      "description": "서울 서초구 신반포로15길 1",
      "url": "http://place.map.kakao.com/410343315",
      "region": "서울특별시"
    },
    {
      "lat": 37.5032064667979,
      "lng": 126.999398337486,
      "title": "래미안퍼스티지아파트",
      "description": "서울 서초구 반포대로 275",
      "url": "http://place.map.kakao.com/17135449",
      "region": "서울특별시"
    },
    {
      "lat": 37.49090619004928,
      "lng": 127.0280948402369,
      "title": "래미안리더스원아파트",
      "description": "서울 서초구 서운로 62",
      "url": "http://place.map.kakao.com/289613840",
      "region": "서울특별시"
    },
    {
      "lat": 37.477675406635306,
      "lng": 127.00511465214285,
      "title": "방배래미안아트힐아파트",
      "description": "서울 서초구 남부순환로 2311-12",
      "url": "http://place.map.kakao.com/10439117",
      "region": "서울특별시"
    },
    {
      "lat": 37.49855576783903,
      "lng": 127.01888560295282,
      "title": "서초래미안아파트",
      "description": "서울 서초구 서초대로65길 13-10",
      "url": "http://place.map.kakao.com/7954008",
      "region": "서울특별시"
    },
    {
      "lat": 37.51530094587001,
      "lng": 127.01200125809991,
      "title": "래미안신반포팰리스아파트",
      "description": "서울 서초구 잠원로8길 35",
      "url": "http://place.map.kakao.com/24632212",
      "region": "서울특별시"
    },
    {
      "lat": 37.484698564940395,
      "lng": 127.01696902827089,
      "title": "래미안서초유니빌아파트",
      "description": "서울 서초구 서초중앙로 26",
      "url": "http://place.map.kakao.com/11059818",
      "region": "서울특별시"
    },
    {
      "lat": 37.49295935342957,
      "lng": 127.02512615469004,
      "title": "래미안서초에스티지아파트",
      "description": "서울 서초구 서운로 107",
      "url": "http://place.map.kakao.com/26822728",
      "region": "서울특별시"
    },
    {
      "lat": 37.51901560320818,
      "lng": 127.01365903627939,
      "title": "래미안신반포리오센트아파트",
      "description": "서울 서초구 잠원로14길 32",
      "url": "http://place.map.kakao.com/1331226745",
      "region": "서울특별시"
    },
    {
      "lat": 37.50047589114751,
      "lng": 126.98881536548001,
      "title": "반포래미안트리니원아파트 (2026년08월예정)",
      "description": "서울 서초구 반포동 1109",
      "url": "http://place.map.kakao.com/1951092600",
      "region": "서울특별시"
    },
    {
      "lat": 37.501422672534254,
      "lng": 127.0129094251818,
      "title": "반포래미안아이파크아파트",
      "description": "서울 서초구 서초중앙로 220",
      "url": "http://place.map.kakao.com/27316106",
      "region": "서울특별시"
    },
    {
      "lat": 37.5049039615373,
      "lng": 126.999475229836,
      "title": "래미안원베일리아파트 상가",
      "description": "서울 서초구 반포대로 291",
      "url": "http://place.map.kakao.com/1871800970",
      "region": "서울특별시"
    },
    {
      "lat": 37.502256835232025,
      "lng": 127.0204788848919,
      "title": "래미안서초스위트아파트",
      "description": "서울 서초구 서운로 221",
      "url": "http://place.map.kakao.com/8270756",
      "region": "서울특별시"
    },
    {
      "lat": 37.49333739191532,
      "lng": 127.02687336071624,
      "title": "래미안서초에스티지S아파트",
      "description": "서울 서초구 서운로 104",
      "url": "http://place.map.kakao.com/27432204",
      "region": "서울특별시"
    },
    {
      "lat": 37.493452290504536,
      "lng": 127.0199517906533,
      "title": "서초삼성래미안1차아파트",
      "description": "서울 서초구 사임당로17길 116",
      "url": "http://place.map.kakao.com/7937092",
      "region": "서울특별시"
    },
    {
      "lat": 37.48579875044836,
      "lng": 127.00788763842307,
      "title": "서초래미안5차아파트",
      "description": "서울 서초구 반포대로21길 67",
      "url": "http://place.map.kakao.com/11125811",
      "region": "서울특별시"
    },
    {
      "lat": 37.49403003983014,
      "lng": 126.98829389432373,
      "title": "래미안방배에버뉴아파트",
      "description": "서울 서초구 동광로19길 51",
      "url": "http://place.map.kakao.com/11078870",
      "region": "서울특별시"
    },
    {
      "lat": 37.492032688406425,
      "lng": 127.01752250605358,
      "title": "래미안서초7차아파트",
      "description": "서울 서초구 사임당로17길 80",
      "url": "http://place.map.kakao.com/11125813",
      "region": "서울특별시"
    },
    {
      "lat": 37.5045327454147,
      "lng": 127.000850485366,
      "title": "래미안퍼스티지 중심상가",
      "description": "서울 서초구 반포대로 287",
      "url": "http://place.map.kakao.com/11380623",
      "region": "서울특별시"
    },
    {
      "lat": 37.481073616622616,
      "lng": 127.01095335848936,
      "title": "서초래미안4차아파트",
      "description": "서울 서초구 남부순환로317길 34",
      "url": "http://place.map.kakao.com/11125810",
      "region": "서울특별시"
    },
    {
      "lat": 37.48573033234395,
      "lng": 127.0069559500195,
      "title": "서초래미안6차아파트",
      "description": "서울 서초구 반포대로21길 74",
      "url": "http://place.map.kakao.com/11125812",
      "region": "서울특별시"
    },
    {
      "lat": 37.5449806355556,
      "lng": 127.01383916640965,
      "title": "래미안옥수리버젠아파트",
      "description": "서울 성동구 매봉길 15",
      "url": "http://place.map.kakao.com/11050512",
      "region": "서울특별시"
    },
    {
      "lat": 37.54910034615845,
      "lng": 127.02736299736135,
      "title": "금호삼성래미안아파트",
      "description": "서울 성동구 독서당로 343",
      "url": "http://place.map.kakao.com/8707321",
      "region": "서울특별시"
    },
    {
      "lat": 37.55126336183034,
      "lng": 127.02454479741459,
      "title": "래미안하이리버아파트",
      "description": "서울 성동구 금호로 107",
      "url": "http://place.map.kakao.com/11267835",
      "region": "서울특별시"
    },
    {
      "lat": 37.5462473140047,
      "lng": 127.014878204305,
      "title": "래미안옥수리버젠아파트(562)",
      "description": "서울 성동구 매봉길 17",
      "url": "http://place.map.kakao.com/1422277417",
      "region": "서울특별시"
    },
    {
      "lat": 37.5499869547993,
      "lng": 127.027250156376,
      "title": "금호삼성래미안아파트 상가",
      "description": "서울 성동구 독서당로55길 17",
      "url": "http://place.map.kakao.com/23993380",
      "region": "서울특별시"
    },
    {
      "lat": 37.61162932175465,
      "lng": 127.02733945483715,
      "title": "래미안길음센터피스아파트",
      "description": "서울 성북구 숭인로 50",
      "url": "http://place.map.kakao.com/27295778",
      "region": "서울특별시"
    },
    {
      "lat": 37.60627685061643,
      "lng": 127.06385619240235,
      "title": "래미안아트리치아파트",
      "description": "서울 성북구 돌곶이로8길 22",
      "url": "http://place.map.kakao.com/117046149",
      "region": "서울특별시"
    },
    {
      "lat": 37.60098614423668,
      "lng": 127.03015416057758,
      "title": "래미안크리시엘아파트",
      "description": "서울 성북구 종암로25길 30",
      "url": "http://place.map.kakao.com/8390214",
      "region": "서울특별시"
    },
    {
      "lat": 37.6104410267885,
      "lng": 127.03687183077496,
      "title": "래미안월곡아파트",
      "description": "서울 성북구 오패산로 90",
      "url": "http://place.map.kakao.com/11084133",
      "region": "서울특별시"
    },
    {
      "lat": 37.59924519769332,
      "lng": 127.03105031607741,
      "title": "래미안세레니티아파트",
      "description": "서울 성북구 종암로23길 35",
      "url": "http://place.map.kakao.com/11440977",
      "region": "서울특별시"
    },
    {
      "lat": 37.58930715224304,
      "lng": 127.02374999359121,
      "title": "래미안안암아파트",
      "description": "서울 성북구 고려대로17가길 64",
      "url": "http://place.map.kakao.com/11329601",
      "region": "서울특별시"
    },
    {
      "lat": 37.599480756187695,
      "lng": 127.03883000318879,
      "title": "래미안라센트아파트",
      "description": "서울 성북구 종암로24가길 80",
      "url": "http://place.map.kakao.com/11083558",
      "region": "서울특별시"
    },
    {
      "lat": 37.608365521736864,
      "lng": 127.0545202288941,
      "title": "래미안석관아파트",
      "description": "서울 성북구 화랑로 214",
      "url": "http://place.map.kakao.com/11142533",
      "region": "서울특별시"
    },
    {
      "lat": 37.60583919100933,
      "lng": 127.02024903938056,
      "title": "길음래미안1단지아파트",
      "description": "서울 성북구 길음로9길 40",
      "url": "http://place.map.kakao.com/11506152",
      "region": "서울특별시"
    },
    {
      "lat": 37.59908319821899,
      "lng": 127.04210241562659,
      "title": "월곡래미안루나밸리아파트",
      "description": "서울 성북구 월곡로14길 26",
      "url": "http://place.map.kakao.com/11077631",
      "region": "서울특별시"
    },
    {
      "lat": 37.60370214238333,
      "lng": 127.01965844626247,
      "title": "길음뉴타운9단지래미안아파트",
      "description": "서울 성북구 길음로9길 50",
      "url": "http://place.map.kakao.com/11266721",
      "region": "서울특별시"
    },
    {
      "lat": 37.6076630968992,
      "lng": 127.018401254239,
      "title": "길음뉴타운8단지래미안아파트",
      "description": "서울 성북구 길음로 33",
      "url": "http://place.map.kakao.com/11245284",
      "region": "서울특별시"
    },
    {
      "lat": 37.60968453435855,
      "lng": 127.02071216425595,
      "title": "길음뉴타운5단지래미안아파트",
      "description": "서울 성북구 길음로 74",
      "url": "http://place.map.kakao.com/11506229",
      "region": "서울특별시"
    },
    {
      "lat": 37.60627118257101,
      "lng": 127.02289468382924,
      "title": "길음뉴타운6단지래미안아파트",
      "description": "서울 성북구 길음로 16",
      "url": "http://place.map.kakao.com/11506154",
      "region": "서울특별시"
    },
    {
      "lat": 37.6119866709784,
      "lng": 127.028783637643,
      "title": "래미안길음센터피스 커뮤니티센터",
      "description": "서울 성북구 숭인로 50",
      "url": "http://place.map.kakao.com/553079709",
      "region": "서울특별시"
    },
    {
      "lat": 37.6021068562472,
      "lng": 127.030621178192,
      "title": "래미안크리시엘아파트 상가",
      "description": "서울 성북구 종암로27길 37",
      "url": "http://place.map.kakao.com/23998120",
      "region": "서울특별시"
    },
    {
      "lat": 37.490621445698174,
      "lng": 127.13029006224446,
      "title": "문정래미안아파트",
      "description": "서울 송파구 문정로 83",
      "url": "http://place.map.kakao.com/7919962",
      "region": "서울특별시"
    },
    {
      "lat": 37.50267698944269,
      "lng": 127.12000592044333,
      "title": "래미안송파파인탑아파트",
      "description": "서울 송파구 오금로32길 31",
      "url": "http://place.map.kakao.com/13114698",
      "region": "서울특별시"
    },
    {
      "lat": 37.50472541783163,
      "lng": 127.11867465830989,
      "title": "송파삼성래미안아파트",
      "description": "서울 송파구 오금로32길 14",
      "url": "http://place.map.kakao.com/11050511",
      "region": "서울특별시"
    },
    {
      "lat": 37.498191499346724,
      "lng": 127.13209450858676,
      "title": "래미안파크팰리스아파트",
      "description": "서울 송파구 동남로 225",
      "url": "http://place.map.kakao.com/11330579",
      "region": "서울특별시"
    },
    {
      "lat": 37.5016056962076,
      "lng": 126.91411564902936,
      "title": "래미안에스티움아파트",
      "description": "서울 영등포구 신풍로 77",
      "url": "http://place.map.kakao.com/26353873",
      "region": "서울특별시"
    },
    {
      "lat": 37.5292640723793,
      "lng": 126.908479301149,
      "title": "강변래미안아파트",
      "description": "서울 영등포구 버드나루로 130",
      "url": "http://place.map.kakao.com/8673343",
      "region": "서울특별시"
    },
    {
      "lat": 37.5058213977699,
      "lng": 126.915221445825,
      "title": "신길삼성래미안아파트",
      "description": "서울 영등포구 가마산로79길 7",
      "url": "http://place.map.kakao.com/10443223",
      "region": "서울특별시"
    },
    {
      "lat": 37.50490147161546,
      "lng": 126.9079967200798,
      "title": "래미안프레비뉴아파트",
      "description": "서울 영등포구 가마산로 442",
      "url": "http://place.map.kakao.com/21957277",
      "region": "서울특별시"
    },
    {
      "lat": 37.53293204452245,
      "lng": 126.90283595709072,
      "title": "당산삼성래미안4차아파트",
      "description": "서울 영등포구 당산로 214",
      "url": "http://place.map.kakao.com/7918170",
      "region": "서울특별시"
    },
    {
      "lat": 37.53425705241458,
      "lng": 126.90572160377532,
      "title": "래미안당산1차아파트",
      "description": "서울 영등포구 당산로54길 11",
      "url": "http://place.map.kakao.com/11358478",
      "region": "서울특별시"
    },
    {
      "lat": 37.51730009092861,
      "lng": 126.9800034024905,
      "title": "래미안첼리투스아파트",
      "description": "서울 용산구 이촌로 310",
      "url": "http://place.map.kakao.com/24943333",
      "region": "서울특별시"
    },
    {
      "lat": 37.53829748535028,
      "lng": 126.9553158164153,
      "title": "도원삼성래미안아파트",
      "description": "서울 용산구 새창로 70",
      "url": "http://place.map.kakao.com/27446284",
      "region": "서울특별시"
    },
    {
      "lat": 37.52904713331983,
      "lng": 126.96694806009046,
      "title": "래미안용산더센트럴아파트",
      "description": "서울 용산구 한강대로 95",
      "url": "http://place.map.kakao.com/26101580",
      "region": "서울특별시"
    },
    {
      "lat": 37.53945827027953,
      "lng": 126.95610716797951,
      "title": "도원삼성래미안아파트",
      "description": "서울 용산구 새창로8길 7",
      "url": "http://place.map.kakao.com/42229038",
      "region": "서울특별시"
    },
    {
      "lat": 37.60387396735811,
      "lng": 126.93624891606876,
      "title": "래미안베라힐즈아파트",
      "description": "서울 은평구 통일로 630",
      "url": "http://place.map.kakao.com/27391160",
      "region": "서울특별시"
    },
    {
      "lat": 37.6116342183327,
      "lng": 126.937993267704,
      "title": "북한산래미안아파트",
      "description": "서울 은평구 진흥로 267",
      "url": "http://place.map.kakao.com/11056402",
      "region": "서울특별시"
    },
    {
      "lat": 37.641581639564556,
      "lng": 126.92065895191861,
      "title": "은평뉴타운구파발9단지래미안아파트",
      "description": "서울 은평구 진관3로 67",
      "url": "http://place.map.kakao.com/12397738",
      "region": "서울특별시"
    },
    {
      "lat": 37.64411774757542,
      "lng": 126.92041830833344,
      "title": "은평뉴타운구파발9단지래미안아파트(916~928동)",
      "description": "서울 은평구 진관3로 77",
      "url": "http://place.map.kakao.com/11830607",
      "region": "서울특별시"
    },
    {
      "lat": 37.56136577190546,
      "lng": 127.02240104277753,
      "title": "래미안신당하이베르아파트",
      "description": "서울 중구 퇴계로90길 74",
      "url": "http://place.map.kakao.com/11311148",
      "region": "서울특별시"
    },
    {
      "lat": 37.5610308634983,
      "lng": 127.020972588166,
      "title": "래미안신당하이베르201동아파트",
      "description": "서울 중구 퇴계로90길 74",
      "url": "http://place.map.kakao.com/1102054153",
      "region": "서울특별시"
    },
    {
      "lat": 37.611152817783214,
      "lng": 127.13235973497781,
      "title": "아름마을인창래미안아파트",
      "description": "경기 구리시 동구릉로85번길 63",
      "url": "http://place.map.kakao.com/7980772",
      "region": "경기도"
    },
    {
      "lat": 37.6093516315917,
      "lng": 127.055535713269,
      "title": "래미안석관아파트(407-4)",
      "description": "서울 성북구 화랑로 214",
      "url": "http://place.map.kakao.com/1201765810",
      "region": "서울특별시"
    },
    {
      "lat": 37.2912450153124,
      "lng": 127.06133232118361,
      "title": "래미안광교아파트",
      "description": "경기 수원시 영통구 센트럴파크로 60",
      "url": "http://place.map.kakao.com/11701314",
      "region": "경기도"
    },
    {
      "lat": 37.297508126541985,
      "lng": 126.97628792144123,
      "title": "천천삼성래미안아파트",
      "description": "경기 수원시 장안구 화산로187번길 19",
      "url": "http://place.map.kakao.com/7919742",
      "region": "경기도"
    },
    {
      "lat": 37.26942129869954,
      "lng": 127.03645685260493,
      "title": "래미안노블클래스1단지아파트",
      "description": "경기 수원시 팔달구 권광로 246",
      "url": "http://place.map.kakao.com/11302108",
      "region": "경기도"
    },
    {
      "lat": 37.24665489734009,
      "lng": 127.04607356399053,
      "title": "래미안영통마크원2단지아파트",
      "description": "경기 수원시 영통구 삼성로 11",
      "url": "http://place.map.kakao.com/14092114",
      "region": "경기도"
    },
    {
      "lat": 37.26869762650663,
      "lng": 127.03388145881082,
      "title": "래미안노블클래스2단지아파트",
      "description": "경기 수원시 팔달구 권광로 243",
      "url": "http://place.map.kakao.com/11146950",
      "region": "경기도"
    },
    {
      "lat": 37.246131582232266,
      "lng": 127.04317323918075,
      "title": "래미안영통마크원1단지아파트",
      "description": "경기 수원시 영통구 권선로908번길 72",
      "url": "http://place.map.kakao.com/14092120",
      "region": "경기도"
    },
    {
      "lat": 37.28818745478075,
      "lng": 126.99852156105484,
      "title": "수원화서래미안클래식",
      "description": "경기 수원시 팔달구 수성로232번길 7",
      "url": "http://place.map.kakao.com/11332885",
      "region": "경기도"
    },
    {
      "lat": 37.29707764798585,
      "lng": 126.97739786212486,
      "title": "천천삼성래미안아파트 상가",
      "description": "경기 수원시 장안구 화산로187번길 19",
      "url": "http://place.map.kakao.com/1715104784",
      "region": "경기도"
    },
    {
      "lat": 37.47016822281244,
      "lng": 127.14452078014128,
      "title": "래미안위례아파트",
      "description": "경기 성남시 수정구 위례순환로 150",
      "url": "http://place.map.kakao.com/20459799",
      "region": "경기도"
    },
    {
      "lat": 37.450208837581606,
      "lng": 127.17283997311426,
      "title": "래미안금광아파트",
      "description": "경기 성남시 중원구 황송로 77",
      "url": "http://place.map.kakao.com/11343850",
      "region": "경기도"
    },
    {
      "lat": 37.467300286218034,
      "lng": 127.14600399921123,
      "title": "위례래미안이편한세상아파트",
      "description": "경기 성남시 수정구 위례동로 61",
      "url": "http://place.map.kakao.com/22728087",
      "region": "경기도"
    },
    {
      "lat": 37.65955764039003,
      "lng": 126.84292752434817,
      "title": "래미안휴레스트아파트",
      "description": "경기 고양시 덕양구 호국로 860",
      "url": "http://place.map.kakao.com/11362112",
      "region": "경기도"
    },
    {
      "lat": 37.32970005441056,
      "lng": 127.09999900027105,
      "title": "래미안수지이스트파크아파트",
      "description": "경기 용인시 수지구 신수로683번길 19",
      "url": "http://place.map.kakao.com/21125531",
      "region": "경기도"
    },
    {
      "lat": 37.317854549157765,
      "lng": 127.09848172293128,
      "title": "진산마을삼성래미안5차아파트",
      "description": "경기 용인시 수지구 진산로 90",
      "url": "http://place.map.kakao.com/8087749",
      "region": "경기도"
    },
    {
      "lat": 37.29913016713422,
      "lng": 127.1116467492027,
      "title": "삼거마을삼성래미안1차아파트",
      "description": "경기 용인시 기흥구 용구대로2394번길 27",
      "url": "http://place.map.kakao.com/7920002",
      "region": "경기도"
    },
    {
      "lat": 37.33389331820534,
      "lng": 127.08888191008747,
      "title": "한빛래미안이스트팰리스3단지아파트",
      "description": "경기 용인시 수지구 동천로135번길 21",
      "url": "http://place.map.kakao.com/11078055",
      "region": "경기도"
    },
    {
      "lat": 37.29293876589729,
      "lng": 127.11852162199135,
      "title": "장미마을삼성래미안2차아파트",
      "description": "경기 용인시 기흥구 구성로 90",
      "url": "http://place.map.kakao.com/11506038",
      "region": "경기도"
    },
    {
      "lat": 37.32629246432236,
      "lng": 127.08854800975358,
      "title": "수지삼성래미안1차아파트",
      "description": "경기 용인시 수지구 수풍로 13",
      "url": "http://place.map.kakao.com/11318079",
      "region": "경기도"
    },
    {
      "lat": 37.251801549698996,
      "lng": 127.10641892055541,
      "title": "삼성래미안아파트",
      "description": "경기 용인시 기흥구 한보라1로64번길 22",
      "url": "http://place.map.kakao.com/7925422",
      "region": "경기도"
    },
    {
      "lat": 37.336541456112165,
      "lng": 127.09006312231617,
      "title": "한빛래미안이스트팰리스2단지아파트",
      "description": "경기 용인시 수지구 동천로113번길 10",
      "url": "http://place.map.kakao.com/11320163",
      "region": "경기도"
    },
    {
      "lat": 37.33640245104642,
      "lng": 127.08799565693366,
      "title": "한빛래미안이스트팰리스1단지아파트",
      "description": "경기 용인시 수지구 동천로153번길 7",
      "url": "http://place.map.kakao.com/11078054",
      "region": "경기도"
    },
    {
      "lat": 37.31951120206728,
      "lng": 127.09997083341425,
      "title": "진산마을삼성래미안6차아파트",
      "description": "경기 용인시 수지구 진산로 108",
      "url": "http://place.map.kakao.com/8084183",
      "region": "경기도"
    },
    {
      "lat": 37.33570520560555,
      "lng": 127.08532723946571,
      "title": "한빛래미안이스트팰리스4단지아파트",
      "description": "경기 용인시 수지구 동천로153번길 6",
      "url": "http://place.map.kakao.com/11366854",
      "region": "경기도"
    },
    {
      "lat": 37.31484537124032,
      "lng": 127.09815064351234,
      "title": "진산마을삼성래미안7차아파트",
      "description": "경기 용인시 수지구 진산로66번길 27",
      "url": "http://place.map.kakao.com/8590819",
      "region": "경기도"
    },
    {
      "lat": 37.32730664145703,
      "lng": 127.09142411462788,
      "title": "수지2차삼성래미안아파트",
      "description": "경기 용인시 수지구 수풍로 38",
      "url": "http://place.map.kakao.com/11323656",
      "region": "경기도"
    },
    {
      "lat": 37.2987821870348,
      "lng": 127.109913817196,
      "title": "삼거마을삼성래미안1차아파트상가",
      "description": "경기 용인시 기흥구 용구대로2394번길 27",
      "url": "http://place.map.kakao.com/24026737",
      "region": "경기도"
    },
    {
      "lat": 37.2936454802163,
      "lng": 127.118220480455,
      "title": "삼성래미안2차아파트 상가",
      "description": "경기 용인시 기흥구 구성로 90",
      "url": "http://place.map.kakao.com/26445457",
      "region": "경기도"
    },
    {
      "lat": 37.50809827682567,
      "lng": 126.77600082945789,
      "title": "래미안부천중동아파트",
      "description": "경기 부천시 원미구 신흥로276번길 15",
      "url": "http://place.map.kakao.com/21746524",
      "region": "경기도"
    },
    {
      "lat": 37.48092129532538,
      "lng": 126.76308566391076,
      "title": "래미안어반비스타아파트",
      "description": "경기 부천시 소사구 중동로 19",
      "url": "http://place.map.kakao.com/1027182638",
      "region": "경기도"
    },
    {
      "lat": 37.51434876237845,
      "lng": 126.75873384917188,
      "title": "다정한마을삼성래미안아파트",
      "description": "경기 부천시 원미구 평천로 616",
      "url": "http://place.map.kakao.com/8301418",
      "region": "경기도"
    },
    {
      "lat": 37.39435467602306,
      "lng": 126.93418285685874,
      "title": "래미안안양메가트리아아파트",
      "description": "경기 안양시 만안구 안양천서로 177",
      "url": "http://place.map.kakao.com/27149084",
      "region": "경기도"
    },
    {
      "lat": 37.402275813795654,
      "lng": 126.92408902830739,
      "title": "삼성래미안아파트",
      "description": "경기 안양시 만안구 안양천서로 311",
      "url": "http://place.map.kakao.com/10422014",
      "region": "경기도"
    },
    {
      "lat": 37.39702012511302,
      "lng": 126.93967479882643,
      "title": "평촌래미안푸르지오아파트",
      "description": "경기 안양시 동안구 경수대로884번길 12",
      "url": "http://place.map.kakao.com/1519767757",
      "region": "경기도"
    },
    {
      "lat": 37.40073678227742,
      "lng": 126.93956452644422,
      "title": "비산삼성래미안아파트",
      "description": "경기 안양시 동안구 관악대로 121",
      "url": "http://place.map.kakao.com/7919958",
      "region": "경기도"
    },
    {
      "lat": 37.39308716624413,
      "lng": 126.97897152673897,
      "title": "래미안인덕원더포인트아파트",
      "description": "경기 안양시 동안구 흥안대로456번길 66",
      "url": "http://place.map.kakao.com/10439079",
      "region": "경기도"
    },
    {
      "lat": 37.39314851621563,
      "lng": 126.97942887163927,
      "title": "래미안인덕원더포인트아파트(106동) 105동",
      "description": "경기 의왕시 흥안대로434번길 73",
      "url": "http://place.map.kakao.com/26701930",
      "region": "경기도"
    },
    {
      "lat": 37.222548103863375,
      "lng": 127.04880588948127,
      "title": "행림마을삼성래미안1차아파트",
      "description": "경기 화성시 동탄지성로 333",
      "url": "http://place.map.kakao.com/7925595",
      "region": "경기도"
    },
    {
      "lat": 37.20084467741495,
      "lng": 127.06849070445568,
      "title": "시범다은마을동탄삼성래미안아파트",
      "description": "경기 화성시 메타폴리스로 6",
      "url": "http://place.map.kakao.com/11971187",
      "region": "경기도"
    },
    {
      "lat": 37.22328960774468,
      "lng": 127.05108240511153,
      "title": "행림마을엘디삼성래미안2차아파트",
      "description": "경기 화성시 동탄지성로 334",
      "url": "http://place.map.kakao.com/7919751",
      "region": "경기도"
    },
    {
      "lat": 37.75029858718612,
      "lng": 127.07413186246069,
      "title": "삼성래미안진흥아파트",
      "description": "경기 의정부시 장곡로628번길 21",
      "url": "http://place.map.kakao.com/11059133",
      "region": "경기도"
    },
    {
      "lat": 37.65271542168488,
      "lng": 126.67488303657338,
      "title": "풍경마을래미안한강2차아파트",
      "description": "경기 김포시 김포한강11로 227",
      "url": "http://place.map.kakao.com/17283198",
      "region": "경기도"
    },
    {
      "lat": 37.63879021716825,
      "lng": 126.67599061123096,
      "title": "초당마을래미안한강아파트",
      "description": "경기 김포시 김포한강2로 69",
      "url": "http://place.map.kakao.com/12138089",
      "region": "경기도"
    },
    {
      "lat": 37.36965430158556,
      "lng": 126.936373128016,
      "title": "래미안하이어스아파트",
      "description": "경기 군포시 금산로 91",
      "url": "http://place.map.kakao.com/11330768",
      "region": "경기도"
    },
    {
      "lat": 37.367430262164774,
      "lng": 126.93748697584473,
      "title": "래미안하이어스아파트 2단지커뮤니티센터",
      "description": "경기 군포시 금산로 91",
      "url": "http://place.map.kakao.com/1212562090",
      "region": "경기도"
    },
    {
      "lat": 37.3697672128134,
      "lng": 126.936901375767,
      "title": "래미안하이어스 아파트상가",
      "description": "경기 군포시 금산로 89",
      "url": "http://place.map.kakao.com/19780173",
      "region": "경기도"
    },
    {
      "lat": 37.38970507172978,
      "lng": 126.97604661752275,
      "title": "삼성래미안아파트",
      "description": "경기 의왕시 포일로 39",
      "url": "http://place.map.kakao.com/23814002",
      "region": "경기도"
    },
    {
      "lat": 37.38810496248749,
      "lng": 126.97658463213996,
      "title": "래미안에버하임아파트",
      "description": "경기 의왕시 내손순환로 7",
      "url": "http://place.map.kakao.com/11308385",
      "region": "경기도"
    },
    {
      "lat": 37.3923366768604,
      "lng": 126.979325200021,
      "title": "래미안인덕원더포인트아파트(106동)",
      "description": "경기 의왕시 흥안대로434번길 73",
      "url": "http://place.map.kakao.com/846310457",
      "region": "경기도"
    },
    {
      "lat": 37.3897376986458,
      "lng": 126.977004200808,
      "title": "삼성래미안아파트 상가",
      "description": "경기 의왕시 포일로 37",
      "url": "http://place.map.kakao.com/23812957",
      "region": "경기도"
    },
    {
      "lat": 37.55714493530815,
      "lng": 127.15087365034165,
      "title": "래미안힐스테이트고덕아파트 308동",
      "description": "서울 강동구 아리수로50길 50",
      "url": "http://place.map.kakao.com/26769020",
      "region": "서울특별시"
    },
    {
      "lat": 37.42067352319648,
      "lng": 126.99229543094961,
      "title": "래미안슈르아파트",
      "description": "경기 과천시 별양로 12",
      "url": "http://place.map.kakao.com/11082870",
      "region": "경기도"
    },
    {
      "lat": 37.43433296328998,
      "lng": 126.99259684624685,
      "title": "래미안에코팰리스아파트",
      "description": "경기 과천시 관문로 143",
      "url": "http://place.map.kakao.com/10367893",
      "region": "경기도"
    },
    {
      "lat": 37.43235995247301,
      "lng": 126.99800011626812,
      "title": "래미안과천센트럴스위트아파트",
      "description": "경기 과천시 별양로 163",
      "url": "http://place.map.kakao.com/1045181260",
      "region": "경기도"
    },
    {
      "lat": 37.42475348329506,
      "lng": 126.99513297882649,
      "title": "래미안슈르아파트",
      "description": "경기 과천시 별양로 66-11",
      "url": "http://place.map.kakao.com/11352445",
      "region": "경기도"
    },
    {
      "lat": 37.46482611347917,
      "lng": 126.64883423034328,
      "title": "신안래미안아파트",
      "description": "인천 미추홀구 경인로 53",
      "url": "http://place.map.kakao.com/1408404719",
      "region": "인천광역시"
    },
    {
      "lat": 37.4303542959976,
      "lng": 126.65123918967979,
      "title": "래미안송도역센트리폴3BL아파트 (2027년12월예정)",
      "description": "인천 연수구 옥련동 104",
      "url": "http://place.map.kakao.com/1004523676",
      "region": "인천광역시"
    },
    {
      "lat": 37.4324316526202,
      "lng": 126.647467073504,
      "title": "래미안송도역센트리폴2BL아파트 (2028년01월예정)",
      "description": "인천 연수구 옥련동 87-3",
      "url": "http://place.map.kakao.com/1332352935",
      "region": "인천광역시"
    },
    {
      "lat": 37.4323838001598,
      "lng": 126.651994697449,
      "title": "래미안송도역센트리폴1BL아파트 (2028년01월예정)",
      "description": "인천 연수구 옥련동 20",
      "url": "http://place.map.kakao.com/1389806808",
      "region": "인천광역시"
    },
    {
      "lat": 37.457282599360425,
      "lng": 126.7090970300933,
      "title": "간석래미안자이아파트 105동",
      "description": "인천 남동구 남동대로 860",
      "url": "http://place.map.kakao.com/26734855",
      "region": "인천광역시"
    },
    {
      "lat": 37.4603887417428,
      "lng": 126.710345277244,
      "title": "래미안자이단지내3상가",
      "description": "인천 남동구 석산로 166",
      "url": "http://place.map.kakao.com/14971781",
      "region": "인천광역시"
    },
    {
      "lat": 37.45885764965311,
      "lng": 126.71059984282135,
      "title": "간석래미안자이아파트",
      "description": "인천 남동구 남동대로 860",
      "url": "http://place.map.kakao.com/11343247",
      "region": "인천광역시"
    },
    {
      "lat": 37.5036725331966,
      "lng": 126.723663564586,
      "title": "래미안부평아파트",
      "description": "인천 부평구 길주남로10번길 21",
      "url": "http://place.map.kakao.com/17399155",
      "region": "인천광역시"
    },
    {
      "lat": 37.4603679955623,
      "lng": 126.728945500613,
      "title": "신안래미안아파트",
      "description": "인천 남동구 만수서로 20",
      "url": "http://place.map.kakao.com/23664835",
      "region": "인천광역시"
    },
    {
      "lat": 37.499561378745234,
      "lng": 126.73153158965145,
      "title": "신한래미안아파트",
      "description": "인천 부평구 장제로160번길 14",
      "url": "http://place.map.kakao.com/95417630",
      "region": "인천광역시"
    },
    {
      "lat": 37.5042693106166,
      "lng": 126.723028029006,
      "title": "래미안부평아파트(2단지)",
      "description": "인천 부평구 길주남로10번길 11",
      "url": "http://place.map.kakao.com/1116589221",
      "region": "인천광역시"
    },
    {
      "lat": 37.514910954843245,
      "lng": 126.7578373245797,
      "title": "다정한마을삼성래미안아파트 2109동",
      "description": "경기 부천시 원미구 평천로 616",
      "url": "http://place.map.kakao.com/26667720",
      "region": "경기도"
    },
    {
      "lat": 35.168899532031986,
      "lng": 129.03764137246154,
      "title": "부암삼성래미안아파트",
      "description": "부산 부산진구 당감로 80",
      "url": "http://place.map.kakao.com/11197639",
      "region": "부산광역시"
    },
    {
      "lat": 35.17476233225145,
      "lng": 129.05158042374146,
      "title": "래미안어반파크아파트",
      "description": "부산 부산진구 성지로 37",
      "url": "http://place.map.kakao.com/2076121531",
      "region": "부산광역시"
    },
    {
      "lat": 35.22207642234294,
      "lng": 129.07884584353843,
      "title": "래미안포레스티지아파트",
      "description": "부산 동래구 금강로151번길 46",
      "url": "http://place.map.kakao.com/707622444",
      "region": "부산광역시"
    },
    {
      "lat": 35.21113361382813,
      "lng": 129.0706006274093,
      "title": "동래래미안아이파크아파트",
      "description": "부산 동래구 금정마을로 147",
      "url": "http://place.map.kakao.com/459850770",
      "region": "부산광역시"
    },
    {
      "lat": 35.2221710449065,
      "lng": 129.079003098888,
      "title": "래미안포레스티지2단지 커뮤니티센터",
      "description": "부산 동래구 금강로131번길 42",
      "url": "http://place.map.kakao.com/1100428063",
      "region": "부산광역시"
    },
    {
      "lat": 35.2203196018627,
      "lng": 129.07845401278712,
      "title": "래미안포레스티지3단지 커뮤니티센터",
      "description": "부산 동래구 금강로131번길 41",
      "url": "http://place.map.kakao.com/1100620535",
      "region": "부산광역시"
    },
    {
      "lat": 35.2093651886309,
      "lng": 129.067828291058,
      "title": "동래래미안아이파크 2단지 아파트 상가",
      "description": "부산 동래구 금정마을로 150",
      "url": "http://place.map.kakao.com/1055920944",
      "region": "부산광역시"
    },
    {
      "lat": 35.163704586224355,
      "lng": 129.17647399301015,
      "title": "래미안해운대아파트",
      "description": "부산 해운대구 좌동순환로 402",
      "url": "http://place.map.kakao.com/15112173",
      "region": "부산광역시"
    },
    {
      "lat": 35.22610142019166,
      "lng": 129.08714234056637,
      "title": "래미안장전아파트",
      "description": "부산 금정구 금정로 20",
      "url": "http://place.map.kakao.com/26181923",
      "region": "부산광역시"
    },
    {
      "lat": 35.2242073576739,
      "lng": 129.080802280846,
      "title": "래미안포레스티지아파트 105동",
      "description": "부산 동래구 금강로151번길 46",
      "url": "http://place.map.kakao.com/1332372620",
      "region": "부산광역시"
    },
    {
      "lat": 35.86535901972375,
      "lng": 128.62260360214412,
      "title": "래미안범어아파트",
      "description": "대구 수성구 상록로 69",
      "url": "http://place.map.kakao.com/11083556",
      "region": "대구광역시"
    },
    {
      "lat": 35.83561069013029,
      "lng": 128.60447350319487,
      "title": "래미안웰리스트아파트",
      "description": "대구 남구 효성중앙길 82",
      "url": "http://place.map.kakao.com/11338226",
      "region": "대구광역시"
    },
    {
      "lat": 35.84214753113701,
      "lng": 128.54311470011243,
      "title": "성당래미안e편한세상2단지아파트",
      "description": "대구 달서구 장기로 145",
      "url": "http://place.map.kakao.com/11529142",
      "region": "대구광역시"
    },
    {
      "lat": 35.842339431699536,
      "lng": 128.54585213347855,
      "title": "성당래미안e편한세상3단지아파트",
      "description": "대구 달서구 장기로 127",
      "url": "http://place.map.kakao.com/7860008",
      "region": "대구광역시"
    },
    {
      "lat": 35.84210723649472,
      "lng": 128.54049642105394,
      "title": "성당래미안e편한세상1단지아파트",
      "description": "대구 달서구 장기로 189",
      "url": "http://place.map.kakao.com/11529143",
      "region": "대구광역시"
    },
    {
      "lat": 35.82033263807102,
      "lng": 128.52842556523552,
      "title": "월성삼성래미안아파트",
      "description": "대구 달서구 상원로 143",
      "url": "http://place.map.kakao.com/11369168",
      "region": "대구광역시"
    },
    {
      "lat": 35.807136266477634,
      "lng": 128.51788420657462,
      "title": "수목원삼성래미안1차아파트",
      "description": "대구 달서구 상화로8길 23",
      "url": "http://place.map.kakao.com/10422825",
      "region": "대구광역시"
    },
    {
      "lat": 35.80686098378432,
      "lng": 128.52311830235539,
      "title": "삼성래미안2차아파트",
      "description": "대구 달서구 상화로 86",
      "url": "http://place.map.kakao.com/11505965",
      "region": "대구광역시"
    },
    {
      "lat": 35.8208313673193,
      "lng": 128.529174250401,
      "title": "삼성래미안아파트 상가",
      "description": "대구 달서구 상원로 143",
      "url": "http://place.map.kakao.com/26439790",
      "region": "대구광역시"
    },
    {
      "lat": 35.81131817582535,
      "lng": 128.50667026837965,
      "title": "대곡역래미안아파트",
      "description": "대구 달성군 화원읍 비슬로539길 35",
      "url": "http://place.map.kakao.com/7815398",
      "region": "대구광역시"
    },
    {
      "lat": 35.8108725113855,
      "lng": 128.508002727645,
      "title": "대곡역래미안아파트 상가",
      "description": "대구 달성군 화원읍 비슬로539길 35",
      "url": "http://place.map.kakao.com/26438909",
      "region": "대구광역시"
    },
    {
      "lat": 36.33364082775771,
      "lng": 127.38515156992952,
      "title": "삼성래미안아파트",
      "description": "대전 서구 가장로 106",
      "url": "http://place.map.kakao.com/11327879",
      "region": "대전광역시"
    },
    {
      "lat": 35.56734769577161,
      "lng": 129.33908413735935,
      "title": "약사래미안1단지아파트",
      "description": "울산 중구 약사로 10",
      "url": "http://place.map.kakao.com/7918171",
      "region": "울산광역시"
    },
    {
      "lat": 35.566531437610244,
      "lng": 129.33694304566384,
      "title": "약사래미안4단지아파트",
      "description": "울산 중구 약사로 15",
      "url": "http://place.map.kakao.com/11059814",
      "region": "울산광역시"
    },
    {
      "lat": 35.56961269239489,
      "lng": 129.33584592034916,
      "title": "약사래미안2단지아파트",
      "description": "울산 중구 약사로 40",
      "url": "http://place.map.kakao.com/7920130",
      "region": "울산광역시"
    },
    {
      "lat": 35.56821655524562,
      "lng": 129.33535542827335,
      "title": "약사래미안3단지아파트",
      "description": "울산 중구 약사로 25",
      "url": "http://place.map.kakao.com/11135191",
      "region": "울산광역시"
    },
    {
      "lat": 36.47294052570055,
      "lng": 127.25597855286559,
      "title": "첫마을7단지래미안아파트",
      "description": "세종특별자치시 나리로 57",
      "url": "http://place.map.kakao.com/17040978",
      "region": "세종특별자치시"
    },
    {
      "lat": 36.4745472369612,
      "lng": 127.255584375088,
      "title": "첫마을7단지래미안아파트 상가",
      "description": "세종특별자치시 나리로 38",
      "url": "http://place.map.kakao.com/23903841",
      "region": "세종특별자치시"
    }
  ]
}