{
  "pins": [
    {
      "lat": 37.48178943055999,
      "lng": 127.05671085125567,
      "title": "디에이치퍼스티어아이파크아파트",
      "description": "서울 강남구 개포로 310",
      "url": "http://place.map.kakao.com/232974537",
      "region": "서울특별시"
    },
    {
      "lat": 37.518288792534285,
      "lng": 127.05934128874826,
      "title": "아이파크삼성아파트",
      "description": "서울 강남구 영동대로 640",
      "url": "http://place.map.kakao.com/8154800",
      "region": "서울특별시"
    },
    {
      "lat": 37.4748352798466,
      "lng": 127.101393788617,
      "title": "강남자곡아이파크아파트",
      "description": "서울 강남구 자곡로 175",
      "url": "http://place.map.kakao.com/25980943",
      "region": "서울특별시"
    },
    {
      "lat": 37.49500191860841,
      "lng": 127.0545643652613,
      "title": "대치아이파크아파트",
      "description": "서울 강남구 선릉로 222",
      "url": "http://place.map.kakao.com/11328499",
      "region": "서울특별시"
    },
    {
      "lat": 37.51054419159915,
      "lng": 127.03594154291945,
      "title": "논현아이파크아파트",
      "description": "서울 강남구 언주로 615",
      "url": "http://place.map.kakao.com/309216612",
      "region": "서울특별시"
    },
    {
      "lat": 37.50250161866783,
      "lng": 127.04680709272424,
      "title": "테헤란아이파크아파트",
      "description": "서울 강남구 테헤란로52길 16",
      "url": "http://place.map.kakao.com/15104322",
      "region": "서울특별시"
    },
    {
      "lat": 37.52524292800594,
      "lng": 127.05521989809318,
      "title": "청담아이파크아파트",
      "description": "서울 강남구 영동대로142길 25",
      "url": "http://place.map.kakao.com/11240711",
      "region": "서울특별시"
    },
    {
      "lat": 37.515413023376745,
      "lng": 127.05113493577,
      "title": "삼성동센트럴아이파크아파트",
      "description": "서울 강남구 삼성로 629",
      "url": "http://place.map.kakao.com/27306422",
      "region": "서울특별시"
    },
    {
      "lat": 37.50038649492938,
      "lng": 127.04568844126749,
      "title": "강남센트럴아이파크아파트",
      "description": "서울 강남구 테헤란로44길 26",
      "url": "http://place.map.kakao.com/1216057640",
      "region": "서울특별시"
    },
    {
      "lat": 37.489843894762735,
      "lng": 127.03781204801125,
      "title": "도곡아이파크3차아파트",
      "description": "서울 강남구 도곡로14길 21",
      "url": "http://place.map.kakao.com/11329203",
      "region": "서울특별시"
    },
    {
      "lat": 37.49676923028252,
      "lng": 127.05158473742978,
      "title": "역삼2차아이파크아파트",
      "description": "서울 강남구 도곡로57길 12",
      "url": "http://place.map.kakao.com/11374982",
      "region": "서울특별시"
    },
    {
      "lat": 37.55893045558401,
      "lng": 127.15524028249118,
      "title": "고덕아이파크아파트",
      "description": "서울 강동구 동남로79길 26",
      "url": "http://place.map.kakao.com/23915099",
      "region": "서울특별시"
    },
    {
      "lat": 37.551954493737526,
      "lng": 127.16679836775783,
      "title": "고덕센트럴아이파크아파트",
      "description": "서울 강동구 고덕로80길 99",
      "url": "http://place.map.kakao.com/118810392",
      "region": "서울특별시"
    },
    {
      "lat": 37.55120850681088,
      "lng": 127.16224400379575,
      "title": "고덕숲아이파크아파트",
      "description": "서울 강동구 고덕로80길 134",
      "url": "http://place.map.kakao.com/26983519",
      "region": "서울특별시"
    },
    {
      "lat": 37.657909846781195,
      "lng": 127.0436315510589,
      "title": "북한산아이파크아파트",
      "description": "서울 도봉구 도봉로136길 28",
      "url": "http://place.map.kakao.com/11310129",
      "region": "서울특별시"
    },
    {
      "lat": 37.63008887123446,
      "lng": 127.05719832521825,
      "title": "월계센트럴아이파크아파트",
      "description": "서울 노원구 초안산로2라길 26",
      "url": "http://place.map.kakao.com/289101245",
      "region": "서울특별시"
    },
    {
      "lat": 37.61887549275114,
      "lng": 127.04846685578345,
      "title": "꿈의숲아이파크아파트",
      "description": "서울 성북구 돌곶이로40길 46",
      "url": "http://place.map.kakao.com/416702868",
      "region": "서울특별시"
    },
    {
      "lat": 37.54391753935604,
      "lng": 126.86022983444474,
      "title": "등촌아이파크아파트",
      "description": "서울 강서구 등촌로 163",
      "url": "http://place.map.kakao.com/11332508",
      "region": "서울특별시"
    },
    {
      "lat": 37.54487260541292,
      "lng": 126.83967303327809,
      "title": "우장산숲아이파크아파트",
      "description": "서울 강서구 화곡로31다길 20",
      "url": "http://place.map.kakao.com/1110244724",
      "region": "서울특별시"
    },
    {
      "lat": 37.54942822036064,
      "lng": 126.83781756883711,
      "title": "우장산아이파크이편한세상아파트",
      "description": "서울 강서구 강서로 266",
      "url": "http://place.map.kakao.com/11333974",
      "region": "서울특별시"
    },
    {
      "lat": 37.55485549494153,
      "lng": 126.85125068373078,
      "title": "그랜드아이파크아파트",
      "description": "서울 강서구 화곡로 347",
      "url": "http://place.map.kakao.com/11329851",
      "region": "서울특별시"
    },
    {
      "lat": 37.55053876798169,
      "lng": 126.84908195224736,
      "title": "강서아이파크아파트",
      "description": "서울 강서구 화곡로 296",
      "url": "http://place.map.kakao.com/11038087",
      "region": "서울특별시"
    },
    {
      "lat": 37.54756249554714,
      "lng": 126.87592643077083,
      "title": "현대아이파크아파트",
      "description": "서울 강서구 공항대로 637",
      "url": "http://place.map.kakao.com/10991762",
      "region": "서울특별시"
    },
    {
      "lat": 37.500752649653656,
      "lng": 126.94270370161367,
      "title": "상도아이파크아파트",
      "description": "서울 동작구 장승배기로 26",
      "url": "http://place.map.kakao.com/11196326",
      "region": "서울특별시"
    },
    {
      "lat": 37.49160413550485,
      "lng": 126.9848386409981,
      "title": "방배아이파크아파트",
      "description": "서울 서초구 동광로3길 18",
      "url": "http://place.map.kakao.com/11195053",
      "region": "서울특별시"
    },
    {
      "lat": 37.48696795117065,
      "lng": 127.01161793976286,
      "title": "서초센트럴아이파크아파트",
      "description": "서울 서초구 반포대로18길 36",
      "url": "http://place.map.kakao.com/847222624",
      "region": "서울특별시"
    },
    {
      "lat": 37.5039335422694,
      "lng": 126.90428045828668,
      "title": "신길센트럴아이파크아파트",
      "description": "서울 영등포구 가마산로 426",
      "url": "http://place.map.kakao.com/1450532352",
      "region": "서울특별시"
    },
    {
      "lat": 37.501422672534254,
      "lng": 127.0129094251818,
      "title": "반포래미안아이파크아파트",
      "description": "서울 서초구 서초중앙로 220",
      "url": "http://place.map.kakao.com/27316106",
      "region": "서울특별시"
    },
    {
      "lat": 37.485375034344564,
      "lng": 127.02335071497895,
      "title": "서초아이파크아파트",
      "description": "서울 서초구 효령로68길 33",
      "url": "http://place.map.kakao.com/11361180",
      "region": "서울특별시"
    },
    {
      "lat": 37.53130804974916,
      "lng": 127.06965158129071,
      "title": "강변아이파크아파트",
      "description": "서울 광진구 뚝섬로36길 75",
      "url": "http://place.map.kakao.com/11373143",
      "region": "서울특별시"
    },
    {
      "lat": 37.5345277520503,
      "lng": 127.090308594723,
      "title": "강변역센트럴아이파크아파트 (2026년09월예정)",
      "description": "서울 광진구 구의동 592-39",
      "url": "http://place.map.kakao.com/257074138",
      "region": "서울특별시"
    },
    {
      "lat": 37.552672831662136,
      "lng": 127.06917351503958,
      "title": "서울숲아이파크아파트",
      "description": "서울 성동구 동일로 237",
      "url": "http://place.map.kakao.com/11143234",
      "region": "서울특별시"
    },
    {
      "lat": 37.54740688001127,
      "lng": 127.05661228364805,
      "title": "성수아이파크아파트",
      "description": "서울 성동구 성수이로 137",
      "url": "http://place.map.kakao.com/11506189",
      "region": "서울특별시"
    },
    {
      "lat": 37.51830016741403,
      "lng": 127.11103020209403,
      "title": "잠실래미안아이파크아파트 (2025년12월예정)",
      "description": "서울 송파구 신천동 20-4",
      "url": "http://place.map.kakao.com/1586673352",
      "region": "서울특별시"
    },
    {
      "lat": 37.52535194818127,
      "lng": 127.11424669477836,
      "title": "잠실올림픽공원아이파크아파트",
      "description": "서울 송파구 올림픽로43길 34",
      "url": "http://place.map.kakao.com/341450853",
      "region": "서울특별시"
    },
    {
      "lat": 37.55059041726989,
      "lng": 127.04307211580793,
      "title": "서울숲아이파크리버포레1차아파트",
      "description": "서울 성동구 왕십리로 137",
      "url": "http://place.map.kakao.com/1647427892",
      "region": "서울특별시"
    },
    {
      "lat": 37.5491451399515,
      "lng": 127.043279505575,
      "title": "서울숲아이파크리버포레2차아파트",
      "description": "서울 성동구 왕십리로 135",
      "url": "http://place.map.kakao.com/419721132",
      "region": "서울특별시"
    },
    {
      "lat": 37.49006227416668,
      "lng": 126.8597874860351,
      "title": "개봉아이파크아파트",
      "description": "서울 구로구 개봉로2길 133-15",
      "url": "http://place.map.kakao.com/10991757",
      "region": "서울특별시"
    },
    {
      "lat": 37.498082160648316,
      "lng": 126.85981207278276,
      "title": "고척아이파크아파트(MD)",
      "description": "서울 구로구 경인로43길 49",
      "url": "http://place.map.kakao.com/1385326790",
      "region": "서울특별시"
    },
    {
      "lat": 37.5005223647478,
      "lng": 126.859290688039,
      "title": "고척아이파크아파트(RD)",
      "description": "서울 구로구 중앙로5길 59",
      "url": "http://place.map.kakao.com/1004605787",
      "region": "서울특별시"
    },
    {
      "lat": 37.51121856331825,
      "lng": 126.88831409138665,
      "title": "신도림아이파크아파트",
      "description": "서울 구로구 경인로67길 33",
      "url": "http://place.map.kakao.com/25623550",
      "region": "서울특별시"
    },
    {
      "lat": 37.65978249602079,
      "lng": 127.06915944285508,
      "title": "노원아이파크아파트",
      "description": "서울 노원구 상계로23다길 13-8",
      "url": "http://place.map.kakao.com/11021704",
      "region": "서울특별시"
    },
    {
      "lat": 37.62024535289223,
      "lng": 127.066262696985,
      "title": "서울원아이파크아파트 (2028년07월예정)",
      "description": "서울 노원구 화랑로45길 127",
      "url": "http://place.map.kakao.com/2057042939",
      "region": "서울특별시"
    },
    {
      "lat": 37.704947197272226,
      "lng": 127.04831305687398,
      "title": "호원아이파크아파트",
      "description": "경기 의정부시 평화로150번길 26",
      "url": "http://place.map.kakao.com/11339944",
      "region": "경기도"
    },
    {
      "lat": 37.598186166296394,
      "lng": 127.06346879756117,
      "title": "이문아이파크자이아파트",
      "description": "서울 동대문구 이문로 120",
      "url": "http://place.map.kakao.com/369952024",
      "region": "서울특별시"
    },
    {
      "lat": 37.57936266239,
      "lng": 127.03544024823,
      "title": "제기동역아이파크아파트 (2028년09월예정)",
      "description": "서울 동대문구 정릉천동로 80",
      "url": "http://place.map.kakao.com/1600199004",
      "region": "서울특별시"
    },
    {
      "lat": 37.6005950582979,
      "lng": 127.055220053858,
      "title": "이문아이파크자이3단지아파트 (2026년05월예정)",
      "description": "서울 동대문구 이문동 412-1",
      "url": "http://place.map.kakao.com/1442770941",
      "region": "서울특별시"
    },
    {
      "lat": 37.55095051621004,
      "lng": 126.93468026572413,
      "title": "신촌숲아이파크아파트",
      "description": "서울 마포구 광성로 17",
      "url": "http://place.map.kakao.com/630759463",
      "region": "서울특별시"
    },
    {
      "lat": 37.552469708723144,
      "lng": 126.90331872636844,
      "title": "마포한강아이파크아파트",
      "description": "서울 마포구 희우정로 77",
      "url": "http://place.map.kakao.com/1764455078",
      "region": "서울특별시"
    },
    {
      "lat": 37.54467323644599,
      "lng": 126.95605432154524,
      "title": "공덕아이파크아파트",
      "description": "서울 마포구 만리재로 36",
      "url": "http://place.map.kakao.com/14704788",
      "region": "서울특별시"
    },
    {
      "lat": 37.55552242228082,
      "lng": 126.95930508365443,
      "title": "마포센트럴아이파크아파트",
      "description": "서울 마포구 마포대로 246",
      "url": "http://place.map.kakao.com/25774077",
      "region": "서울특별시"
    },
    {
      "lat": 37.56753939165514,
      "lng": 126.91449503493888,
      "title": "월드컵아이파크1차아파트",
      "description": "서울 마포구 모래내로9길 6",
      "url": "http://place.map.kakao.com/11359902",
      "region": "서울특별시"
    },
    {
      "lat": 37.566951067962975,
      "lng": 126.9132958857117,
      "title": "월드컵아이파크2차아파트",
      "description": "서울 마포구 모래내로9길 3",
      "url": "http://place.map.kakao.com/11178817",
      "region": "서울특별시"
    },
    {
      "lat": 37.60065113171593,
      "lng": 126.94721233822033,
      "title": "서대문센트럴아이파크아파트",
      "description": "서울 서대문구 홍은중앙로11길 31",
      "url": "http://place.map.kakao.com/504823589",
      "region": "서울특별시"
    },
    {
      "lat": 37.57639439130086,
      "lng": 126.91452566460822,
      "title": "DMC아이파크아파트",
      "description": "서울 서대문구 거북골로14길 32",
      "url": "http://place.map.kakao.com/20014353",
      "region": "서울특별시"
    },
    {
      "lat": 37.58492831963706,
      "lng": 126.94609579175498,
      "title": "홍제센트럴아이파크아파트",
      "description": "서울 서대문구 통일로 395",
      "url": "http://place.map.kakao.com/115324422",
      "region": "서울특별시"
    },
    {
      "lat": 37.57884136935931,
      "lng": 126.9208104802132,
      "title": "DMC센트럴아이파크아파트",
      "description": "서울 서대문구 증가로 150",
      "url": "http://place.map.kakao.com/1981676772",
      "region": "서울특별시"
    },
    {
      "lat": 37.570736420468,
      "lng": 126.914906811207,
      "title": "DMC가재울아이파크아파트",
      "description": "서울 서대문구 수색로4나길 11",
      "url": "http://place.map.kakao.com/1426755710",
      "region": "서울특별시"
    },
    {
      "lat": 37.58561969439303,
      "lng": 127.01671112767173,
      "title": "보문아이파크아파트",
      "description": "서울 성북구 지봉로21길 19",
      "url": "http://place.map.kakao.com/11374999",
      "region": "서울특별시"
    },
    {
      "lat": 37.60253592149763,
      "lng": 127.02986487979474,
      "title": "종암아이파크1차아파트",
      "description": "서울 성북구 종암로21길 127",
      "url": "http://place.map.kakao.com/11363167",
      "region": "서울특별시"
    },
    {
      "lat": 37.5968555901075,
      "lng": 127.03172420988044,
      "title": "종암2차아이파크아파트",
      "description": "서울 성북구 종암로9길 71",
      "url": "http://place.map.kakao.com/11506128",
      "region": "서울특별시"
    },
    {
      "lat": 37.5848730691548,
      "lng": 127.020533196742,
      "title": "보문센트럴아이파크아파트 (2026년09월예정)",
      "description": "서울 성북구 보문동1가 196-11",
      "url": "http://place.map.kakao.com/245569631",
      "region": "서울특별시"
    },
    {
      "lat": 37.5976985434451,
      "lng": 127.033087945071,
      "title": "종암2차 아이파크 아파트 상가",
      "description": "서울 성북구 종암로9길 86",
      "url": "http://place.map.kakao.com/23886974",
      "region": "서울특별시"
    },
    {
      "lat": 37.47644210590582,
      "lng": 127.14216550945001,
      "title": "위례아이파크아파트",
      "description": "서울 송파구 위례광장로 136",
      "url": "http://place.map.kakao.com/21746530",
      "region": "서울특별시"
    },
    {
      "lat": 37.479737889001484,
      "lng": 127.14374327299967,
      "title": "위례2차아이파크아파트",
      "description": "서울 송파구 위례광장로 230",
      "url": "http://place.map.kakao.com/22297831",
      "region": "서울특별시"
    },
    {
      "lat": 37.5017584727781,
      "lng": 127.08642510687,
      "title": "DW동원아이파크아파트",
      "description": "서울 송파구 삼전로4길 4-12",
      "url": "http://place.map.kakao.com/23901379",
      "region": "서울특별시"
    },
    {
      "lat": 37.4755539291237,
      "lng": 127.141984073265,
      "title": "위례아이파크아파트 애비뉴상가",
      "description": "서울 송파구 위례광장로 136",
      "url": "http://place.map.kakao.com/1208402694",
      "region": "서울특별시"
    },
    {
      "lat": 37.51589073092791,
      "lng": 126.84213306141996,
      "title": "목동센트럴아이파크위브아파트",
      "description": "서울 양천구 남부순환로83길 17",
      "url": "http://place.map.kakao.com/822044958",
      "region": "서울특별시"
    },
    {
      "lat": 37.52155740587851,
      "lng": 126.8721538981559,
      "title": "신정아이파크아파트",
      "description": "서울 양천구 목동동로 180",
      "url": "http://place.map.kakao.com/11279416",
      "region": "서울특별시"
    },
    {
      "lat": 37.52899171394373,
      "lng": 126.86499571174154,
      "title": "목동아이파크1차아파트",
      "description": "서울 양천구 목동로 230",
      "url": "http://place.map.kakao.com/11365739",
      "region": "서울특별시"
    },
    {
      "lat": 37.53672155509162,
      "lng": 126.87077480038269,
      "title": "목동아이파크2차아파트",
      "description": "서울 양천구 목동중앙로 79",
      "url": "http://place.map.kakao.com/11341327",
      "region": "서울특별시"
    },
    {
      "lat": 37.58610403893688,
      "lng": 126.89307980711995,
      "title": "DMCSKVIEW아이파크포레아파트",
      "description": "서울 은평구 수색로 322",
      "url": "http://place.map.kakao.com/2110251054",
      "region": "서울특별시"
    },
    {
      "lat": 37.594928732020826,
      "lng": 126.92101876949187,
      "title": "백련산SK뷰아이파크아파트",
      "description": "서울 은평구 응암로30길 16",
      "url": "http://place.map.kakao.com/1539867589",
      "region": "서울특별시"
    },
    {
      "lat": 37.5955437578004,
      "lng": 126.919169007772,
      "title": "백련산SK뷰아이파크아파트 상가",
      "description": "서울 은평구 응암로30길 16",
      "url": "http://place.map.kakao.com/1897236342",
      "region": "서울특별시"
    },
    {
      "lat": 37.646046986574746,
      "lng": 126.92632540067767,
      "title": "은평뉴타운상림마을7단지아이파크아파트(706~708동)",
      "description": "서울 은평구 진관4로 47",
      "url": "http://place.map.kakao.com/11368026",
      "region": "서울특별시"
    },
    {
      "lat": 37.646029512860444,
      "lng": 126.92868001284467,
      "title": "은평뉴타운상림마을7단지아이파크아파트(701동)",
      "description": "서울 은평구 진관4로 78-8",
      "url": "http://place.map.kakao.com/18444792",
      "region": "서울특별시"
    },
    {
      "lat": 37.57700150932393,
      "lng": 126.95744474384661,
      "title": "인왕산아이파크1차아파트",
      "description": "서울 종로구 통일로18길 9",
      "url": "http://place.map.kakao.com/11169426",
      "region": "서울특별시"
    },
    {
      "lat": 37.575689540136516,
      "lng": 126.95966542048158,
      "title": "인왕산2차아이파크아파트",
      "description": "서울 종로구 통일로18길 34",
      "url": "http://place.map.kakao.com/20671234",
      "region": "서울특별시"
    },
    {
      "lat": 37.58218232147488,
      "lng": 127.08173357581516,
      "title": "사가정센트럴아이파크아파트",
      "description": "서울 중랑구 동일로92길 40",
      "url": "http://place.map.kakao.com/682596788",
      "region": "서울특별시"
    },
    {
      "lat": 37.61051029520134,
      "lng": 127.07365765090091,
      "title": "묵동아이파크아파트",
      "description": "서울 중랑구 중랑천로 286",
      "url": "http://place.map.kakao.com/11202899",
      "region": "서울특별시"
    },
    {
      "lat": 37.596382133228,
      "lng": 127.093627487253,
      "title": "상봉센트럴아이파크아파트 (2030년03월예정)",
      "description": "서울 중랑구 상봉로 118",
      "url": "http://place.map.kakao.com/201048689",
      "region": "서울특별시"
    },
    {
      "lat": 37.27037560840249,
      "lng": 127.02122204371364,
      "title": "수원센트럴아이파크자이아파트",
      "description": "경기 수원시 팔달구 인계로 21",
      "url": "http://place.map.kakao.com/1331817348",
      "region": "경기도"
    },
    {
      "lat": 37.243935316440464,
      "lng": 127.05695253290004,
      "title": "망포역아이파크아파트",
      "description": "경기 수원시 영통구 영통로200번길 20",
      "url": "http://place.map.kakao.com/11358899",
      "region": "경기도"
    },
    {
      "lat": 37.24299079363456,
      "lng": 127.04491160453219,
      "title": "영통아이파크캐슬1단지아파트",
      "description": "경기 수원시 영통구 덕영대로 1410",
      "url": "http://place.map.kakao.com/2114555765",
      "region": "경기도"
    },
    {
      "lat": 37.273821735376984,
      "lng": 127.06110959579767,
      "title": "광교아이파크아파트",
      "description": "경기 수원시 영통구 광교호수공원로 80",
      "url": "http://place.map.kakao.com/26945732",
      "region": "경기도"
    },
    {
      "lat": 37.246700016053715,
      "lng": 127.01999700765636,
      "title": "수원아이파크시티7단지아파트",
      "description": "경기 수원시 권선구 덕영대로1190번길 100",
      "url": "http://place.map.kakao.com/26097941",
      "region": "경기도"
    },
    {
      "lat": 37.26617250200707,
      "lng": 127.07130516560383,
      "title": "영통아이파크아파트",
      "description": "경기 수원시 영통구 삼성로320번길 62",
      "url": "http://place.map.kakao.com/11350867",
      "region": "경기도"
    },
    {
      "lat": 37.240347541987994,
      "lng": 127.04129347621112,
      "title": "영통아이파크캐슬3단지아파트",
      "description": "경기 수원시 영통구 망포로84번길 10",
      "url": "http://place.map.kakao.com/248619073",
      "region": "경기도"
    },
    {
      "lat": 37.2434195864985,
      "lng": 127.0427603185444,
      "title": "영통아이파크캐슬2단지아파트",
      "description": "경기 수원시 영통구 덕영대로 1400",
      "url": "http://place.map.kakao.com/1236534500",
      "region": "경기도"
    },
    {
      "lat": 37.24511672022369,
      "lng": 127.02940316867158,
      "title": "수원아이파크시티2단지아파트",
      "description": "경기 수원시 권선구 동수원로145번길 24",
      "url": "http://place.map.kakao.com/12803672",
      "region": "경기도"
    },
    {
      "lat": 37.242641451327756,
      "lng": 127.02596699067888,
      "title": "수원아이파크시티3단지아파트",
      "description": "경기 수원시 권선구 동수원로145번길 73",
      "url": "http://place.map.kakao.com/12736597",
      "region": "경기도"
    },
    {
      "lat": 37.237022109226075,
      "lng": 127.02781777851457,
      "title": "곡반정현대아이파크아파트",
      "description": "경기 수원시 권선구 곡선로50번길 48",
      "url": "http://place.map.kakao.com/11289993",
      "region": "경기도"
    },
    {
      "lat": 37.311393342069074,
      "lng": 126.99126426453192,
      "title": "북수원아이파크아파트",
      "description": "경기 수원시 장안구 경수대로 1110-15",
      "url": "http://place.map.kakao.com/11054067",
      "region": "경기도"
    },
    {
      "lat": 37.24207872078967,
      "lng": 127.0280630755145,
      "title": "수원아이파크시티4단지아파트",
      "description": "경기 수원시 권선구 동수원로145번길 23",
      "url": "http://place.map.kakao.com/12803710",
      "region": "경기도"
    },
    {
      "lat": 37.245647148908255,
      "lng": 127.02681558929028,
      "title": "수원아이파크시티1단지아파트",
      "description": "경기 수원시 권선구 동수원로145번길 74",
      "url": "http://place.map.kakao.com/12736600",
      "region": "경기도"
    },
    {
      "lat": 37.23981837451496,
      "lng": 127.05117470077893,
      "title": "망포마을현대아이파크2차아파트",
      "description": "경기 수원시 영통구 태장로 45",
      "url": "http://place.map.kakao.com/11343914",
      "region": "경기도"
    },
    {
      "lat": 37.23839932069011,
      "lng": 127.02600047174495,
      "title": "수원아이파크시티6단지아파트",
      "description": "경기 수원시 권선구 곡선로 20",
      "url": "http://place.map.kakao.com/12435869",
      "region": "경기도"
    },
    {
      "lat": 37.23890592614765,
      "lng": 127.02498974119825,
      "title": "수원아이파크시티5단지아파트",
      "description": "경기 수원시 권선구 곡선로 10",
      "url": "http://place.map.kakao.com/805584860",
      "region": "경기도"
    },
    {
      "lat": 37.24349976276904,
      "lng": 127.01840138309684,
      "title": "수원아이파크시티10단지아파트",
      "description": "경기 수원시 권선구 경수대로212번길 34",
      "url": "http://place.map.kakao.com/1422535494",
      "region": "경기도"
    },
    {
      "lat": 37.24729138896895,
      "lng": 127.02754202993809,
      "title": "수원아이파크시티9단지아파트",
      "description": "경기 수원시 권선구 동수원로177번길 90",
      "url": "http://place.map.kakao.com/26873532",
      "region": "경기도"
    },
    {
      "lat": 37.246723110690176,
      "lng": 127.03009019685594,
      "title": "수원아이파크시티8단지아파트",
      "description": "경기 수원시 권선구 동수원로177번길 40",
      "url": "http://place.map.kakao.com/27305340",
      "region": "경기도"
    },
    {
      "lat": 37.371661900382875,
      "lng": 127.10514292387059,
      "title": "아이파크분당1단지아파트",
      "description": "경기 성남시 분당구 정자일로 239",
      "url": "http://place.map.kakao.com/11144473",
      "region": "경기도"
    },
    {
      "lat": 37.410180159791466,
      "lng": 127.13248651576036,
      "title": "아이파크아파트",
      "description": "경기 성남시 분당구 야탑로 125",
      "url": "http://place.map.kakao.com/11164383",
      "region": "경기도"
    },
    {
      "lat": 37.36898405178862,
      "lng": 127.10514370246857,
      "title": "아이파크분당3단지아파트",
      "description": "경기 성남시 분당구 정자일로213번길 5",
      "url": "http://place.map.kakao.com/12803685",
      "region": "경기도"
    },
    {
      "lat": 37.37078636134559,
      "lng": 127.10485268992328,
      "title": "아이파크분당2단지아파트",
      "description": "경기 성남시 분당구 정자일로213번길 19",
      "url": "http://place.map.kakao.com/12803804",
      "region": "경기도"
    },
    {
      "lat": 37.67873380156691,
      "lng": 126.78554496928707,
      "title": "일산센트럴아이파크아파트",
      "description": "경기 고양시 일산동구 중산로 70",
      "url": "http://place.map.kakao.com/27542583",
      "region": "경기도"
    },
    {
      "lat": 37.65060007606352,
      "lng": 126.88700084321702,
      "title": "삼송2차아이파크아파트",
      "description": "경기 고양시 덕양구 세솔로 73",
      "url": "http://place.map.kakao.com/20399197",
      "region": "경기도"
    },
    {
      "lat": 37.6686263706631,
      "lng": 126.73409173998124,
      "title": "킨텍스아이파크아파트",
      "description": "경기 고양시 일산서구 송포로 11",
      "url": "http://place.map.kakao.com/11090190",
      "region": "경기도"
    },
    {
      "lat": 37.66910001620524,
      "lng": 126.88523067673948,
      "title": "신원마을8단지고양삼송아이파크아파트",
      "description": "경기 고양시 덕양구 신원3로 20",
      "url": "http://place.map.kakao.com/12274309",
      "region": "경기도"
    },
    {
      "lat": 37.65046075782957,
      "lng": 126.8698402792452,
      "title": "삼송3차아이파크아파트",
      "description": "경기 고양시 덕양구 원흥1로 46-12",
      "url": "http://place.map.kakao.com/1013102255",
      "region": "경기도"
    },
    {
      "lat": 37.677875876893246,
      "lng": 126.78346617001905,
      "title": "일산2차아이파크아파트",
      "description": "경기 고양시 일산동구 중산로 60",
      "url": "http://place.map.kakao.com/572499122",
      "region": "경기도"
    },
    {
      "lat": 37.66904840110622,
      "lng": 126.79890680113111,
      "title": "숲속마을5단지아이파크아파트",
      "description": "경기 고양시 일산동구 숲속마을1로 87",
      "url": "http://place.map.kakao.com/11530730",
      "region": "경기도"
    },
    {
      "lat": 37.697890490932515,
      "lng": 126.75422383336108,
      "title": "일산하이파크시티5단지아이파크아파트",
      "description": "경기 고양시 일산서구 하이파크3로 62",
      "url": "http://place.map.kakao.com/11374004",
      "region": "경기도"
    },
    {
      "lat": 37.7042617916904,
      "lng": 126.7540406364253,
      "title": "일산하이파크시티1단지아이파크아파트",
      "description": "경기 고양시 일산서구 하이파크로 113",
      "url": "http://place.map.kakao.com/11096399",
      "region": "경기도"
    },
    {
      "lat": 37.311193365580515,
      "lng": 127.08552514215249,
      "title": "성복역아이파크아파트",
      "description": "경기 용인시 수지구 상현로 142",
      "url": "http://place.map.kakao.com/11506172",
      "region": "경기도"
    },
    {
      "lat": 37.3221937022037,
      "lng": 127.06148833712741,
      "title": "용인성복아이파크아파트",
      "description": "경기 용인시 수지구 성복1로 222",
      "url": "http://place.map.kakao.com/12777134",
      "region": "경기도"
    },
    {
      "lat": 37.327167659144976,
      "lng": 127.08317832660707,
      "title": "수지광교산아이파크아파트",
      "description": "경기 용인시 수지구 수풍로23번길 35",
      "url": "http://place.map.kakao.com/596803685",
      "region": "경기도"
    },
    {
      "lat": 37.31791668257695,
      "lng": 127.11360594347988,
      "title": "죽현마을아이파크아파트",
      "description": "경기 용인시 기흥구 보정로 87",
      "url": "http://place.map.kakao.com/11151597",
      "region": "경기도"
    },
    {
      "lat": 37.27781817211022,
      "lng": 127.1454331347668,
      "title": "신동백아이파크아파트",
      "description": "경기 용인시 기흥구 언동로217번길 11",
      "url": "http://place.map.kakao.com/11362670",
      "region": "경기도"
    },
    {
      "lat": 37.32927637068814,
      "lng": 127.11783397917675,
      "title": "도담마을아이파크아파트",
      "description": "경기 용인시 수지구 대지로 82",
      "url": "http://place.map.kakao.com/11088243",
      "region": "경기도"
    },
    {
      "lat": 37.33695793059909,
      "lng": 127.09666277657628,
      "title": "동천역센트럴아이파크아파트",
      "description": "경기 용인시 수지구 손곡로 54",
      "url": "http://place.map.kakao.com/11330369",
      "region": "경기도"
    },
    {
      "lat": 37.30690656939075,
      "lng": 127.08252432496471,
      "title": "상현마을수지센트럴아이파크아파트",
      "description": "경기 용인시 수지구 상현로 101",
      "url": "http://place.map.kakao.com/11123745",
      "region": "경기도"
    },
    {
      "lat": 37.30818024710572,
      "lng": 127.08046821447057,
      "title": "서원마을3단지아이파크아파트",
      "description": "경기 용인시 수지구 포은대로 219",
      "url": "http://place.map.kakao.com/7944211",
      "region": "경기도"
    },
    {
      "lat": 37.310463359406235,
      "lng": 127.08820907608467,
      "title": "만현마을2단지아이파크아파트",
      "description": "경기 용인시 수지구 만현로67번길 9",
      "url": "http://place.map.kakao.com/11354383",
      "region": "경기도"
    },
    {
      "lat": 37.2410009848257,
      "lng": 127.07700330115719,
      "title": "서천2차아이파크아파트",
      "description": "경기 용인시 기흥구 서천동로21번길 11-22",
      "url": "http://place.map.kakao.com/25737435",
      "region": "경기도"
    },
    {
      "lat": 37.302647256602555,
      "lng": 127.1122339620646,
      "title": "연원마을현대아이파크아파트",
      "description": "경기 용인시 기흥구 연원로 60",
      "url": "http://place.map.kakao.com/11107651",
      "region": "경기도"
    },
    {
      "lat": 37.308593737463674,
      "lng": 127.08695704264423,
      "title": "만현마을5단지현대아이파크아파트",
      "description": "경기 용인시 수지구 만현로 79",
      "url": "http://place.map.kakao.com/24058523",
      "region": "경기도"
    },
    {
      "lat": 37.32392495029158,
      "lng": 127.12070492113621,
      "title": "꽃메마을아이파크아파트",
      "description": "경기 용인시 수지구 죽전로 121",
      "url": "http://place.map.kakao.com/11372167",
      "region": "경기도"
    },
    {
      "lat": 37.24606054562201,
      "lng": 127.07241330214708,
      "title": "서그내마을서천1차아이파크아파트",
      "description": "경기 용인시 기흥구 서그내로16번길 14",
      "url": "http://place.map.kakao.com/11354212",
      "region": "경기도"
    },
    {
      "lat": 37.3233189129932,
      "lng": 127.12123648232,
      "title": "꽃메마을아이파크2차아파트 상가",
      "description": "경기 용인시 수지구 죽전로 123",
      "url": "http://place.map.kakao.com/23816938",
      "region": "경기도"
    },
    {
      "lat": 37.51526906146609,
      "lng": 126.76608771727207,
      "title": "부천아이파크아파트",
      "description": "경기 부천시 원미구 평천로 679",
      "url": "http://place.map.kakao.com/14723030",
      "region": "경기도"
    },
    {
      "lat": 37.51244393500935,
      "lng": 126.7667536926579,
      "title": "부천3차아이파크아파트",
      "description": "경기 부천시 원미구 약대로 20",
      "url": "http://place.map.kakao.com/27024044",
      "region": "경기도"
    },
    {
      "lat": 37.499535577165354,
      "lng": 126.75316327360501,
      "title": "하얀마을아이파크아파트",
      "description": "경기 부천시 원미구 조마루로 84",
      "url": "http://place.map.kakao.com/11199360",
      "region": "경기도"
    },
    {
      "lat": 37.4990394050405,
      "lng": 126.752006886786,
      "title": "하얀마을 아이파크 상가",
      "description": "경기 부천시 원미구 상동로 22",
      "url": "http://place.map.kakao.com/23798721",
      "region": "경기도"
    },
    {
      "lat": 37.334370413198435,
      "lng": 126.7856205707325,
      "title": "안산아이파크아파트",
      "description": "경기 안산시 단원구 도일로 46",
      "url": "http://place.map.kakao.com/25980823",
      "region": "경기도"
    },
    {
      "lat": 37.33207265935448,
      "lng": 126.91524556950864,
      "title": "센트럴아이파크아파트",
      "description": "경기 군포시 대야2로143번길 25",
      "url": "http://place.map.kakao.com/11195051",
      "region": "경기도"
    },
    {
      "lat": 37.402035378184365,
      "lng": 126.93327937862605,
      "title": "평촌자이아이파크아파트",
      "description": "경기 안양시 동안구 비산로 22",
      "url": "http://place.map.kakao.com/160227109",
      "region": "경기도"
    },
    {
      "lat": 37.37643341837563,
      "lng": 126.95815671064967,
      "title": "평촌더샵아이파크아파트",
      "description": "경기 안양시 동안구 경수대로610번길 36",
      "url": "http://place.map.kakao.com/1694812166",
      "region": "경기도"
    },
    {
      "lat": 37.40602583219584,
      "lng": 126.90199709706363,
      "title": "석수아이파크아파트",
      "description": "경기 안양시 만안구 충훈로 52",
      "url": "http://place.map.kakao.com/11138028",
      "region": "경기도"
    },
    {
      "lat": 37.4039392680909,
      "lng": 126.904441686659,
      "title": "호현센트럴아이파크아파트 (2028년05월예정)",
      "description": "경기 안양시 만안구 박달동 111-1",
      "url": "http://place.map.kakao.com/352055181",
      "region": "경기도"
    },
    {
      "lat": 37.40445415373611,
      "lng": 126.91819331699939,
      "title": "안양역센트럴아이파크수자인아파트 (2029년04월예정)",
      "description": "경기 안양시 만안구 안양동 841-5",
      "url": "http://place.map.kakao.com/1045715730",
      "region": "경기도"
    },
    {
      "lat": 37.62697568371838,
      "lng": 127.15684415916404,
      "title": "다산아이파크아파트",
      "description": "경기 남양주시 다산순환로 333",
      "url": "http://place.map.kakao.com/601745141",
      "region": "경기도"
    },
    {
      "lat": 37.66023496272489,
      "lng": 127.240586033954,
      "title": "호평마을아이파크아파트",
      "description": "경기 남양주시 늘을3로 7",
      "url": "http://place.map.kakao.com/11205666",
      "region": "경기도"
    },
    {
      "lat": 37.58800287103674,
      "lng": 127.2213048147618,
      "title": "덕소아이파크아파트",
      "description": "경기 남양주시 와부읍 월문천로 95",
      "url": "http://place.map.kakao.com/11090980",
      "region": "경기도"
    },
    {
      "lat": 37.66439831510265,
      "lng": 127.11699711917787,
      "title": "별내아이파크2차아파트",
      "description": "경기 남양주시 덕송1로 30",
      "url": "http://place.map.kakao.com/19806992",
      "region": "경기도"
    },
    {
      "lat": 37.66209007240916,
      "lng": 127.11783217543365,
      "title": "남양주별내아이파크1차아파트",
      "description": "경기 남양주시 별내3로 285",
      "url": "http://place.map.kakao.com/11506145",
      "region": "경기도"
    },
    {
      "lat": 37.696541581686574,
      "lng": 127.1995754744677,
      "title": "오남아이파크아파트",
      "description": "경기 남양주시 오남읍 진건오남로759번길 110",
      "url": "http://place.map.kakao.com/11361738",
      "region": "경기도"
    },
    {
      "lat": 37.6278716237784,
      "lng": 127.157250462055,
      "title": "다산아이파크상가",
      "description": "경기 남양주시 다산순환로 325",
      "url": "http://place.map.kakao.com/2007659325",
      "region": "경기도"
    },
    {
      "lat": 37.6594449880735,
      "lng": 127.240937076718,
      "title": "호평마을아이파크아파트 상가",
      "description": "경기 남양주시 늘을3로 11",
      "url": "http://place.map.kakao.com/23806304",
      "region": "경기도"
    },
    {
      "lat": 37.21297821113485,
      "lng": 126.97080758861833,
      "title": "봉담아이파크아파트",
      "description": "경기 화성시 봉담읍 와우로34번길 11",
      "url": "http://place.map.kakao.com/11348730",
      "region": "경기도"
    },
    {
      "lat": 37.23704917413155,
      "lng": 127.04281306790689,
      "title": "반정아이파크캐슬5단지아파트",
      "description": "경기 화성시 동탄지성로469번길 60",
      "url": "http://place.map.kakao.com/1083445578",
      "region": "경기도"
    },
    {
      "lat": 37.23763091260081,
      "lng": 127.04122437645232,
      "title": "반정아이파크캐슬4단지아파트",
      "description": "경기 화성시 동탄지성로469번길 59",
      "url": "http://place.map.kakao.com/1225787544",
      "region": "경기도"
    },
    {
      "lat": 37.20664247502085,
      "lng": 126.83245738079842,
      "title": "남양아이파크아파트",
      "description": "경기 화성시 남양읍 역골동로 70",
      "url": "http://place.map.kakao.com/11270085",
      "region": "경기도"
    },
    {
      "lat": 37.1646885940113,
      "lng": 127.10875446101402,
      "title": "동탄호수공원아이파크아파트",
      "description": "경기 화성시 동탄순환대로8길 14",
      "url": "http://place.map.kakao.com/1424349869",
      "region": "경기도"
    },
    {
      "lat": 37.16015345005971,
      "lng": 127.12096753989418,
      "title": "동탄2아이파크2단지아파트",
      "description": "경기 화성시 동탄대로4길 143",
      "url": "http://place.map.kakao.com/27332428",
      "region": "경기도"
    },
    {
      "lat": 37.20657790028997,
      "lng": 127.07031180774645,
      "title": "시범한빛마을동탄아이파크아파트",
      "description": "경기 화성시 동탄지성로 42",
      "url": "http://place.map.kakao.com/11506246",
      "region": "경기도"
    },
    {
      "lat": 37.16193507744066,
      "lng": 127.12073507843982,
      "title": "동탄2아이파크1단지아파트",
      "description": "경기 화성시 동탄대로4길 123",
      "url": "http://place.map.kakao.com/27332415",
      "region": "경기도"
    },
    {
      "lat": 37.20291750836868,
      "lng": 127.02739523012409,
      "title": "병점역아이파크캐슬아파트",
      "description": "경기 화성시 병점노을로 31",
      "url": "http://place.map.kakao.com/1859941400",
      "region": "경기도"
    },
    {
      "lat": 36.99924957678731,
      "lng": 127.12517333763338,
      "title": "평택비전아이파크아파트",
      "description": "경기 평택시 용죽1로 65",
      "url": "http://place.map.kakao.com/1191849333",
      "region": "경기도"
    },
    {
      "lat": 37.13341361436384,
      "lng": 127.07937343846778,
      "title": "오산고현아이파크아파트",
      "description": "경기 오산시 남부대로 430-12",
      "url": "http://place.map.kakao.com/11374852",
      "region": "경기도"
    },
    {
      "lat": 36.84319862614457,
      "lng": 127.14086126954881,
      "title": "천안아이파크시티아파트 (2027년12월예정)",
      "description": "충남 천안시 서북구 성성동 34-4",
      "url": "http://place.map.kakao.com/535653395",
      "region": "충청남도"
    },
    {
      "lat": 36.83263208766115,
      "lng": 127.12488340734168,
      "title": "백석마을1차아이파크아파트",
      "description": "충남 천안시 서북구 한들3로 100",
      "url": "http://place.map.kakao.com/11530082",
      "region": "충청남도"
    },
    {
      "lat": 36.844897104462945,
      "lng": 127.14543877486577,
      "title": "천안아이파크시티2단지아파트 (2028년08월예정)",
      "description": "충남 천안시 서북구 부대동 409-1",
      "url": "http://place.map.kakao.com/1724678160",
      "region": "충청남도"
    },
    {
      "lat": 36.82773909099165,
      "lng": 127.12572175227432,
      "title": "천안백석3차아이파크아파트",
      "description": "충남 천안시 서북구 한들3로 36-17",
      "url": "http://place.map.kakao.com/26437639",
      "region": "충청남도"
    },
    {
      "lat": 36.82512785600653,
      "lng": 127.12121264041149,
      "title": "천안백석2차아이파크아파트",
      "description": "충남 천안시 서북구 한들3로 35-23",
      "url": "http://place.map.kakao.com/18080796",
      "region": "충청남도"
    },
    {
      "lat": 36.8487991471495,
      "lng": 127.14224617246,
      "title": "천안부성5지구아이파크아파트 (예정)",
      "description": "충남 천안시 서북구 부대동 354-24",
      "url": "http://place.map.kakao.com/1678568002",
      "region": "충청남도"
    },
    {
      "lat": 36.8444159113862,
      "lng": 127.13865368213506,
      "title": "천안부성6지구아이파크아파트 (예정)",
      "description": "충남 천안시 서북구 업성수변로 60",
      "url": "http://place.map.kakao.com/1678485924",
      "region": "충청남도"
    },
    {
      "lat": 37.74127858761064,
      "lng": 127.098116468406,
      "title": "산들아이파크아파트",
      "description": "경기 의정부시 오목로 170",
      "url": "http://place.map.kakao.com/11270710",
      "region": "경기도"
    },
    {
      "lat": 37.75133536862785,
      "lng": 127.07591212236416,
      "title": "상록아이파크아파트",
      "description": "경기 의정부시 부용로 174",
      "url": "http://place.map.kakao.com/11143670",
      "region": "경기도"
    },
    {
      "lat": 37.75164318437138,
      "lng": 127.0675473185266,
      "title": "금오현대아이파크아파트",
      "description": "경기 의정부시 부용로 87",
      "url": "http://place.map.kakao.com/11324645",
      "region": "경기도"
    },
    {
      "lat": 37.7421852082806,
      "lng": 127.043845485018,
      "title": "의정부센트럴시티아이파크아파트 (예정)",
      "description": "경기 의정부시 의정부동 253-19",
      "url": "http://place.map.kakao.com/921007088",
      "region": "경기도"
    },
    {
      "lat": 37.42251441808128,
      "lng": 126.73041508489082,
      "title": "도림아이파크아파트",
      "description": "인천 남동구 도리미로 8",
      "url": "http://place.map.kakao.com/11329569",
      "region": "인천광역시"
    },
    {
      "lat": 37.71323932932881,
      "lng": 126.7061361022046,
      "title": "운정아이파크포레스트아파트 (2028년12월예정)",
      "description": "경기 파주시 서패동 432",
      "url": "http://place.map.kakao.com/43013849",
      "region": "경기도"
    },
    {
      "lat": 37.720899243411274,
      "lng": 126.75409452356531,
      "title": "해솔마을8단지아이파크더테라스",
      "description": "경기 파주시 가온로 200",
      "url": "http://place.map.kakao.com/1025458459",
      "region": "경기도"
    },
    {
      "lat": 37.7156716401502,
      "lng": 126.73449077483106,
      "title": "한울마을1단지운정신도시아이파크아파트",
      "description": "경기 파주시 심학산로 384",
      "url": "http://place.map.kakao.com/1536174379",
      "region": "경기도"
    },
    {
      "lat": 37.72531854464219,
      "lng": 126.73943482910305,
      "title": "산내마을11단지현대아이파크아파트",
      "description": "경기 파주시 와석순환로 307",
      "url": "http://place.map.kakao.com/11195052",
      "region": "경기도"
    },
    {
      "lat": 37.71238054467973,
      "lng": 126.75107985155455,
      "title": "한빛마을3단지자유로아이파크아파트",
      "description": "경기 파주시 한빛로 11",
      "url": "http://place.map.kakao.com/8419083",
      "region": "경기도"
    },
    {
      "lat": 37.4829564083767,
      "lng": 126.857843630786,
      "title": "광명센트럴아이파크아파트",
      "description": "경기 광명시 광이로 49",
      "url": "http://place.map.kakao.com/1426618311",
      "region": "경기도"
    },
    {
      "lat": 37.65134438396716,
      "lng": 126.63289782225176,
      "title": "김포한강아이파크아파트",
      "description": "경기 김포시 김포한강4로420번길 100",
      "url": "http://place.map.kakao.com/304832362",
      "region": "경기도"
    },
    {
      "lat": 37.62156415829895,
      "lng": 126.72645040166606,
      "title": "김포사우아이파크아파트",
      "description": "경기 김포시 사우로 51",
      "url": "http://place.map.kakao.com/27465280",
      "region": "경기도"
    },
    {
      "lat": 37.4199003756555,
      "lng": 127.254218572653,
      "title": "광주행정타운아이파크아파트",
      "description": "경기 광주시 송정2길 37",
      "url": "http://place.map.kakao.com/254752659",
      "region": "경기도"
    },
    {
      "lat": 37.383500294839564,
      "lng": 127.22945776646824,
      "title": "태전아이파크아파트",
      "description": "경기 광주시 태봉로 110",
      "url": "http://place.map.kakao.com/26873616",
      "region": "경기도"
    },
    {
      "lat": 37.3519898054689,
      "lng": 127.344532273064,
      "title": "곤지암역센트럴아이파크아파트 (2027년05월예정)",
      "description": "경기 광주시 곤지암읍 곤지암리 637",
      "url": "http://place.map.kakao.com/391097404",
      "region": "경기도"
    },
    {
      "lat": 37.54365142674845,
      "lng": 127.31797565400423,
      "title": "양수리아이파크1단지아파트",
      "description": "경기 양평군 양서면 양수로155번길 16",
      "url": "http://place.map.kakao.com/11277723",
      "region": "경기도"
    },
    {
      "lat": 37.31195860926729,
      "lng": 127.63519663170565,
      "title": "여주아이파크아파트",
      "description": "경기 여주시 현암로 20",
      "url": "http://place.map.kakao.com/1027106519",
      "region": "경기도"
    },
    {
      "lat": 37.80169802670606,
      "lng": 127.077762238139,
      "title": "고읍아이파크아파트",
      "description": "경기 양주시 고덕로 340-12",
      "url": "http://place.map.kakao.com/11357691",
      "region": "경기도"
    },
    {
      "lat": 37.63449543966042,
      "lng": 127.11715641262532,
      "title": "갈매역아이파크아파트",
      "description": "경기 구리시 경춘북로 252",
      "url": "http://place.map.kakao.com/27299315",
      "region": "경기도"
    },
    {
      "lat": 37.633323065032044,
      "lng": 127.11735056598279,
      "title": "갈매역아이파크애비뉴상가",
      "description": "경기 구리시 경춘북로 252",
      "url": "http://place.map.kakao.com/938961843",
      "region": "경기도"
    },
    {
      "lat": 38.0362446951024,
      "lng": 127.372086073243,
      "title": "포천이동아이파크아파트",
      "description": "경기 포천시 이동면 화동로 2144-74",
      "url": "http://place.map.kakao.com/1948850130",
      "region": "경기도"
    },
    {
      "lat": 38.091698517641,
      "lng": 127.276506535179,
      "title": "산내들아이파크아파트",
      "description": "경기 포천시 영북면 영북로 206",
      "url": "http://place.map.kakao.com/8089291",
      "region": "경기도"
    },
    {
      "lat": 37.89035343436749,
      "lng": 127.20216881908397,
      "title": "포천아이파크1차아파트",
      "description": "경기 포천시 군내면 호국로 1536-10",
      "url": "http://place.map.kakao.com/27024004",
      "region": "경기도"
    },
    {
      "lat": 37.88993712034265,
      "lng": 127.20326017673749,
      "title": "포천아이파크2차아파트",
      "description": "경기 포천시 군내면 호국로 1536-22",
      "url": "http://place.map.kakao.com/1554484411",
      "region": "경기도"
    },
    {
      "lat": 37.88641375401755,
      "lng": 127.04941355565845,
      "title": "송내아이파크아파트",
      "description": "경기 동두천시 강변로 160",
      "url": "http://place.map.kakao.com/11345867",
      "region": "경기도"
    },
    {
      "lat": 37.54572643441337,
      "lng": 127.2084245561425,
      "title": "하남풍산아이파크1단지아파트",
      "description": "경기 하남시 덕풍남로 11",
      "url": "http://place.map.kakao.com/11359930",
      "region": "경기도"
    },
    {
      "lat": 37.553112470693776,
      "lng": 127.20345207918074,
      "title": "하남풍산아이파크5단지아파트",
      "description": "경기 하남시 덕풍서로 65",
      "url": "http://place.map.kakao.com/11351444",
      "region": "경기도"
    },
    {
      "lat": 38.0795308718517,
      "lng": 127.075525265763,
      "title": "연천아이파크아파트",
      "description": "경기 연천군 연천읍 평화로 1239",
      "url": "http://place.map.kakao.com/27500693",
      "region": "경기도"
    },
    {
      "lat": 37.54316020519773,
      "lng": 127.31837639711448,
      "title": "양수리아이파크2단지아파트",
      "description": "경기 양평군 양서면 양수로155번길 15",
      "url": "http://place.map.kakao.com/11101189",
      "region": "경기도"
    },
    {
      "lat": 37.8701701200695,
      "lng": 127.709824681726,
      "title": "춘천레이크시티아이파크아파트 (2026년08월예정)",
      "description": "강원특별자치도 춘천시 삼천동 22-19",
      "url": "http://place.map.kakao.com/1100682043",
      "region": "강원특별자치도"
    },
    {
      "lat": 37.8714702405339,
      "lng": 127.709513245109,
      "title": "춘천레이크시티2차아이파크아파트 (2028년09월예정)",
      "description": "강원특별자치도 춘천시 삼천동 22-1",
      "url": "http://place.map.kakao.com/876530765",
      "region": "강원특별자치도"
    },
    {
      "lat": 37.45640159175091,
      "lng": 126.63337360190643,
      "title": "신흥아이파크아파트",
      "description": "인천 중구 인항로 30",
      "url": "http://place.map.kakao.com/11196714",
      "region": "인천광역시"
    },
    {
      "lat": 37.50825269113274,
      "lng": 126.7030214555672,
      "title": "부평아이파크아파트",
      "description": "인천 부평구 길주로364번길 9",
      "url": "http://place.map.kakao.com/920677625",
      "region": "인천광역시"
    },
    {
      "lat": 37.38765803906759,
      "lng": 126.6587091182855,
      "title": "아이파크송도아파트",
      "description": "인천 연수구 해돋이로6번길 7",
      "url": "http://place.map.kakao.com/11336197",
      "region": "인천광역시"
    },
    {
      "lat": 37.38505155031,
      "lng": 126.662216819047,
      "title": "송도아메리칸타운아이파크아파트",
      "description": "인천 연수구 송도과학로27번길 15",
      "url": "http://place.map.kakao.com/1693729994",
      "region": "인천광역시"
    },
    {
      "lat": 37.3888140845717,
      "lng": 126.658410280999,
      "title": "아이파크송도아파트 상가",
      "description": "인천 연수구 해돋이로6번길 7",
      "url": "http://place.map.kakao.com/26439690",
      "region": "인천광역시"
    },
    {
      "lat": 37.51377273489843,
      "lng": 126.76620775972283,
      "title": "부천아이파크아파트 206동",
      "description": "경기 부천시 원미구 평천로 679",
      "url": "http://place.map.kakao.com/26756955",
      "region": "경기도"
    },
    {
      "lat": 37.56984094769072,
      "lng": 126.74910092918998,
      "title": "귤현아이파크아파트",
      "description": "인천 계양구 장군봉길 12",
      "url": "http://place.map.kakao.com/11029399",
      "region": "인천광역시"
    },
    {
      "lat": 37.59914142382412,
      "lng": 126.66626100647306,
      "title": "검단2차아이파크아파트",
      "description": "인천 서구 검단로540번길 59",
      "url": "http://place.map.kakao.com/8173199",
      "region": "인천광역시"
    },
    {
      "lat": 37.60197572288738,
      "lng": 126.66491660418954,
      "title": "검단1차아이파크아파트",
      "description": "인천 서구 완정로92번길 28",
      "url": "http://place.map.kakao.com/11375943",
      "region": "인천광역시"
    },
    {
      "lat": 35.147394623810655,
      "lng": 129.01828740239512,
      "title": "개금아이파크아파트",
      "description": "부산 부산진구 복지로 70",
      "url": "http://place.map.kakao.com/11521597",
      "region": "부산광역시"
    },
    {
      "lat": 35.155718273913585,
      "lng": 129.0694703878173,
      "title": "서면아이파크1단지아파트",
      "description": "부산 부산진구 동성로 50",
      "url": "http://place.map.kakao.com/73898844",
      "region": "부산광역시"
    },
    {
      "lat": 35.11898614645454,
      "lng": 129.0990584157786,
      "title": "용당현대아이파크아파트",
      "description": "부산 남구 동명로 26",
      "url": "http://place.map.kakao.com/11275219",
      "region": "부산광역시"
    },
    {
      "lat": 35.15392906370584,
      "lng": 129.07054864320855,
      "title": "서면아이파크2단지아파트",
      "description": "부산 부산진구 동성로 50",
      "url": "http://place.map.kakao.com/1808749071",
      "region": "부산광역시"
    },
    {
      "lat": 35.1408810086946,
      "lng": 129.09007610303,
      "title": "대동아이파크아파트",
      "description": "부산 남구 대연동 1482-1",
      "url": "http://place.map.kakao.com/27456263",
      "region": "부산광역시"
    },
    {
      "lat": 35.21113361382813,
      "lng": 129.0706006274093,
      "title": "동래래미안아이파크아파트",
      "description": "부산 동래구 금정마을로 147",
      "url": "http://place.map.kakao.com/459850770",
      "region": "부산광역시"
    },
    {
      "lat": 35.20898606761428,
      "lng": 129.08404694029778,
      "title": "명륜아이파크1단지아파트",
      "description": "부산 동래구 명륜로 170",
      "url": "http://place.map.kakao.com/13561655",
      "region": "부산광역시"
    },
    {
      "lat": 35.21630084575254,
      "lng": 129.08900404477893,
      "title": "명륜2차아이파크아파트",
      "description": "부산 동래구 시실로 49",
      "url": "http://place.map.kakao.com/18619593",
      "region": "부산광역시"
    },
    {
      "lat": 35.206296825544655,
      "lng": 129.0860467355022,
      "title": "명륜아이파크2단지아파트",
      "description": "부산 동래구 동래로 117",
      "url": "http://place.map.kakao.com/1947573860",
      "region": "부산광역시"
    },
    {
      "lat": 35.21425343509811,
      "lng": 129.09145623479742,
      "title": "명륜2차아이파크2단지아파트",
      "description": "부산 동래구 시실로 73-6",
      "url": "http://place.map.kakao.com/18619596",
      "region": "부산광역시"
    },
    {
      "lat": 35.2093651886309,
      "lng": 129.067828291058,
      "title": "동래래미안아이파크 2단지 아파트 상가",
      "description": "부산 동래구 금정마을로 150",
      "url": "http://place.map.kakao.com/1055920944",
      "region": "부산광역시"
    },
    {
      "lat": 35.2105522654918,
      "lng": 129.073238653816,
      "title": "동래래미안아이파크아파트 317동",
      "description": "부산 동래구 충렬대로107번길 65",
      "url": "http://place.map.kakao.com/1050373994",
      "region": "부산광역시"
    },
    {
      "lat": 35.2095231586236,
      "lng": 129.072817203209,
      "title": "동래래미안아이파크아파트 315동",
      "description": "부산 동래구 충렬대로107번길 65",
      "url": "http://place.map.kakao.com/1050307811",
      "region": "부산광역시"
    },
    {
      "lat": 35.14418634274828,
      "lng": 129.110817021252,
      "title": "금양아이파크아파트",
      "description": "부산 수영구 남천동로9번길 38",
      "url": "http://place.map.kakao.com/553313384",
      "region": "부산광역시"
    },
    {
      "lat": 35.15618387313527,
      "lng": 129.14260534415192,
      "title": "해운대아이파크아파트",
      "description": "부산 해운대구 마린시티2로 38",
      "url": "http://place.map.kakao.com/11217176",
      "region": "부산광역시"
    },
    {
      "lat": 35.16211555372248,
      "lng": 129.1296104094914,
      "title": "수영만아이파크아파트",
      "description": "부산 수영구 광안해변로 448",
      "url": "http://place.map.kakao.com/11123599",
      "region": "부산광역시"
    },
    {
      "lat": 35.211295239994804,
      "lng": 129.06763019410448,
      "title": "동래래미안아이파크아파트 201동",
      "description": "부산 동래구 금정마을로 147",
      "url": "http://place.map.kakao.com/1166087718",
      "region": "부산광역시"
    },
    {
      "lat": 35.867195955269366,
      "lng": 128.6031117822024,
      "title": "삼덕아이파크아파트",
      "description": "대구 중구 공평로10길 60",
      "url": "http://place.map.kakao.com/11345705",
      "region": "대구광역시"
    },
    {
      "lat": 35.87005872770747,
      "lng": 128.6287754181866,
      "title": "신천아이파크아파트",
      "description": "대구 동구 동부로30길 78",
      "url": "http://place.map.kakao.com/11312913",
      "region": "대구광역시"
    },
    {
      "lat": 35.85091316534661,
      "lng": 128.62617768837532,
      "title": "범어아이파크아파트",
      "description": "대구 수성구 동대구로 230",
      "url": "http://place.map.kakao.com/386920949",
      "region": "대구광역시"
    },
    {
      "lat": 35.8941382582862,
      "lng": 128.61769108303537,
      "title": "복현아이파크아파트",
      "description": "대구 북구 경대로27길 40",
      "url": "http://place.map.kakao.com/14683674",
      "region": "대구광역시"
    },
    {
      "lat": 35.8508266464994,
      "lng": 128.627841763008,
      "title": "대구범어2차아이파크아파트",
      "description": "대구 수성구 동대구로46길 33",
      "url": "http://place.map.kakao.com/1922016316",
      "region": "대구광역시"
    },
    {
      "lat": 35.8877317480099,
      "lng": 128.59039426069,
      "title": "침산동아이파크아파트 (예정)",
      "description": "대구 북구 침산동 260-12",
      "url": "http://place.map.kakao.com/2085971428",
      "region": "대구광역시"
    },
    {
      "lat": 35.88437525584739,
      "lng": 128.65335911378463,
      "title": "강변아이파크아파트",
      "description": "대구 동구 해동로 230",
      "url": "http://place.map.kakao.com/27268402",
      "region": "대구광역시"
    },
    {
      "lat": 35.81343505839137,
      "lng": 128.61846618027283,
      "title": "수성아이파크아파트",
      "description": "대구 수성구 파동로22길 15",
      "url": "http://place.map.kakao.com/26414168",
      "region": "대구광역시"
    },
    {
      "lat": 35.946434122984215,
      "lng": 128.63044376638865,
      "title": "대구연경아이파크아파트",
      "description": "대구 동구 동화천로 369",
      "url": "http://place.map.kakao.com/1489093413",
      "region": "대구광역시"
    },
    {
      "lat": 35.8181001614394,
      "lng": 128.51199314795394,
      "title": "대구월배2차아이파크아파트",
      "description": "대구 달서구 월배로5길 76",
      "url": "http://place.map.kakao.com/21927330",
      "region": "대구광역시"
    },
    {
      "lat": 35.81529935257871,
      "lng": 128.5144980219782,
      "title": "대구월배1차아이파크아파트",
      "description": "대구 달서구 조암남로 182",
      "url": "http://place.map.kakao.com/11290679",
      "region": "대구광역시"
    },
    {
      "lat": 35.95204316450504,
      "lng": 128.55463791949626,
      "title": "아이파크아파트",
      "description": "대구 북구 칠곡중앙대로128길 10-6",
      "url": "http://place.map.kakao.com/11260155",
      "region": "대구광역시"
    },
    {
      "lat": 35.13743140642276,
      "lng": 126.92283888658271,
      "title": "무등산아이파크아파트",
      "description": "광주 동구 남문로753번길 20",
      "url": "http://place.map.kakao.com/25733066",
      "region": "광주광역시"
    },
    {
      "lat": 35.16150210212683,
      "lng": 126.92548221408205,
      "title": "계림아이파크에스케이뷰아파트",
      "description": "광주 동구 필문대로 70",
      "url": "http://place.map.kakao.com/1384873128",
      "region": "광주광역시"
    },
    {
      "lat": 35.15888968261624,
      "lng": 126.88017852070217,
      "title": "광주센테니얼아이파크1단지아파트 (2027년11월예정)",
      "description": "광주 서구 화정동 23-27",
      "url": "http://place.map.kakao.com/506265639",
      "region": "광주광역시"
    },
    {
      "lat": 35.15888833997205,
      "lng": 126.87882852731634,
      "title": "광주센테니얼아이파크2단지아파트 (2027년12월예정)",
      "description": "광주 서구 화운로230번길 20",
      "url": "http://place.map.kakao.com/1002803807",
      "region": "광주광역시"
    },
    {
      "lat": 35.17968354388479,
      "lng": 126.8911516309146,
      "title": "용봉아이파크아파트",
      "description": "광주 북구 비엔날레로82번길 41",
      "url": "http://place.map.kakao.com/11324140",
      "region": "광주광역시"
    },
    {
      "lat": 35.17951346826594,
      "lng": 126.86870334021162,
      "title": "운암산아이파크아파트",
      "description": "광주 북구 서강로 77",
      "url": "http://place.map.kakao.com/11362485",
      "region": "광주광역시"
    },
    {
      "lat": 36.31109261650738,
      "lng": 127.46028144480768,
      "title": "은어송마을3단지아이파크아파트",
      "description": "대전 동구 은어송로 117",
      "url": "http://place.map.kakao.com/11037110",
      "region": "대전광역시"
    },
    {
      "lat": 36.34242386655352,
      "lng": 127.38059765826938,
      "title": "둔산자이아이파크아파트",
      "description": "대전 서구 계룡로 520",
      "url": "http://place.map.kakao.com/818390800",
      "region": "대전광역시"
    },
    {
      "lat": 36.322234049843864,
      "lng": 127.34615495268864,
      "title": "대전도안아이파크아파트",
      "description": "대전 서구 도안동로 183",
      "url": "http://place.map.kakao.com/14821862",
      "region": "대전광역시"
    },
    {
      "lat": 36.337158246288276,
      "lng": 127.32998885986521,
      "title": "대전아이파크시티1단지아파트",
      "description": "대전 유성구 상대복용로29번길 52",
      "url": "http://place.map.kakao.com/1351380561",
      "region": "대전광역시"
    },
    {
      "lat": 36.33502255170059,
      "lng": 127.32995312023456,
      "title": "대전아이파크시티2단지아파트",
      "description": "대전 유성구 상대복용로29번길 51",
      "url": "http://place.map.kakao.com/2080616197",
      "region": "대전광역시"
    },
    {
      "lat": 35.560991771574244,
      "lng": 129.30889661304772,
      "title": "우정아이파크아파트",
      "description": "울산 중구 우정2길 45",
      "url": "http://place.map.kakao.com/11720591",
      "region": "울산광역시"
    },
    {
      "lat": 35.57199840202121,
      "lng": 129.3379974175774,
      "title": "약사아이파크아파트",
      "description": "울산 중구 평산로 50",
      "url": "http://place.map.kakao.com/22670536",
      "region": "울산광역시"
    },
    {
      "lat": 35.56439082002684,
      "lng": 129.3294361178544,
      "title": "복산아이파크아파트",
      "description": "울산 중구 계변로 96",
      "url": "http://place.map.kakao.com/27286209",
      "region": "울산광역시"
    },
    {
      "lat": 35.5522825464638,
      "lng": 129.347030334264,
      "title": "태화강센트럴아이파크아파트 (2028년08월예정)",
      "description": "울산 중구 반구동 554-5",
      "url": "http://place.map.kakao.com/2066731976",
      "region": "울산광역시"
    },
    {
      "lat": 35.53489584236903,
      "lng": 129.29877372252423,
      "title": "문수로아이파크1단지아파트",
      "description": "울산 남구 문수로409번길 20",
      "url": "http://place.map.kakao.com/11076842",
      "region": "울산광역시"
    },
    {
      "lat": 35.53690711317356,
      "lng": 129.30197956693664,
      "title": "문수로2차아이파크1단지아파트",
      "description": "울산 남구 동산로69번길 13",
      "url": "http://place.map.kakao.com/11321371",
      "region": "울산광역시"
    },
    {
      "lat": 35.53688813990763,
      "lng": 129.30410443589489,
      "title": "문수로2차아이파크2단지아파트",
      "description": "울산 남구 동산로69번길 14",
      "url": "http://place.map.kakao.com/11062788",
      "region": "울산광역시"
    },
    {
      "lat": 35.532943633272204,
      "lng": 129.2973819681763,
      "title": "대공원아이파크1단지아파트",
      "description": "울산 남구 문수로410번길 10",
      "url": "http://place.map.kakao.com/11304707",
      "region": "울산광역시"
    },
    {
      "lat": 35.53050068153545,
      "lng": 129.29885551771315,
      "title": "대공원아이파크2단지아파트",
      "description": "울산 남구 대공원로99번길 38",
      "url": "http://place.map.kakao.com/11373816",
      "region": "울산광역시"
    },
    {
      "lat": 35.536803617327045,
      "lng": 129.29776988291633,
      "title": "문수로아이파크2단지아파트",
      "description": "울산 남구 문수로409번길 23",
      "url": "http://place.map.kakao.com/11071762",
      "region": "울산광역시"
    },
    {
      "lat": 35.48646182050217,
      "lng": 129.4120742179971,
      "title": "문현아이파크아파트",
      "description": "울산 동구 문현6길 19",
      "url": "http://place.map.kakao.com/12802970",
      "region": "울산광역시"
    },
    {
      "lat": 35.510173192249624,
      "lng": 129.4225296077757,
      "title": "전하아이파크1단지아파트",
      "description": "울산 동구 봉수로 270",
      "url": "http://place.map.kakao.com/14660698",
      "region": "울산광역시"
    },
    {
      "lat": 35.50980352926143,
      "lng": 129.42523049350248,
      "title": "전하아이파크2단지아파트",
      "description": "울산 동구 봉수로 270",
      "url": "http://place.map.kakao.com/14660702",
      "region": "울산광역시"
    },
    {
      "lat": 35.63524228039868,
      "lng": 129.3306027760125,
      "title": "달천아이파크1단지아파트",
      "description": "울산 북구 달천로 50",
      "url": "http://place.map.kakao.com/11009838",
      "region": "울산광역시"
    },
    {
      "lat": 35.63374990250408,
      "lng": 129.32726152439528,
      "title": "달천아이파크2단지아파트",
      "description": "울산 북구 달천로 103-19",
      "url": "http://place.map.kakao.com/11336287",
      "region": "울산광역시"
    },
    {
      "lat": 35.631724246071656,
      "lng": 129.32689374397626,
      "title": "달천아이파크3단지아파트",
      "description": "울산 북구 달천로 103-20",
      "url": "http://place.map.kakao.com/11010718",
      "region": "울산광역시"
    },
    {
      "lat": 36.48206768129937,
      "lng": 127.25163973891694,
      "title": "새뜸마을5단지메이저시티아이파크아파트",
      "description": "세종특별자치시 새롬중앙로 19",
      "url": "http://place.map.kakao.com/26157290",
      "region": "세종특별자치시"
    },
    {
      "lat": 37.89065949454591,
      "lng": 127.75577959555005,
      "title": "춘천장학아이파크아파트",
      "description": "강원특별자치도 춘천시 동면 만천로 242",
      "url": "http://place.map.kakao.com/14102607",
      "region": "강원특별자치도"
    },
    {
      "lat": 37.8920838399346,
      "lng": 127.755501988602,
      "title": "춘천동면아이파크아파트 (예정)",
      "description": "강원특별자치도 춘천시 동면 장학리 883",
      "url": "http://place.map.kakao.com/184073123",
      "region": "강원특별자치도"
    },
    {
      "lat": 37.33479227582575,
      "lng": 127.96405582661077,
      "title": "원주반곡아이파크아파트",
      "description": "강원특별자치도 원주시 늘품로 199",
      "url": "http://place.map.kakao.com/11073829",
      "region": "강원특별자치도"
    },
    {
      "lat": 37.77499634168533,
      "lng": 128.9354001637973,
      "title": "강릉아이파크아파트",
      "description": "강원특별자치도 강릉시 경강로 2511",
      "url": "http://place.map.kakao.com/2097192295",
      "region": "강원특별자치도"
    },
    {
      "lat": 37.7755921268262,
      "lng": 128.940089291608,
      "title": "강릉오션시티아이파크아파트 (2026년08월예정)",
      "description": "강원특별자치도 강릉시 견소동 244-2",
      "url": "http://place.map.kakao.com/1411347302",
      "region": "강원특별자치도"
    },
    {
      "lat": 37.47685266205285,
      "lng": 129.1082454273326,
      "title": "동해아이파크아파트",
      "description": "강원특별자치도 동해시 배골길 32-4",
      "url": "http://place.map.kakao.com/808179032",
      "region": "강원특별자치도"
    },
    {
      "lat": 38.192585384785545,
      "lng": 128.59971963475837,
      "title": "속초청호아이파크아파트",
      "description": "강원특별자치도 속초시 청호로 22",
      "url": "http://place.map.kakao.com/27409188",
      "region": "강원특별자치도"
    },
    {
      "lat": 38.18711842976655,
      "lng": 128.5698854107442,
      "title": "속초2차아이파크아파트",
      "description": "강원특별자치도 속초시 청대마을길 60",
      "url": "http://place.map.kakao.com/1564515970",
      "region": "강원특별자치도"
    },
    {
      "lat": 38.192145342349,
      "lng": 128.598826555144,
      "title": "속초청호아이파크아파트 상가1동",
      "description": "강원특별자치도 속초시 청호로 22",
      "url": "http://place.map.kakao.com/1452185293",
      "region": "강원특별자치도"
    },
    {
      "lat": 37.68467973005844,
      "lng": 127.88490739878858,
      "title": "연봉아이파크아파트",
      "description": "강원특별자치도 홍천군 홍천읍 남산마을길 13-1",
      "url": "http://place.map.kakao.com/11288256",
      "region": "강원특별자치도"
    },
    {
      "lat": 36.61095110118245,
      "lng": 127.4243860680013,
      "title": "가경아이파크5단지아파트",
      "description": "충북 청주시 흥덕구 서부로 1123",
      "url": "http://place.map.kakao.com/2002009773",
      "region": "충청북도"
    },
    {
      "lat": 36.65175171155516,
      "lng": 127.45980908297479,
      "title": "봉명아이파크아파트",
      "description": "충북 청주시 흥덕구 덕암로108번길 44",
      "url": "http://place.map.kakao.com/11205652",
      "region": "충청북도"
    },
    {
      "lat": 36.6174455267008,
      "lng": 127.43142507573211,
      "title": "청주가경아이파크1단지아파트",
      "description": "충북 청주시 흥덕구 서현로 66",
      "url": "http://place.map.kakao.com/397540808",
      "region": "충청북도"
    },
    {
      "lat": 36.61560695790281,
      "lng": 127.42900030422273,
      "title": "청주가경아이파크3단지아파트",
      "description": "충북 청주시 흥덕구 서현로 62",
      "url": "http://place.map.kakao.com/1091476905",
      "region": "충청북도"
    },
    {
      "lat": 36.615974643950736,
      "lng": 127.43148954063294,
      "title": "청주가경아이파크2단지아파트",
      "description": "충북 청주시 흥덕구 서현로 68",
      "url": "http://place.map.kakao.com/547330211",
      "region": "충청북도"
    },
    {
      "lat": 36.6153747271496,
      "lng": 127.436373366504,
      "title": "청주가경아이파크6단지아파트 (2027년01월예정)",
      "description": "충북 청주시 흥덕구 가경동 330",
      "url": "http://place.map.kakao.com/418167824",
      "region": "충청북도"
    },
    {
      "lat": 36.61474005944855,
      "lng": 127.43199574306271,
      "title": "청주가경아이파크4단지아파트",
      "description": "충북 청주시 흥덕구 홍골로 82",
      "url": "http://place.map.kakao.com/1330751542",
      "region": "충청북도"
    },
    {
      "lat": 36.9926433832268,
      "lng": 127.9368179504355,
      "title": "연수아이파크아파트",
      "description": "충북 충주시 연수로1길 12",
      "url": "http://place.map.kakao.com/12477236",
      "region": "충청북도"
    },
    {
      "lat": 36.9186898606054,
      "lng": 127.534388392879,
      "title": "음성아이파크아파트",
      "description": "충북 음성군 맹동면 원중로 1572",
      "url": "http://place.map.kakao.com/2066819348",
      "region": "충청북도"
    },
    {
      "lat": 36.9213519991593,
      "lng": 127.533511390541,
      "title": "음성2차아이파크아파트 (예정)",
      "description": "충북 음성군 맹동면 본성리 401-22",
      "url": "http://place.map.kakao.com/1431892829",
      "region": "충청북도"
    },
    {
      "lat": 36.80854097021694,
      "lng": 127.10928973202542,
      "title": "불당아이파크아파트",
      "description": "충남 천안시 서북구 불당17길 14",
      "url": "http://place.map.kakao.com/8342737",
      "region": "충청남도"
    },
    {
      "lat": 36.806257341873014,
      "lng": 127.13730847646596,
      "title": "봉서산아이파크아파트",
      "description": "충남 천안시 동남구 봉명4길 29",
      "url": "http://place.map.kakao.com/1165572052",
      "region": "충청남도"
    },
    {
      "lat": 36.794719885291784,
      "lng": 127.14459092548951,
      "title": "용곡마을아이파크아파트",
      "description": "충남 천안시 동남구 용곡4길 20",
      "url": "http://place.map.kakao.com/11338677",
      "region": "충청남도"
    },
    {
      "lat": 36.79321943559597,
      "lng": 127.15947176944434,
      "title": "천안아이파크아파트",
      "description": "충남 천안시 동남구 청수로 136-8",
      "url": "http://place.map.kakao.com/11314211",
      "region": "충청남도"
    },
    {
      "lat": 36.771677730299324,
      "lng": 127.00707460169909,
      "title": "용화아이파크아파트",
      "description": "충남 아산시 용화고길 46",
      "url": "http://place.map.kakao.com/12911268",
      "region": "충청남도"
    },
    {
      "lat": 36.7729129279904,
      "lng": 127.01789065082106,
      "title": "아산아이파크아파트",
      "description": "충남 아산시 남부로 321-8",
      "url": "http://place.map.kakao.com/11359567",
      "region": "충청남도"
    },
    {
      "lat": 36.773954889548,
      "lng": 126.464554639382,
      "title": "서산센트럴아이파크아파트 (2026년10월예정)",
      "description": "충남 서산시 석림동 528-1",
      "url": "http://place.map.kakao.com/1828267855",
      "region": "충청남도"
    },
    {
      "lat": 36.2101601728729,
      "lng": 127.091441798556,
      "title": "논산아이파크아파트",
      "description": "충남 논산시 해월로259번길 23",
      "url": "http://place.map.kakao.com/2110994434",
      "region": "충청남도"
    },
    {
      "lat": 36.896729939699235,
      "lng": 126.63973124812,
      "title": "당진아이파크아파트",
      "description": "충남 당진시 당진중앙2로 290",
      "url": "http://place.map.kakao.com/58804971",
      "region": "충청남도"
    },
    {
      "lat": 35.967889577323916,
      "lng": 126.7183292175814,
      "title": "수송아이파크아파트",
      "description": "전북특별자치도 군산시 수송동로 91",
      "url": "http://place.map.kakao.com/11126503",
      "region": "전북특별자치도"
    },
    {
      "lat": 35.96136609704762,
      "lng": 126.72518104883554,
      "title": "군산미장아이파크아파트",
      "description": "전북특별자치도 군산시 미장남로 10",
      "url": "http://place.map.kakao.com/19148016",
      "region": "전북특별자치도"
    },
    {
      "lat": 35.96769010025996,
      "lng": 126.72519461137699,
      "title": "군산미장2차아이파크아파트",
      "description": "전북특별자치도 군산시 미장안길 45",
      "url": "http://place.map.kakao.com/26644373",
      "region": "전북특별자치도"
    },
    {
      "lat": 35.95492401684416,
      "lng": 126.70540850054334,
      "title": "군산호수공원아이파크아파트",
      "description": "전북특별자치도 군산시 백토로 263",
      "url": "http://place.map.kakao.com/1422423057",
      "region": "전북특별자치도"
    },
    {
      "lat": 35.82775016756659,
      "lng": 127.10759260644569,
      "title": "서부신시가지아이파크아파트",
      "description": "전북특별자치도 전주시 완산구 홍산로 390",
      "url": "http://place.map.kakao.com/8615988",
      "region": "전북특별자치도"
    },
    {
      "lat": 35.86172349995448,
      "lng": 127.12991906113933,
      "title": "송천아이파크5단지아파트",
      "description": "전북특별자치도 전주시 덕진구 오송로 45",
      "url": "http://place.map.kakao.com/11364527",
      "region": "전북특별자치도"
    },
    {
      "lat": 35.83048103851094,
      "lng": 127.1252154263467,
      "title": "서신아이파크e편한세상아파트",
      "description": "전북특별자치도 전주시 완산구 전주천서로 445",
      "url": "http://place.map.kakao.com/482326938",
      "region": "전북특별자치도"
    },
    {
      "lat": 35.86207122322183,
      "lng": 127.13172209857403,
      "title": "송천아이파크6단지아파트",
      "description": "전북특별자치도 전주시 덕진구 오송로 47",
      "url": "http://place.map.kakao.com/17793548",
      "region": "전북특별자치도"
    },
    {
      "lat": 35.94675391641719,
      "lng": 126.70598746102813,
      "title": "군산레이크시티아이파크아파트 (2026년12월예정)",
      "description": "전북특별자치도 군산시 지곡동 산 137-1",
      "url": "http://place.map.kakao.com/245679425",
      "region": "전북특별자치도"
    },
    {
      "lat": 35.9639127927242,
      "lng": 126.991037057187,
      "title": "익산부송아이파크아파트 (2026년12월예정)",
      "description": "전북특별자치도 익산시 부송동 279",
      "url": "http://place.map.kakao.com/1121816387",
      "region": "전북특별자치도"
    },
    {
      "lat": 34.81156302921146,
      "lng": 126.45680662922301,
      "title": "남악신도시아이파크아파트",
      "description": "전남 무안군 삼향읍 남악2로74번길 14",
      "url": "http://place.map.kakao.com/11024496",
      "region": "전라남도"
    },
    {
      "lat": 35.94639683075874,
      "lng": 129.40730364063333,
      "title": "포항아이파크아파트",
      "description": "경북 포항시 남구 오천읍 해병로559번길 7",
      "url": "http://place.map.kakao.com/1545911446",
      "region": "경상북도"
    },
    {
      "lat": 36.06382840766038,
      "lng": 129.37285231635286,
      "title": "창포1차아이파크아파트",
      "description": "경북 포항시 북구 대곡로 7",
      "url": "http://place.map.kakao.com/11291604",
      "region": "경상북도"
    },
    {
      "lat": 36.06518793234727,
      "lng": 129.3728099357526,
      "title": "창포2차아이파크아파트",
      "description": "경북 포항시 북구 대곡로 21",
      "url": "http://place.map.kakao.com/11205670",
      "region": "경상북도"
    },
    {
      "lat": 36.063579044084115,
      "lng": 129.37506975432478,
      "title": "창포3차아이파크아파트",
      "description": "경북 포항시 북구 새천년대로1076번길 38",
      "url": "http://place.map.kakao.com/7991496",
      "region": "경상북도"
    },
    {
      "lat": 36.065123959541346,
      "lng": 129.37458355376975,
      "title": "창포4차아이파크아파트",
      "description": "경북 포항시 북구 대곡로 22",
      "url": "http://place.map.kakao.com/11205671",
      "region": "경상북도"
    },
    {
      "lat": 36.149504691228984,
      "lng": 128.31619283812336,
      "title": "봉곡아이파크2차아파트",
      "description": "경북 구미시 봉곡남로20길 15",
      "url": "http://place.map.kakao.com/11260850",
      "region": "경상북도"
    },
    {
      "lat": 36.12995107238979,
      "lng": 128.33691974909593,
      "title": "구미아이파크더샵아파트",
      "description": "경북 구미시 금오산로6길 12",
      "url": "http://place.map.kakao.com/2051316578",
      "region": "경상북도"
    },
    {
      "lat": 36.82013671221142,
      "lng": 128.6342963281435,
      "title": "영주아이파크아파트",
      "description": "경북 영주시 남간로71번길 41",
      "url": "http://place.map.kakao.com/1533085588",
      "region": "경상북도"
    },
    {
      "lat": 35.843618495772446,
      "lng": 128.76718475231954,
      "title": "경산아이파크아파트",
      "description": "경북 경산시 압량읍 압독5로 12",
      "url": "http://place.map.kakao.com/356685203",
      "region": "경상북도"
    },
    {
      "lat": 36.5760003757198,
      "lng": 128.485001096622,
      "title": "경북도청아이파크아파트",
      "description": "경북 예천군 호명읍 새움3로 7",
      "url": "http://place.map.kakao.com/891375050",
      "region": "경상북도"
    },
    {
      "lat": 35.22971204398048,
      "lng": 128.67842732581147,
      "title": "용지아이파크아파트",
      "description": "경남 창원시 성산구 원이대로579번길 13",
      "url": "http://place.map.kakao.com/26404329",
      "region": "경상남도"
    },
    {
      "lat": 35.19649000755667,
      "lng": 128.57301457009586,
      "title": "마산만아이파크아파트",
      "description": "경남 창원시 마산합포구 제2부두로 17",
      "url": "http://place.map.kakao.com/11364171",
      "region": "경상남도"
    },
    {
      "lat": 35.2225575497017,
      "lng": 128.691611671981,
      "title": "창원센트럴아이파크아파트 (2026년09월예정)",
      "description": "경남 창원시 성산구 신사로 64",
      "url": "http://place.map.kakao.com/1900695856",
      "region": "경상남도"
    },
    {
      "lat": 35.21640906506217,
      "lng": 128.1455649704414,
      "title": "금산아이파크아파트",
      "description": "경남 진주시 금산면 중천로 82",
      "url": "http://place.map.kakao.com/11354978",
      "region": "경상남도"
    },
    {
      "lat": 34.87341676846427,
      "lng": 128.6471713681336,
      "title": "거제아이파크1차아파트",
      "description": "경남 거제시 양정5길 36",
      "url": "http://place.map.kakao.com/26409436",
      "region": "경상남도"
    },
    {
      "lat": 34.86628394558219,
      "lng": 128.65043861606827,
      "title": "거제2차아이파크1단지아파트 207동",
      "description": "경남 거제시 수양로 110",
      "url": "http://place.map.kakao.com/26908039",
      "region": "경상남도"
    },
    {
      "lat": 35.25877939650494,
      "lng": 128.8645563746861,
      "title": "삼계아이파크아파트",
      "description": "경남 김해시 김해대로 1870",
      "url": "http://place.map.kakao.com/23080537",
      "region": "경상남도"
    },
    {
      "lat": 35.2570084976718,
      "lng": 128.8650871177239,
      "title": "구산아이파크아파트",
      "description": "경남 김해시 김해대로 1902",
      "url": "http://place.map.kakao.com/17322342",
      "region": "경상남도"
    },
    {
      "lat": 35.264466742417234,
      "lng": 128.87022017363347,
      "title": "화정마을4단지아이파크가야아파트",
      "description": "경남 김해시 해반천로168번길 23",
      "url": "http://place.map.kakao.com/11372608",
      "region": "경상남도"
    },
    {
      "lat": 35.2683155368522,
      "lng": 128.868656002544,
      "title": "분성마을1단지분성아이파크아파트",
      "description": "경남 김해시 삼계로 232",
      "url": "http://place.map.kakao.com/11199734",
      "region": "경상남도"
    },
    {
      "lat": 35.2697629069995,
      "lng": 128.869001324833,
      "title": "분성마을1단지분성아이파크아파트 아파트상가",
      "description": "경남 김해시 가야로 72",
      "url": "http://place.map.kakao.com/23836140",
      "region": "경상남도"
    },
    {
      "lat": 34.865734654390764,
      "lng": 128.65418268312857,
      "title": "거제2차아이파크2단지아파트",
      "description": "경남 거제시 수양로 110",
      "url": "http://place.map.kakao.com/26883870",
      "region": "경상남도"
    },
    {
      "lat": 34.86641304060856,
      "lng": 128.6513520808321,
      "title": "거제2차아이파크1단지아파트",
      "description": "경남 거제시 수양로 110",
      "url": "http://place.map.kakao.com/26788967",
      "region": "경상남도"
    },
    {
      "lat": 33.47582581681852,
      "lng": 126.55061682549312,
      "title": "아라아이파크아파트",
      "description": "제주특별자치도 제주시 인다1길 20",
      "url": "http://place.map.kakao.com/15176637",
      "region": "제주특별자치도"
    },
    {
      "lat": 33.48063661810588,
      "lng": 126.48391996294167,
      "title": "노형아이파크아파트",
      "description": "제주특별자치도 제주시 원노형로 90",
      "url": "http://place.map.kakao.com/11014083",
      "region": "제주특별자치도"
    },
    {
      "lat": 33.32245957636417,
      "lng": 126.26136593613185,
      "title": "곶자왈아이파크",
      "description": "제주특별자치도 제주시 한경면 녹차분재로 609",
      "url": "http://place.map.kakao.com/633165179",
      "region": "제주특별자치도"
    },
    {
      "lat": 33.48266234221815,
      "lng": 126.47957086307689,
      "title": "노형2차아이파크아파트",
      "description": "제주특별자치도 제주시 노형12길 24",
      "url": "http://place.map.kakao.com/17645970",
      "region": "제주특별자치도"
    }
  ]
}