{
  "pins": [
    {
      "lat": 37.48518724018239,
      "lng": 127.07146417569656,
      "title": "개포자이프레지던스아파트",
      "description": "서울 강남구 삼성로 14",
      "url": "http://place.map.kakao.com/751798094",
      "region": "서울특별시"
    },
    {
      "lat": 37.49093338684232,
      "lng": 127.07514348665778,
      "title": "디에이치자이개포아파트",
      "description": "서울 강남구 영동대로 22",
      "url": "http://place.map.kakao.com/292799815",
      "region": "서울특별시"
    },
    {
      "lat": 37.52360216335555,
      "lng": 127.05719611767924,
      "title": "청담자이아파트",
      "description": "서울 강남구 영동대로138길 12",
      "url": "http://place.map.kakao.com/11151573",
      "region": "서울특별시"
    },
    {
      "lat": 37.500386994160536,
      "lng": 127.04437885710304,
      "title": "역삼자이아파트",
      "description": "서울 강남구 언주로 420",
      "url": "http://place.map.kakao.com/26303797",
      "region": "서울특별시"
    },
    {
      "lat": 37.49629793080916,
      "lng": 127.07662573862186,
      "title": "개포자이아파트",
      "description": "서울 강남구 개포로109길 69",
      "url": "http://place.map.kakao.com/11291097",
      "region": "서울특별시"
    },
    {
      "lat": 37.4972051412092,
      "lng": 127.04771638589,
      "title": "역삼센트럴자이아파트 (2028년08월예정)",
      "description": "서울 강남구 역삼동 758",
      "url": "http://place.map.kakao.com/201125808",
      "region": "서울특별시"
    },
    {
      "lat": 37.55234547559315,
      "lng": 127.17061754567607,
      "title": "고덕자이아파트",
      "description": "서울 강동구 상일로 55",
      "url": "http://place.map.kakao.com/206992471",
      "region": "서울특별시"
    },
    {
      "lat": 37.5393053255164,
      "lng": 127.149338475704,
      "title": "강동헤리티지자이아파트",
      "description": "서울 강동구 천중로 264",
      "url": "http://place.map.kakao.com/980717838",
      "region": "서울특별시"
    },
    {
      "lat": 37.53801268222193,
      "lng": 127.14982016649486,
      "title": "GS강동자이아파트",
      "description": "서울 강동구 천호대로 1239",
      "url": "http://place.map.kakao.com/11322348",
      "region": "서울특별시"
    },
    {
      "lat": 37.5371031217265,
      "lng": 127.148035173192,
      "title": "GS강동자이아파트 상가동",
      "description": "서울 강동구 천호대로199길 10",
      "url": "http://place.map.kakao.com/26450557",
      "region": "서울특별시"
    },
    {
      "lat": 37.626996085088045,
      "lng": 127.02089821784708,
      "title": "북서울자이폴라리스아파트",
      "description": "서울 강북구 삼양로58길 29",
      "url": "http://place.map.kakao.com/1623649852",
      "region": "서울특별시"
    },
    {
      "lat": 37.614190955806336,
      "lng": 127.0571861460183,
      "title": "장위자이레디언트아파트",
      "description": "서울 성북구 돌곶이로30길 63",
      "url": "http://place.map.kakao.com/445470482",
      "region": "서울특별시"
    },
    {
      "lat": 37.56624478062903,
      "lng": 126.84895972005735,
      "title": "강서한강자이아파트",
      "description": "서울 강서구 양천로55길 55",
      "url": "http://place.map.kakao.com/13323315",
      "region": "서울특별시"
    },
    {
      "lat": 37.58041787533947,
      "lng": 126.86183715312791,
      "title": "DMC한강자이더헤리티지아파트",
      "description": "경기 고양시 덕양구 대덕산로 20",
      "url": "http://place.map.kakao.com/161114538",
      "region": "경기도"
    },
    {
      "lat": 37.580159988797575,
      "lng": 126.86876612290109,
      "title": "DMC자이더리버아파트",
      "description": "경기 고양시 덕양구 대덕산로 90",
      "url": "http://place.map.kakao.com/526724336",
      "region": "경기도"
    },
    {
      "lat": 37.58116774506965,
      "lng": 126.85975153092798,
      "title": "DMC자이더포레리버뷰아파트",
      "description": "경기 고양시 덕양구 대덕산로 21",
      "url": "http://place.map.kakao.com/916720726",
      "region": "경기도"
    },
    {
      "lat": 37.52480793717918,
      "lng": 126.88689106116661,
      "title": "영등포자이디그니티아파트 (2026년03월예정)",
      "description": "서울 영등포구 양평동1가 265-1",
      "url": "http://place.map.kakao.com/1554025568",
      "region": "서울특별시"
    },
    {
      "lat": 37.57993169296888,
      "lng": 126.90287567006922,
      "title": "DMC센트럴자이아파트",
      "description": "서울 은평구 수색로 200",
      "url": "http://place.map.kakao.com/265821045",
      "region": "서울특별시"
    },
    {
      "lat": 37.50926957377279,
      "lng": 126.86891069024786,
      "title": "목동파크자이아파트",
      "description": "서울 양천구 목동남로4길 80",
      "url": "http://place.map.kakao.com/1149217573",
      "region": "서울특별시"
    },
    {
      "lat": 37.5160710059939,
      "lng": 126.8968311174426,
      "title": "문래자이아파트",
      "description": "서울 영등포구 당산로4길 12",
      "url": "http://place.map.kakao.com/11061269",
      "region": "서울특별시"
    },
    {
      "lat": 37.58519837623507,
      "lng": 126.89798345642319,
      "title": "DMC아트포레자이아파트",
      "description": "서울 은평구 은평터널로 27",
      "url": "http://place.map.kakao.com/399591340",
      "region": "서울특별시"
    },
    {
      "lat": 37.583781991457776,
      "lng": 126.89589202187922,
      "title": "DMC파인시티자이아파트",
      "description": "서울 은평구 은평터널로 15",
      "url": "http://place.map.kakao.com/1805352330",
      "region": "서울특별시"
    },
    {
      "lat": 37.51109643400055,
      "lng": 126.89981944726368,
      "title": "영등포아트자이아파트",
      "description": "서울 영등포구 도영로 66",
      "url": "http://place.map.kakao.com/17672811",
      "region": "서울특별시"
    },
    {
      "lat": 37.57289919471,
      "lng": 126.917999231146,
      "title": "DMC파크뷰자이아파트",
      "description": "서울 서대문구 가재울미래로 2",
      "url": "http://place.map.kakao.com/1991743829",
      "region": "서울특별시"
    },
    {
      "lat": 37.4887916639123,
      "lng": 126.863471505985,
      "title": "광명자이더샵포레나아파트",
      "description": "경기 광명시 사성로75번길 1",
      "url": "http://place.map.kakao.com/1426798345",
      "region": "경기도"
    },
    {
      "lat": 37.57959297097762,
      "lng": 126.89864998628089,
      "title": "DMC자이1단지아파트",
      "description": "서울 은평구 수색로 217",
      "url": "http://place.map.kakao.com/11122651",
      "region": "서울특별시"
    },
    {
      "lat": 37.57741217466742,
      "lng": 126.91915917792936,
      "title": "DMC에코자이아파트",
      "description": "서울 서대문구 거북골로 84",
      "url": "http://place.map.kakao.com/1418511487",
      "region": "서울특별시"
    },
    {
      "lat": 37.54485415372522,
      "lng": 126.92812246055149,
      "title": "한강밤섬자이아파트",
      "description": "서울 마포구 토정로 158",
      "url": "http://place.map.kakao.com/11219543",
      "region": "서울특별시"
    },
    {
      "lat": 37.49989519507934,
      "lng": 126.88411498579121,
      "title": "신구로자이나인스에비뉴아파트",
      "description": "서울 구로구 구로중앙로 134",
      "url": "http://place.map.kakao.com/8044074",
      "region": "서울특별시"
    },
    {
      "lat": 37.48869789536163,
      "lng": 126.96244633510504,
      "title": "사당자이아파트",
      "description": "서울 동작구 사당로2가길 102",
      "url": "http://place.map.kakao.com/11387764",
      "region": "서울특별시"
    },
    {
      "lat": 37.501700213099156,
      "lng": 126.96209715469666,
      "title": "흑석자이아파트",
      "description": "서울 동작구 서달로 90",
      "url": "http://place.map.kakao.com/1907158350",
      "region": "서울특별시"
    },
    {
      "lat": 37.49844834956893,
      "lng": 126.92575255084692,
      "title": "보라매자이더포레스트아파트",
      "description": "서울 동작구 여의대방로22길 121",
      "url": "http://place.map.kakao.com/25129918",
      "region": "서울특별시"
    },
    {
      "lat": 37.484395388590755,
      "lng": 126.98021795585447,
      "title": "이수자이아파트",
      "description": "서울 동작구 사당로 300",
      "url": "http://place.map.kakao.com/11173345",
      "region": "서울특별시"
    },
    {
      "lat": 37.50590132500364,
      "lng": 126.93800391693863,
      "title": "상도파크자이아파트",
      "description": "서울 동작구 장승배기로11가길 11",
      "url": "http://place.map.kakao.com/26139776",
      "region": "서울특별시"
    },
    {
      "lat": 37.50268139402067,
      "lng": 126.93850532242307,
      "title": "동작센트럴자이아파트 (2028년01월예정)",
      "description": "서울 동작구 상도동 182-13",
      "url": "http://place.map.kakao.com/564105671",
      "region": "서울특별시"
    },
    {
      "lat": 37.542574305367815,
      "lng": 127.09524841320214,
      "title": "광장자이아파트",
      "description": "서울 광진구 광나루로 595",
      "url": "http://place.map.kakao.com/11272762",
      "region": "서울특별시"
    },
    {
      "lat": 37.56777513651158,
      "lng": 127.05963520656783,
      "title": "답십리파크자이아파트",
      "description": "서울 동대문구 답십리로56길 105",
      "url": "http://place.map.kakao.com/476725361",
      "region": "서울특별시"
    },
    {
      "lat": 37.55555294967707,
      "lng": 127.03832055267158,
      "title": "서울숲리버뷰자이아파트",
      "description": "서울 성동구 고산자로2길 65",
      "url": "http://place.map.kakao.com/27276700",
      "region": "서울특별시"
    },
    {
      "lat": 37.5674552609793,
      "lng": 127.04997858380025,
      "title": "성동자이리버뷰아파트 (2027년02월예정)",
      "description": "서울 성동구 용답동 108-1",
      "url": "http://place.map.kakao.com/1794960298",
      "region": "서울특별시"
    },
    {
      "lat": 37.56074812779818,
      "lng": 127.0247131533248,
      "title": "왕십리자이아파트",
      "description": "서울 성동구 난계로 100",
      "url": "http://place.map.kakao.com/27149061",
      "region": "서울특별시"
    },
    {
      "lat": 37.59296807126167,
      "lng": 127.06263212425122,
      "title": "휘경자이디센시아아파트",
      "description": "서울 동대문구 외대역동로 63-27",
      "url": "http://place.map.kakao.com/1447286797",
      "region": "서울특별시"
    },
    {
      "lat": 37.5116527150458,
      "lng": 127.012628418901,
      "title": "메이플자이아파트",
      "description": "서울 서초구 신반포로 251",
      "url": "http://place.map.kakao.com/2113053853",
      "region": "서울특별시"
    },
    {
      "lat": 37.55540086629908,
      "lng": 127.01899726814243,
      "title": "신금호파크자이아파트",
      "description": "서울 성동구 금호로 173",
      "url": "http://place.map.kakao.com/26832254",
      "region": "서울특별시"
    },
    {
      "lat": 37.550353859612535,
      "lng": 127.02197563880478,
      "title": "금호자이2차아파트",
      "description": "서울 성동구 금호산8길 14",
      "url": "http://place.map.kakao.com/11506150",
      "region": "서울특별시"
    },
    {
      "lat": 37.598186166296394,
      "lng": 127.06346879756117,
      "title": "이문아이파크자이아파트",
      "description": "서울 동대문구 이문로 120",
      "url": "http://place.map.kakao.com/369952024",
      "region": "서울특별시"
    },
    {
      "lat": 37.507593627369744,
      "lng": 127.01319324046412,
      "title": "반포자이아파트",
      "description": "서울 서초구 신반포로 270",
      "url": "http://place.map.kakao.com/12143684",
      "region": "서울특별시"
    },
    {
      "lat": 37.55283872292237,
      "lng": 127.02245281162591,
      "title": "금호센트럴자이아파트",
      "description": "서울 성동구 금호로 117",
      "url": "http://place.map.kakao.com/11034330",
      "region": "서울특별시"
    },
    {
      "lat": 37.503557263787044,
      "lng": 126.89213001831396,
      "title": "LG신도림자이아파트",
      "description": "서울 구로구 새말로18길 64",
      "url": "http://place.map.kakao.com/11000382",
      "region": "서울특별시"
    },
    {
      "lat": 37.4820773430043,
      "lng": 126.869032832512,
      "title": "철산자이더헤리티지아파트",
      "description": "경기 광명시 시청로 70",
      "url": "http://place.map.kakao.com/1618567750",
      "region": "경기도"
    },
    {
      "lat": 37.48555576163277,
      "lng": 126.8686966027987,
      "title": "철산자이브리에르아파트 (2026년01월예정)",
      "description": "경기 광명시 시청로 100",
      "url": "http://place.map.kakao.com/797733235",
      "region": "경기도"
    },
    {
      "lat": 37.4824079313338,
      "lng": 126.861072618925,
      "title": "광명자이힐스테이트SKVIEW아파트 (2027년07월예정)",
      "description": "경기 광명시 광명동 78-38",
      "url": "http://place.map.kakao.com/1210619910",
      "region": "경기도"
    },
    {
      "lat": 37.47182065304716,
      "lng": 126.87437750854227,
      "title": "철산래미안자이아파트",
      "description": "경기 광명시 디지털로 56",
      "url": "http://place.map.kakao.com/11156574",
      "region": "경기도"
    },
    {
      "lat": 37.474735604554,
      "lng": 126.86475081953742,
      "title": "철산역자이아파트 (2029년05월예정)",
      "description": "경기 광명시 철산동 472-267",
      "url": "http://place.map.kakao.com/253310061",
      "region": "경기도"
    },
    {
      "lat": 37.48600365117445,
      "lng": 126.90225001530679,
      "title": "신대림자이2단지아파트",
      "description": "서울 영등포구 시흥대로 589-8",
      "url": "http://place.map.kakao.com/19146905",
      "region": "서울특별시"
    },
    {
      "lat": 37.48655161665039,
      "lng": 126.9024347350014,
      "title": "신대림자이1단지아파트",
      "description": "서울 영등포구 시흥대로173길 13",
      "url": "http://place.map.kakao.com/8619659",
      "region": "서울특별시"
    },
    {
      "lat": 37.471717137009186,
      "lng": 126.8548081305491,
      "title": "광명아크포레자이위브아파트",
      "description": "경기 광명시 새터로 44-7",
      "url": "http://place.map.kakao.com/2033867660",
      "region": "경기도"
    },
    {
      "lat": 37.4717299451265,
      "lng": 126.873807903748,
      "title": "철산래미안자이아파트 커뮤니티센터 골프연습장",
      "description": "경기 광명시 디지털로 56",
      "url": "http://place.map.kakao.com/25826620",
      "region": "경기도"
    },
    {
      "lat": 37.61485753975242,
      "lng": 127.0779070476499,
      "title": "묵동자이1단지아파트",
      "description": "서울 중랑구 숙선옹주로 6-9",
      "url": "http://place.map.kakao.com/11348983",
      "region": "서울특별시"
    },
    {
      "lat": 37.61384506222776,
      "lng": 127.07755261463473,
      "title": "묵동자이2단지아파트",
      "description": "서울 중랑구 동일로 932",
      "url": "http://place.map.kakao.com/11331995",
      "region": "서울특별시"
    },
    {
      "lat": 37.643788073234,
      "lng": 127.122593887416,
      "title": "별내자이더스타아파트",
      "description": "경기 남양주시 별내1로 13-21",
      "url": "http://place.map.kakao.com/1176771485",
      "region": "경기도"
    },
    {
      "lat": 37.7320241822879,
      "lng": 127.05033402210248,
      "title": "의정부역센트럴자이앤위브캐슬아파트",
      "description": "경기 의정부시 경의로 132",
      "url": "http://place.map.kakao.com/90116118",
      "region": "경기도"
    },
    {
      "lat": 37.73393403167369,
      "lng": 127.08264883554395,
      "title": "탑석센트럴자이아파트",
      "description": "경기 의정부시 용민로 10",
      "url": "http://place.map.kakao.com/1057525702",
      "region": "경기도"
    },
    {
      "lat": 37.6005950582979,
      "lng": 127.055220053858,
      "title": "이문아이파크자이3단지아파트 (2026년05월예정)",
      "description": "서울 동대문구 이문동 412-1",
      "url": "http://place.map.kakao.com/1442770941",
      "region": "서울특별시"
    },
    {
      "lat": 37.55279145748242,
      "lng": 126.94775537481384,
      "title": "마포프레스티지자이아파트",
      "description": "서울 마포구 대흥로24길 24",
      "url": "http://place.map.kakao.com/44253327",
      "region": "서울특별시"
    },
    {
      "lat": 37.55539284265104,
      "lng": 126.9442621635983,
      "title": "마포그랑자이아파트",
      "description": "서울 마포구 대흥로 175",
      "url": "http://place.map.kakao.com/280246370",
      "region": "서울특별시"
    },
    {
      "lat": 37.553464139564994,
      "lng": 126.9581496018769,
      "title": "공덕자이아파트",
      "description": "서울 마포구 마포대로24길 16",
      "url": "http://place.map.kakao.com/20149391",
      "region": "서울특별시"
    },
    {
      "lat": 37.549254596839106,
      "lng": 126.94107324716165,
      "title": "마포자이2차아파트",
      "description": "서울 마포구 서강대길 40",
      "url": "http://place.map.kakao.com/14584821",
      "region": "서울특별시"
    },
    {
      "lat": 37.54332439933669,
      "lng": 126.94518317896495,
      "title": "마포자이1차아파트",
      "description": "서울 마포구 독막로42길 2",
      "url": "http://place.map.kakao.com/10994467",
      "region": "서울특별시"
    },
    {
      "lat": 37.545095870051945,
      "lng": 126.94739750955868,
      "title": "공덕파크자이아파트",
      "description": "서울 마포구 백범로 152",
      "url": "http://place.map.kakao.com/20671223",
      "region": "서울특별시"
    },
    {
      "lat": 37.5502177126027,
      "lng": 126.95778249776,
      "title": "마포자이힐스테이트라첼스아파트 (2027년03월예정)",
      "description": "서울 마포구 공덕동 105-84",
      "url": "http://place.map.kakao.com/1295404321",
      "region": "서울특별시"
    },
    {
      "lat": 37.4890757696272,
      "lng": 127.026237493617,
      "title": "서초그랑자이아파트",
      "description": "서울 서초구 효령로 391",
      "url": "http://place.map.kakao.com/539306415",
      "region": "서울특별시"
    },
    {
      "lat": 37.48571555499237,
      "lng": 127.01156460382079,
      "title": "서초아트자이아파트",
      "description": "서울 서초구 반포대로 58",
      "url": "http://place.map.kakao.com/19146906",
      "region": "서울특별시"
    },
    {
      "lat": 37.47656817630484,
      "lng": 126.99978180519444,
      "title": "방배그랑자이아파트",
      "description": "서울 서초구 방배로 21",
      "url": "http://place.map.kakao.com/723578731",
      "region": "서울특별시"
    },
    {
      "lat": 37.510100663612334,
      "lng": 127.00835958008011,
      "title": "신반포자이아파트",
      "description": "서울 서초구 잠원로 60",
      "url": "http://place.map.kakao.com/916728879",
      "region": "서울특별시"
    },
    {
      "lat": 37.4799784742221,
      "lng": 127.00233354686362,
      "title": "방배아트자이아파트",
      "description": "서울 서초구 명달로9길 57",
      "url": "http://place.map.kakao.com/433319702",
      "region": "서울특별시"
    },
    {
      "lat": 37.50722944665811,
      "lng": 127.0015720973167,
      "title": "반포센트럴자이아파트",
      "description": "서울 서초구 반포대로 310-6",
      "url": "http://place.map.kakao.com/531960271",
      "region": "서울특별시"
    },
    {
      "lat": 37.48493230759048,
      "lng": 127.02026611206024,
      "title": "서초자이아파트",
      "description": "서울 서초구 효령로68길 81",
      "url": "http://place.map.kakao.com/13568122",
      "region": "서울특별시"
    },
    {
      "lat": 37.48642971569626,
      "lng": 126.99905021903616,
      "title": "방배자이아파트",
      "description": "서울 서초구 방배로18길 67",
      "url": "http://place.map.kakao.com/10993546",
      "region": "서울특별시"
    },
    {
      "lat": 37.48883721088123,
      "lng": 126.99930347160756,
      "title": "LG황실자이아파트",
      "description": "서울 서초구 서초대로 156",
      "url": "http://place.map.kakao.com/11287924",
      "region": "서울특별시"
    },
    {
      "lat": 37.50674125308,
      "lng": 127.013402325067,
      "title": "반포자이아파트 자이안센터",
      "description": "서울 서초구 신반포로 270",
      "url": "http://place.map.kakao.com/907711255",
      "region": "서울특별시"
    },
    {
      "lat": 37.4781896265104,
      "lng": 126.990684124138,
      "title": "방배포레스트자이아파트(방배13구역재건축) (예정)",
      "description": "서울 서초구 방배동 541-2",
      "url": "http://place.map.kakao.com/1248003537",
      "region": "서울특별시"
    },
    {
      "lat": 37.5558640118235,
      "lng": 127.018792540797,
      "title": "신금호파크자이아파트 자이안센터",
      "description": "서울 성동구 금호로 173",
      "url": "http://place.map.kakao.com/2082900875",
      "region": "서울특별시"
    },
    {
      "lat": 37.55057741566477,
      "lng": 127.0213849779576,
      "title": "금호자이2차아파트 AS센터",
      "description": "서울 성동구 금호산8길 13",
      "url": "http://place.map.kakao.com/1865895301",
      "region": "서울특별시"
    },
    {
      "lat": 37.58046129585219,
      "lng": 127.01814209646494,
      "title": "보문파크뷰자이아파트",
      "description": "서울 성북구 보문사길 111",
      "url": "http://place.map.kakao.com/26217110",
      "region": "서울특별시"
    },
    {
      "lat": 37.48348658212274,
      "lng": 127.12508913468703,
      "title": "자이파인빌아파트",
      "description": "서울 송파구 송파대로14길 8",
      "url": "http://place.map.kakao.com/12811679",
      "region": "서울특별시"
    },
    {
      "lat": 37.47297249687591,
      "lng": 127.13898678833662,
      "title": "위례센트럴자이아파트",
      "description": "경기 성남시 수정구 위례광장로 97",
      "url": "http://place.map.kakao.com/26314419",
      "region": "경기도"
    },
    {
      "lat": 37.47301951680629,
      "lng": 127.14847845809396,
      "title": "위례자이더시티아파트",
      "description": "경기 성남시 수정구 위례중앙로 190",
      "url": "http://place.map.kakao.com/1894743182",
      "region": "경기도"
    },
    {
      "lat": 37.47072967481327,
      "lng": 127.13839706026656,
      "title": "위례자이아파트",
      "description": "경기 성남시 수정구 위례순환로 100",
      "url": "http://place.map.kakao.com/26097931",
      "region": "경기도"
    },
    {
      "lat": 37.51817243109359,
      "lng": 126.92605313373396,
      "title": "여의도자이아파트",
      "description": "서울 영등포구 여의동로3길 10",
      "url": "http://place.map.kakao.com/10653602",
      "region": "서울특별시"
    },
    {
      "lat": 37.50299031177911,
      "lng": 126.9078328169458,
      "title": "신길센트럴자이아파트",
      "description": "서울 영등포구 신길로29길 17",
      "url": "http://place.map.kakao.com/842363987",
      "region": "서울특별시"
    },
    {
      "lat": 37.50280087235817,
      "lng": 126.91348774030742,
      "title": "신길파크자이아파트",
      "description": "서울 영등포구 신길로28길 25",
      "url": "http://place.map.kakao.com/515776363",
      "region": "서울특별시"
    },
    {
      "lat": 37.506453073362806,
      "lng": 126.91658697132151,
      "title": "신길자이아파트",
      "description": "서울 영등포구 가마산로79길 19",
      "url": "http://place.map.kakao.com/11119228",
      "region": "서울특별시"
    },
    {
      "lat": 37.51994719982742,
      "lng": 126.9711092239615,
      "title": "LG한강자이아파트",
      "description": "서울 용산구 이촌로64길 15",
      "url": "http://place.map.kakao.com/11366531",
      "region": "서울특별시"
    },
    {
      "lat": 37.536533221195576,
      "lng": 126.972709482077,
      "title": "용산파크자이아파트",
      "description": "서울 용산구 한강대로 205",
      "url": "http://place.map.kakao.com/19120054",
      "region": "서울특별시"
    },
    {
      "lat": 37.53517645598329,
      "lng": 126.94671430716014,
      "title": "천년명가청암자이아파트",
      "description": "서울 용산구 삼개로 60",
      "url": "http://place.map.kakao.com/11241162",
      "region": "서울특별시"
    },
    {
      "lat": 37.592433698998406,
      "lng": 126.92209255569122,
      "title": "백련산파크자이아파트",
      "description": "서울 은평구 백련산로 67",
      "url": "http://place.map.kakao.com/1005746548",
      "region": "서울특별시"
    },
    {
      "lat": 37.63497555781559,
      "lng": 126.91793446203492,
      "title": "은평스카이뷰자이아파트",
      "description": "서울 은평구 통일로 1034",
      "url": "http://place.map.kakao.com/980029409",
      "region": "서울특별시"
    },
    {
      "lat": 37.57876843583804,
      "lng": 126.89955677272555,
      "title": "DMC자이2단지아파트",
      "description": "서울 은평구 수색로 217-1",
      "url": "http://place.map.kakao.com/11122652",
      "region": "서울특별시"
    },
    {
      "lat": 37.57071285406483,
      "lng": 126.96370355777283,
      "title": "경희궁자이2단지아파트",
      "description": "서울 종로구 송월길 99",
      "url": "http://place.map.kakao.com/211594893",
      "region": "서울특별시"
    },
    {
      "lat": 37.572037258130855,
      "lng": 126.96351274163912,
      "title": "경희궁자이1단지아파트",
      "description": "서울 종로구 송월길 130",
      "url": "http://place.map.kakao.com/27492171",
      "region": "서울특별시"
    },
    {
      "lat": 37.568979167473906,
      "lng": 126.96615957311965,
      "title": "경희궁자이3단지아파트",
      "description": "서울 종로구 경교장길 35",
      "url": "http://place.map.kakao.com/26805218",
      "region": "서울특별시"
    },
    {
      "lat": 37.57164374593414,
      "lng": 126.96138028600481,
      "title": "경희궁자이4단지아파트",
      "description": "서울 종로구 송월길 155",
      "url": "http://place.map.kakao.com/983635845",
      "region": "서울특별시"
    },
    {
      "lat": 37.5625139447558,
      "lng": 126.99782686628635,
      "title": "남산센트럴자이아파트",
      "description": "서울 중구 퇴계로 235",
      "url": "http://place.map.kakao.com/11232490",
      "region": "서울특별시"
    },
    {
      "lat": 37.555492962533535,
      "lng": 126.96286779897234,
      "title": "서울역센트럴자이아파트 108동",
      "description": "서울 중구 만리재로 175",
      "url": "http://place.map.kakao.com/26769108",
      "region": "서울특별시"
    },
    {
      "lat": 37.55219705729591,
      "lng": 126.96269289145476,
      "title": "서울역센트럴자이아파트 114동",
      "description": "서울 중구 만리재로 175",
      "url": "http://place.map.kakao.com/26769735",
      "region": "서울특별시"
    },
    {
      "lat": 37.554933292292766,
      "lng": 126.9623916201265,
      "title": "서울역센트럴자이아파트 109동",
      "description": "서울 중구 만리재로 175",
      "url": "http://place.map.kakao.com/26757361",
      "region": "서울특별시"
    },
    {
      "lat": 37.55456849951288,
      "lng": 126.96274263672002,
      "title": "서울역센트럴자이아파트 110동",
      "description": "서울 중구 만리재로 175",
      "url": "http://place.map.kakao.com/26767580",
      "region": "서울특별시"
    },
    {
      "lat": 37.55423617194922,
      "lng": 126.96319096138912,
      "title": "서울역센트럴자이아파트 111동",
      "description": "서울 중구 만리재로 175",
      "url": "http://place.map.kakao.com/26764332",
      "region": "서울특별시"
    },
    {
      "lat": 37.554580804222155,
      "lng": 126.96466768703917,
      "title": "서울역센트럴자이아파트 104동",
      "description": "서울 중구 만리재로 175",
      "url": "http://place.map.kakao.com/26755071",
      "region": "서울특별시"
    },
    {
      "lat": 37.553887935328895,
      "lng": 126.96466235559978,
      "title": "서울역센트럴자이아파트 102동",
      "description": "서울 중구 만리재로 175",
      "url": "http://place.map.kakao.com/26768045",
      "region": "서울특별시"
    },
    {
      "lat": 37.55482556742474,
      "lng": 126.96365241493766,
      "title": "서울역센트럴자이아파트 106동",
      "description": "서울 중구 만리재로 175",
      "url": "http://place.map.kakao.com/26760826",
      "region": "서울특별시"
    },
    {
      "lat": 37.555218286434524,
      "lng": 126.96327762154486,
      "title": "서울역센트럴자이아파트 107동",
      "description": "서울 중구 만리재로 175",
      "url": "http://place.map.kakao.com/26759277",
      "region": "서울특별시"
    },
    {
      "lat": 37.554303383964296,
      "lng": 126.96495980080189,
      "title": "서울역센트럴자이아파트 101동",
      "description": "서울 중구 만리재로 175",
      "url": "http://place.map.kakao.com/26770714",
      "region": "서울특별시"
    },
    {
      "lat": 37.55457793364166,
      "lng": 126.96411201368547,
      "title": "서울역센트럴자이아파트 105동",
      "description": "서울 중구 만리재로 175",
      "url": "http://place.map.kakao.com/26758499",
      "region": "서울특별시"
    },
    {
      "lat": 37.553878593803134,
      "lng": 126.96357139175522,
      "title": "서울역센트럴자이아파트 112동",
      "description": "서울 중구 만리재로 175",
      "url": "http://place.map.kakao.com/26765100",
      "region": "서울특별시"
    },
    {
      "lat": 37.55404000291361,
      "lng": 126.96399683699339,
      "title": "서울역센트럴자이아파트 103동",
      "description": "서울 중구 만리재로 175",
      "url": "http://place.map.kakao.com/26757663",
      "region": "서울특별시"
    },
    {
      "lat": 37.553501821719784,
      "lng": 126.96307249363723,
      "title": "서울역센트럴자이아파트 113동",
      "description": "서울 중구 만리재로 175",
      "url": "http://place.map.kakao.com/26757779",
      "region": "서울특별시"
    },
    {
      "lat": 37.304904922248205,
      "lng": 126.99044047047634,
      "title": "북수원자이렉스비아아파트",
      "description": "경기 수원시 장안구 장안로 271",
      "url": "http://place.map.kakao.com/822325949",
      "region": "경기도"
    },
    {
      "lat": 37.23430056511126,
      "lng": 127.05476244986816,
      "title": "영통자이아파트",
      "description": "경기 수원시 영통구 영통로89번길 83",
      "url": "http://place.map.kakao.com/837577418",
      "region": "경기도"
    },
    {
      "lat": 37.23669247511685,
      "lng": 127.05359778591158,
      "title": "동수원자이1차아파트",
      "description": "경기 수원시 영통구 태장로82번길 32",
      "url": "http://place.map.kakao.com/11361642",
      "region": "경기도"
    },
    {
      "lat": 37.27037560840249,
      "lng": 127.02122204371364,
      "title": "수원센트럴아이파크자이아파트",
      "description": "경기 수원시 팔달구 인계로 21",
      "url": "http://place.map.kakao.com/1331817348",
      "region": "경기도"
    },
    {
      "lat": 37.296728674985644,
      "lng": 126.95948326159962,
      "title": "서수원자이아파트",
      "description": "경기 수원시 권선구 입북로 50",
      "url": "http://place.map.kakao.com/11143305",
      "region": "경기도"
    },
    {
      "lat": 37.240367131381916,
      "lng": 127.05317437960677,
      "title": "동수원자이2차아파트",
      "description": "경기 수원시 영통구 태장로71번길 19",
      "url": "http://place.map.kakao.com/10996153",
      "region": "경기도"
    },
    {
      "lat": 37.2525276518556,
      "lng": 127.026245416749,
      "title": "권선자이e편한세상아파트",
      "description": "경기 수원시 권선구 권광로 55",
      "url": "http://place.map.kakao.com/11344061",
      "region": "경기도"
    },
    {
      "lat": 37.27498272508365,
      "lng": 126.99888939133028,
      "title": "수원역푸르지오자이아파트",
      "description": "경기 수원시 팔달구 고등로 15",
      "url": "http://place.map.kakao.com/163876676",
      "region": "경기도"
    },
    {
      "lat": 37.236694714794844,
      "lng": 127.05653236753749,
      "title": "엘지동수원자이3단지아파트",
      "description": "경기 수원시 영통구 영통로 111",
      "url": "http://place.map.kakao.com/11091579",
      "region": "경기도"
    },
    {
      "lat": 37.2543068068298,
      "lng": 127.068013790983,
      "title": "영통자이센트럴파크아파트 (2027년03월예정)",
      "description": "경기 수원시 영통구 영통동 961-11",
      "url": "http://place.map.kakao.com/445085749",
      "region": "경기도"
    },
    {
      "lat": 37.286889613942435,
      "lng": 127.04929849333445,
      "title": "자연앤자이2단지아파트",
      "description": "경기 수원시 영통구 에듀타운로 65",
      "url": "http://place.map.kakao.com/11776995",
      "region": "경기도"
    },
    {
      "lat": 37.28492311132892,
      "lng": 127.05440780939145,
      "title": "자연앤자이3단지아파트",
      "description": "경기 수원시 영통구 도청로17번길 23",
      "url": "http://place.map.kakao.com/11776994",
      "region": "경기도"
    },
    {
      "lat": 37.285166282154286,
      "lng": 127.05059193807227,
      "title": "자연앤자이1단지아파트",
      "description": "경기 수원시 영통구 에듀타운로 35",
      "url": "http://place.map.kakao.com/11776993",
      "region": "경기도"
    },
    {
      "lat": 37.3202256899742,
      "lng": 127.0683416576646,
      "title": "성동마을수지자이아파트",
      "description": "경기 용인시 수지구 성복2로 174",
      "url": "http://place.map.kakao.com/11359682",
      "region": "경기도"
    },
    {
      "lat": 37.308455496171874,
      "lng": 127.10619640438239,
      "title": "죽전자이2차아파트",
      "description": "경기 용인시 기흥구 용구대로2469번길 20",
      "url": "http://place.map.kakao.com/8622687",
      "region": "경기도"
    },
    {
      "lat": 37.44865240764464,
      "lng": 127.14788669682535,
      "title": "산성역자이푸르지오아파트",
      "description": "경기 성남시 수정구 수정로 260",
      "url": "http://place.map.kakao.com/1644281808",
      "region": "경기도"
    },
    {
      "lat": 37.433329171553176,
      "lng": 127.15605164595608,
      "title": "성남자이아파트",
      "description": "경기 성남시 중원구 둔촌대로 363",
      "url": "http://place.map.kakao.com/8001686",
      "region": "경기도"
    },
    {
      "lat": 37.43057980267395,
      "lng": 127.09540687145449,
      "title": "판교밸리포레자이아파트",
      "description": "경기 성남시 수정구 고등로 33",
      "url": "http://place.map.kakao.com/99751011",
      "region": "경기도"
    },
    {
      "lat": 37.4273763172231,
      "lng": 127.10126874059138,
      "title": "판교밸리자이2단지아파트",
      "description": "경기 성남시 수정구 대왕판교로 981",
      "url": "http://place.map.kakao.com/1237634175",
      "region": "경기도"
    },
    {
      "lat": 37.42985225975356,
      "lng": 127.10132856775085,
      "title": "판교밸리자이1단지아파트",
      "description": "경기 성남시 수정구 대왕판교로 995",
      "url": "http://place.map.kakao.com/1640133890",
      "region": "경기도"
    },
    {
      "lat": 37.42597330952395,
      "lng": 127.10141372245283,
      "title": "판교밸리자이3단지아파트",
      "description": "경기 성남시 수정구 대왕판교로 961",
      "url": "http://place.map.kakao.com/1237535744",
      "region": "경기도"
    },
    {
      "lat": 37.68352698398819,
      "lng": 126.81193445899265,
      "title": "위시티일산자이1단지아파트",
      "description": "경기 고양시 일산동구 위시티4로 80",
      "url": "http://place.map.kakao.com/11170477",
      "region": "경기도"
    },
    {
      "lat": 37.672252729208004,
      "lng": 126.81116946311974,
      "title": "일산자이더헤리티지아파트",
      "description": "경기 고양시 일산동구 위시티3로 111",
      "url": "http://place.map.kakao.com/308014602",
      "region": "경기도"
    },
    {
      "lat": 37.67990435088359,
      "lng": 126.81490575353477,
      "title": "위시티일산자이4단지아파트",
      "description": "경기 고양시 일산동구 위시티4로 45",
      "url": "http://place.map.kakao.com/11361609",
      "region": "경기도"
    },
    {
      "lat": 37.66968633265089,
      "lng": 126.7287334791682,
      "title": "킨텍스자이아파트",
      "description": "경기 고양시 일산서구 대화1로 21",
      "url": "http://place.map.kakao.com/11540449",
      "region": "경기도"
    },
    {
      "lat": 37.67360675545152,
      "lng": 126.80995769516397,
      "title": "일산자이2차센트리지아파트",
      "description": "경기 고양시 일산동구 위시티3로 110",
      "url": "http://place.map.kakao.com/33710794",
      "region": "경기도"
    },
    {
      "lat": 37.682510446772895,
      "lng": 126.81578126546157,
      "title": "위시티일산자이2단지아파트",
      "description": "경기 고양시 일산동구 위시티4로 46",
      "url": "http://place.map.kakao.com/11180298",
      "region": "경기도"
    },
    {
      "lat": 37.67857705832618,
      "lng": 126.81252735785634,
      "title": "위시티일산자이아파트",
      "description": "경기 고양시 일산동구 위시티2로11번길 45",
      "url": "http://place.map.kakao.com/11277125",
      "region": "경기도"
    },
    {
      "lat": 37.345809414893026,
      "lng": 127.09011143358968,
      "title": "동천자이아파트",
      "description": "경기 용인시 수지구 고기로 89",
      "url": "http://place.map.kakao.com/1668257278",
      "region": "경기도"
    },
    {
      "lat": 37.26994317010177,
      "lng": 127.14754773128035,
      "title": "스프링카운티자이아파트",
      "description": "경기 용인시 기흥구 동백죽전대로 333",
      "url": "http://place.map.kakao.com/1339506086",
      "region": "경기도"
    },
    {
      "lat": 37.296760771213556,
      "lng": 127.07165884818646,
      "title": "광교자이더클래스아파트",
      "description": "경기 용인시 수지구 광교마을로 62",
      "url": "http://place.map.kakao.com/12789391",
      "region": "경기도"
    },
    {
      "lat": 37.32924311999366,
      "lng": 127.0744879483413,
      "title": "신봉마을자이2차아파트",
      "description": "경기 용인시 수지구 신봉2로 72",
      "url": "http://place.map.kakao.com/10992994",
      "region": "경기도"
    },
    {
      "lat": 37.32828510334282,
      "lng": 127.07193023568661,
      "title": "광교산자이아파트",
      "description": "경기 용인시 수지구 신봉2로 93",
      "url": "http://place.map.kakao.com/20459793",
      "region": "경기도"
    },
    {
      "lat": 37.33156869529207,
      "lng": 127.09002333476028,
      "title": "동천파크자이아파트",
      "description": "경기 용인시 수지구 동천로153번길 79",
      "url": "http://place.map.kakao.com/1823108311",
      "region": "경기도"
    },
    {
      "lat": 37.32627811945828,
      "lng": 127.07821739557576,
      "title": "신봉마을엘지자이1차아파트",
      "description": "경기 용인시 수지구 신봉2로 26",
      "url": "http://place.map.kakao.com/8620343",
      "region": "경기도"
    },
    {
      "lat": 37.341400334473526,
      "lng": 127.0940243634479,
      "title": "동천센트럴자이아파트",
      "description": "경기 용인시 수지구 고기로45번길 40-18",
      "url": "http://place.map.kakao.com/181533698",
      "region": "경기도"
    },
    {
      "lat": 37.320464301045654,
      "lng": 127.06705121250306,
      "title": "성복센트럴자이아파트",
      "description": "경기 용인시 수지구 성복2로 184",
      "url": "http://place.map.kakao.com/8391463",
      "region": "경기도"
    },
    {
      "lat": 37.317145851451386,
      "lng": 127.06533798813635,
      "title": "버들치마을성복자이1차아파트",
      "description": "경기 용인시 수지구 성복1로164번길 20",
      "url": "http://place.map.kakao.com/11358849",
      "region": "경기도"
    },
    {
      "lat": 37.32085006207015,
      "lng": 127.07857279587527,
      "title": "신봉마을자이3차아파트",
      "description": "경기 용인시 수지구 신봉1로71번길 25",
      "url": "http://place.map.kakao.com/10528019",
      "region": "경기도"
    },
    {
      "lat": 37.30427324483125,
      "lng": 127.09059762880963,
      "title": "만현마을9단지LG자이아파트",
      "description": "경기 용인시 수지구 만현로133번길 33",
      "url": "http://place.map.kakao.com/10995906",
      "region": "경기도"
    },
    {
      "lat": 37.3295020687844,
      "lng": 127.101828897618,
      "title": "수지자이에디시온아파트 (2029년02월예정)",
      "description": "경기 용인시 수지구 풍덕천동 71-1",
      "url": "http://place.map.kakao.com/226537928",
      "region": "경기도"
    },
    {
      "lat": 37.31837079864535,
      "lng": 127.05936877754796,
      "title": "버들치마을성복자이2차아파트",
      "description": "경기 용인시 수지구 성복2로 251",
      "url": "http://place.map.kakao.com/11129194",
      "region": "경기도"
    },
    {
      "lat": 37.234293522552974,
      "lng": 127.2185808479652,
      "title": "푸른마을용인자이아파트",
      "description": "경기 용인시 처인구 금학로 520",
      "url": "http://place.map.kakao.com/11291031",
      "region": "경기도"
    },
    {
      "lat": 37.301588133626105,
      "lng": 127.10782448467764,
      "title": "연원마을LG자이아파트",
      "description": "경기 용인시 기흥구 연원로 5",
      "url": "http://place.map.kakao.com/11101543",
      "region": "경기도"
    },
    {
      "lat": 37.317261642823915,
      "lng": 127.11637569917943,
      "title": "죽현마을엘지자이아파트",
      "description": "경기 용인시 기흥구 보정로 88",
      "url": "http://place.map.kakao.com/8628783",
      "region": "경기도"
    },
    {
      "lat": 37.302453257392166,
      "lng": 127.11897418855887,
      "title": "교동구성자이3차아파트",
      "description": "경기 용인시 기흥구 구교동로118번길 7",
      "url": "http://place.map.kakao.com/11345841",
      "region": "경기도"
    },
    {
      "lat": 37.30429497137209,
      "lng": 127.12594336029264,
      "title": "교동마을LG자이아파트",
      "description": "경기 용인시 기흥구 마북로 182",
      "url": "http://place.map.kakao.com/11085054",
      "region": "경기도"
    },
    {
      "lat": 37.33024211629962,
      "lng": 127.13084757415591,
      "title": "죽전GS자이아파트",
      "description": "경기 용인시 수지구 죽전로238번길 22",
      "url": "http://place.map.kakao.com/11358102",
      "region": "경기도"
    },
    {
      "lat": 37.463985698397394,
      "lng": 126.81263833474338,
      "title": "부천옥길자이아파트",
      "description": "경기 부천시 소사구 범안로219번길 19",
      "url": "http://place.map.kakao.com/26915805",
      "region": "경기도"
    },
    {
      "lat": 37.482262900735044,
      "lng": 126.75731749539901,
      "title": "송내자이아파트",
      "description": "경기 부천시 소사구 경인로26번길 22",
      "url": "http://place.map.kakao.com/11330959",
      "region": "경기도"
    },
    {
      "lat": 37.489139190145806,
      "lng": 126.75244894385595,
      "title": "상동스카이뷰자이아파트",
      "description": "경기 부천시 원미구 부일로 203",
      "url": "http://place.map.kakao.com/26983540",
      "region": "경기도"
    },
    {
      "lat": 37.50021449702272,
      "lng": 126.74868268799172,
      "title": "백송마을상동자이아파트",
      "description": "경기 부천시 원미구 조마루로 48",
      "url": "http://place.map.kakao.com/9836805",
      "region": "경기도"
    },
    {
      "lat": 37.47698814975568,
      "lng": 126.74942524922673,
      "title": "GS부평자이아파트",
      "description": "인천 부평구 일신로 120",
      "url": "http://place.map.kakao.com/11338041",
      "region": "인천광역시"
    },
    {
      "lat": 37.53195679281718,
      "lng": 126.71910049528466,
      "title": "힐스테이트자이계양아파트",
      "description": "인천 계양구 봉오대로651번길 9",
      "url": "http://place.map.kakao.com/1332010191",
      "region": "인천광역시"
    },
    {
      "lat": 37.45885764965311,
      "lng": 126.71059984282135,
      "title": "간석래미안자이아파트",
      "description": "인천 남동구 남동대로 860",
      "url": "http://place.map.kakao.com/11343247",
      "region": "인천광역시"
    },
    {
      "lat": 37.43715580461674,
      "lng": 126.75090500923847,
      "title": "서창자이아파트",
      "description": "인천 남동구 장아산로 157",
      "url": "http://place.map.kakao.com/11342606",
      "region": "인천광역시"
    },
    {
      "lat": 37.282675912902036,
      "lng": 126.82974503560122,
      "title": "그랑시티자이1차아파트",
      "description": "경기 안산시 상록구 해양4로 31",
      "url": "http://place.map.kakao.com/38751897",
      "region": "경기도"
    },
    {
      "lat": 37.28038576414232,
      "lng": 126.83183963844704,
      "title": "그랑시티자이2차아파트",
      "description": "경기 안산시 상록구 해양5로 17",
      "url": "http://place.map.kakao.com/1527245849",
      "region": "경기도"
    },
    {
      "lat": 37.41590196165343,
      "lng": 126.9187061456342,
      "title": "아르테자이아파트",
      "description": "경기 안양시 만안구 경수대로1166번길 10",
      "url": "http://place.map.kakao.com/163695509",
      "region": "경기도"
    },
    {
      "lat": 37.38709927310659,
      "lng": 126.92311854208407,
      "title": "안양씨엘포레자이아파트",
      "description": "경기 안양시 만안구 소곡로 78",
      "url": "http://place.map.kakao.com/1534841550",
      "region": "경기도"
    },
    {
      "lat": 37.402035378184365,
      "lng": 126.93327937862605,
      "title": "평촌자이아이파크아파트",
      "description": "경기 안양시 동안구 비산로 22",
      "url": "http://place.map.kakao.com/160227109",
      "region": "경기도"
    },
    {
      "lat": 37.38162131905401,
      "lng": 126.93085180388357,
      "title": "안양자이헤리티온아파트 (2029년09월예정)",
      "description": "경기 안양시 만안구 안양동 398-32",
      "url": "http://place.map.kakao.com/1746111408",
      "region": "경기도"
    },
    {
      "lat": 37.40246028105451,
      "lng": 126.94477545518767,
      "title": "평촌자이퍼스니티아파트 (2027년12월예정)",
      "description": "경기 안양시 동안구 동안로 271",
      "url": "http://place.map.kakao.com/2010537605",
      "region": "경기도"
    },
    {
      "lat": 37.41215273825446,
      "lng": 126.90527956404985,
      "title": "안양자이더포레스트아파트 (2026년05월예정)",
      "description": "경기 안양시 만안구 석수동 348-1",
      "url": "http://place.map.kakao.com/773188039",
      "region": "경기도"
    },
    {
      "lat": 37.384693328376784,
      "lng": 126.97483549171436,
      "title": "인덕원센트럴자이아파트",
      "description": "경기 의왕시 내손로 13",
      "url": "http://place.map.kakao.com/11222880",
      "region": "경기도"
    },
    {
      "lat": 37.630069546012905,
      "lng": 127.15071620688185,
      "title": "다산자이폴라리스아파트",
      "description": "경기 남양주시 다산순환로 242",
      "url": "http://place.map.kakao.com/1632572499",
      "region": "경기도"
    },
    {
      "lat": 37.6272669155288,
      "lng": 127.15115801173498,
      "title": "다산자이아이비플레이스아파트",
      "description": "경기 남양주시 다산중앙로 153",
      "url": "http://place.map.kakao.com/1834500884",
      "region": "경기도"
    },
    {
      "lat": 37.61950399214925,
      "lng": 127.15187855063047,
      "title": "다산e편한세상자이아파트",
      "description": "경기 남양주시 다산중앙로81번길 25",
      "url": "http://place.map.kakao.com/27609844",
      "region": "경기도"
    },
    {
      "lat": 37.57421589889155,
      "lng": 127.17756820043782,
      "title": "미사강변리버뷰자이아파트",
      "description": "경기 하남시 미사강변한강로 10",
      "url": "http://place.map.kakao.com/26609718",
      "region": "경기도"
    },
    {
      "lat": 37.2266042792085,
      "lng": 126.926166380899,
      "title": "봉담자이프라이드시티아파트",
      "description": "경기 화성시 봉담읍 삼봉안길 30",
      "url": "http://place.map.kakao.com/1447937437",
      "region": "경기도"
    },
    {
      "lat": 37.22130730064607,
      "lng": 126.96996722457142,
      "title": "봉담자이라피네아파트",
      "description": "경기 화성시 봉담읍 동화서북안길 50",
      "url": "http://place.map.kakao.com/1873429420",
      "region": "경기도"
    },
    {
      "lat": 37.15992352468015,
      "lng": 127.10708143598498,
      "title": "동탄호수자이파밀리에아파트",
      "description": "경기 화성시 동탄대로2길 19",
      "url": "http://place.map.kakao.com/1525011339",
      "region": "경기도"
    },
    {
      "lat": 37.238696845210214,
      "lng": 127.06528035936878,
      "title": "신동탄포레자이아파트",
      "description": "경기 화성시 영통로60번길 31",
      "url": "http://place.map.kakao.com/1222420678",
      "region": "경기도"
    },
    {
      "lat": 37.212075353077495,
      "lng": 127.1131710505066,
      "title": "동탄파크자이아파트",
      "description": "경기 화성시 동탄대로24길 117",
      "url": "http://place.map.kakao.com/1097404760",
      "region": "경기도"
    },
    {
      "lat": 37.20245965723208,
      "lng": 127.0498608187767,
      "title": "서동탄역파크자이아파트",
      "description": "경기 화성시 서동탄로 53",
      "url": "http://place.map.kakao.com/1765613856",
      "region": "경기도"
    },
    {
      "lat": 37.2282179079974,
      "lng": 127.047799908339,
      "title": "반월자이더파크아파트",
      "description": "경기 화성시 동탄지성로 394",
      "url": "http://place.map.kakao.com/26851655",
      "region": "경기도"
    },
    {
      "lat": 37.20676055113676,
      "lng": 127.10169979680262,
      "title": "동탄역센트럴자이아파트",
      "description": "경기 화성시 동탄대로22길 30",
      "url": "http://place.map.kakao.com/18142992",
      "region": "경기도"
    },
    {
      "lat": 37.21694468179885,
      "lng": 127.03559785864628,
      "title": "진안파크자이아파트",
      "description": "경기 화성시 병점중앙로 230-10",
      "url": "http://place.map.kakao.com/11107397",
      "region": "경기도"
    },
    {
      "lat": 37.1646200330258,
      "lng": 127.112698318484,
      "title": "동탄호수공원자연앤자이아파트 (예정)",
      "description": "경기 화성시 장지동 969",
      "url": "http://place.map.kakao.com/580350961",
      "region": "경기도"
    },
    {
      "lat": 37.20201478417242,
      "lng": 127.0470557027617,
      "title": "서동탄역파크자이2차아파트",
      "description": "경기 화성시 서동탄로 11",
      "url": "http://place.map.kakao.com/1302310081",
      "region": "경기도"
    },
    {
      "lat": 37.011103193793325,
      "lng": 127.10171379911017,
      "title": "평택서재자이아파트",
      "description": "경기 평택시 서재로 36",
      "url": "http://place.map.kakao.com/14874156",
      "region": "경기도"
    },
    {
      "lat": 37.059828644391374,
      "lng": 127.04551174053711,
      "title": "고덕자이센트로아파트",
      "description": "경기 평택시 고덕국제2로 189",
      "url": "http://place.map.kakao.com/909299449",
      "region": "경기도"
    },
    {
      "lat": 37.01757942989354,
      "lng": 127.08165865052875,
      "title": "평택지제역자이아파트",
      "description": "경기 평택시 지제동삭3로 11",
      "url": "http://place.map.kakao.com/1216777706",
      "region": "경기도"
    },
    {
      "lat": 37.02119635964908,
      "lng": 127.10045178490437,
      "title": "평택센트럴자이3단지아파트",
      "description": "경기 평택시 상서재로 55",
      "url": "http://place.map.kakao.com/1955792386",
      "region": "경기도"
    },
    {
      "lat": 37.05082602533139,
      "lng": 127.0454850046565,
      "title": "고덕국제신도시포레스트자이아파트",
      "description": "경기 평택시 고덕국제대로 152",
      "url": "http://place.map.kakao.com/648836735",
      "region": "경기도"
    },
    {
      "lat": 37.016894723208765,
      "lng": 127.0992437672744,
      "title": "평택센트럴자이1단지아파트",
      "description": "경기 평택시 상서재로5길 15",
      "url": "http://place.map.kakao.com/27078036",
      "region": "경기도"
    },
    {
      "lat": 37.01618471063026,
      "lng": 127.10238129866167,
      "title": "평택센트럴자이2단지아파트",
      "description": "경기 평택시 상서재로4길 13",
      "url": "http://place.map.kakao.com/27193879",
      "region": "경기도"
    },
    {
      "lat": 37.019901417731795,
      "lng": 127.10370106177264,
      "title": "평택센트럴자이5단지아파트",
      "description": "경기 평택시 상서재로 80",
      "url": "http://place.map.kakao.com/27254403",
      "region": "경기도"
    },
    {
      "lat": 37.0192647569021,
      "lng": 127.10219889161911,
      "title": "평택센트럴자이4단지아파트",
      "description": "경기 평택시 상서재로 50",
      "url": "http://place.map.kakao.com/1752125790",
      "region": "경기도"
    },
    {
      "lat": 37.13083914529429,
      "lng": 127.08090576663018,
      "title": "오산자이아파트",
      "description": "경기 오산시 동부대로 332-14",
      "url": "http://place.map.kakao.com/11253367",
      "region": "경기도"
    },
    {
      "lat": 37.74403592587206,
      "lng": 127.04587750877073,
      "title": "의정부역스카이자이아파트",
      "description": "경기 의정부시 평화로 583",
      "url": "http://place.map.kakao.com/1696814914",
      "region": "경기도"
    },
    {
      "lat": 37.7317038727584,
      "lng": 127.05141149543,
      "title": "의정부역센트럴자이앤위브캐슬아파트 커뮤니티센터",
      "description": "경기 의정부시 경의로 132",
      "url": "http://place.map.kakao.com/205692481",
      "region": "경기도"
    },
    {
      "lat": 37.7304789122404,
      "lng": 127.05058027359,
      "title": "의정부역센트럴자이앤위브캐슬아파트 1단지 상가C동",
      "description": "경기 의정부시 경의로132번길 63",
      "url": "http://place.map.kakao.com/150649614",
      "region": "경기도"
    },
    {
      "lat": 37.43633506924802,
      "lng": 126.799779689735,
      "title": "은계파크자이아파트",
      "description": "경기 시흥시 은계중앙로 65",
      "url": "http://place.map.kakao.com/76794546",
      "region": "경기도"
    },
    {
      "lat": 37.4368450669831,
      "lng": 126.750530898239,
      "title": "자이아파트 상가",
      "description": "인천 남동구 장아산로 159",
      "url": "http://place.map.kakao.com/26449769",
      "region": "인천광역시"
    },
    {
      "lat": 37.7338805411826,
      "lng": 126.724805707733,
      "title": "해오름마을8단지운정자이퍼스트시티아파트",
      "description": "경기 파주시 운정중앙로 246",
      "url": "http://place.map.kakao.com/62412128",
      "region": "경기도"
    },
    {
      "lat": 37.723828440878,
      "lng": 126.72869494311,
      "title": "운정자이시그니처아파트 (2026년03월예정)",
      "description": "경기 파주시 목동동 산 26",
      "url": "http://place.map.kakao.com/55146992",
      "region": "경기도"
    },
    {
      "lat": 37.41728968705219,
      "lng": 126.88708458605448,
      "title": "광명역센트럴자이아파트",
      "description": "경기 광명시 광명역로 28",
      "url": "http://place.map.kakao.com/27535178",
      "region": "경기도"
    },
    {
      "lat": 37.41460476199242,
      "lng": 126.88625948260776,
      "title": "광명역파크자이아파트",
      "description": "경기 광명시 광명역로 26",
      "url": "http://place.map.kakao.com/26157305",
      "region": "경기도"
    },
    {
      "lat": 37.591621872072025,
      "lng": 126.76278048136271,
      "title": "고촌센트럴자이아파트",
      "description": "경기 김포시 고촌읍 수기로 137",
      "url": "http://place.map.kakao.com/2077932609",
      "region": "경기도"
    },
    {
      "lat": 37.634881614228995,
      "lng": 126.69906956598992,
      "title": "한강메트로자이2단지아파트",
      "description": "경기 김포시 걸포2로 74",
      "url": "http://place.map.kakao.com/2104905089",
      "region": "경기도"
    },
    {
      "lat": 37.63448553338941,
      "lng": 126.67705159588631,
      "title": "한강센트럴자이1단지아파트",
      "description": "경기 김포시 태장로 845",
      "url": "http://place.map.kakao.com/25069800",
      "region": "경기도"
    },
    {
      "lat": 37.603768836232256,
      "lng": 126.72492446844899,
      "title": "풍무자이1단지아파트",
      "description": "경기 김포시 풍무로96번길 42",
      "url": "http://place.map.kakao.com/11314429",
      "region": "경기도"
    },
    {
      "lat": 37.63268406145869,
      "lng": 126.7011742926972,
      "title": "한강메트로자이1단지아파트",
      "description": "경기 김포시 걸포2로 83",
      "url": "http://place.map.kakao.com/144604424",
      "region": "경기도"
    },
    {
      "lat": 37.63685390966666,
      "lng": 126.70228375901443,
      "title": "한강메트로자이3단지아파트",
      "description": "경기 김포시 걸포2로 60",
      "url": "http://place.map.kakao.com/1688350321",
      "region": "경기도"
    },
    {
      "lat": 37.603505253219396,
      "lng": 126.72782000140592,
      "title": "풍무자이2단지아파트",
      "description": "경기 김포시 풍무로96번길 100",
      "url": "http://place.map.kakao.com/11356027",
      "region": "경기도"
    },
    {
      "lat": 37.63536412337022,
      "lng": 126.67382457938645,
      "title": "한강센트럴자이2단지아파트",
      "description": "경기 김포시 태장로 846",
      "url": "http://place.map.kakao.com/26546742",
      "region": "경기도"
    },
    {
      "lat": 37.59555359368582,
      "lng": 126.69730304298236,
      "title": "원당LG자이아파트",
      "description": "인천 서구 원당대로839번길 34",
      "url": "http://place.map.kakao.com/8036002",
      "region": "인천광역시"
    },
    {
      "lat": 37.38577997805468,
      "lng": 126.92281614021731,
      "title": "안양씨엘포레자이아파트 107동",
      "description": "경기 안양시 만안구 소곡로 78",
      "url": "http://place.map.kakao.com/2015092986",
      "region": "경기도"
    },
    {
      "lat": 37.371729285232476,
      "lng": 127.21707215489637,
      "title": "오포자이오브제아파트",
      "description": "경기 광주시 고산별빛로 57",
      "url": "http://place.map.kakao.com/1646309155",
      "region": "경기도"
    },
    {
      "lat": 37.4032652276349,
      "lng": 127.25195769961049,
      "title": "광주역자연앤자이아파트",
      "description": "경기 광주시 광주역5로 18",
      "url": "http://place.map.kakao.com/1643059483",
      "region": "경기도"
    },
    {
      "lat": 37.37279619404406,
      "lng": 127.22235547626559,
      "title": "오포자이디오브4단지아파트",
      "description": "경기 광주시 고산별빛1로 12",
      "url": "http://place.map.kakao.com/360570196",
      "region": "경기도"
    },
    {
      "lat": 37.38022152822496,
      "lng": 127.23448352984202,
      "title": "태전파크자이14단지아파트",
      "description": "경기 광주시 벼루개길42번길 36-1",
      "url": "http://place.map.kakao.com/2102862802",
      "region": "경기도"
    },
    {
      "lat": 37.37343655290013,
      "lng": 127.21960601485515,
      "title": "오포자이디오브3단지아파트",
      "description": "경기 광주시 고산별빛1로 11",
      "url": "http://place.map.kakao.com/615621737",
      "region": "경기도"
    },
    {
      "lat": 37.38117907170875,
      "lng": 127.23460619655499,
      "title": "태전파크자이13단지아파트",
      "description": "경기 광주시 벼루개길42번길 35-1",
      "url": "http://place.map.kakao.com/1737764484",
      "region": "경기도"
    },
    {
      "lat": 37.287153248469814,
      "lng": 127.43271434662775,
      "title": "이천자이더파크아파트",
      "description": "경기 이천시 영창로 53",
      "url": "http://place.map.kakao.com/1803215347",
      "region": "경기도"
    },
    {
      "lat": 37.2927562022116,
      "lng": 127.449545812079,
      "title": "이천자이더리체아파트 (2026년08월예정)",
      "description": "경기 이천시 증포동 323-20",
      "url": "http://place.map.kakao.com/1164960688",
      "region": "경기도"
    },
    {
      "lat": 37.294695313249605,
      "lng": 127.4370105027605,
      "title": "이천자이더레브아파트 (2027년04월예정)",
      "description": "경기 이천시 송정동 산 31",
      "url": "http://place.map.kakao.com/822919665",
      "region": "경기도"
    },
    {
      "lat": 37.2765680574938,
      "lng": 127.628308736665,
      "title": "여주역자이헤리티지아파트 (2027년06월예정)",
      "description": "경기 여주시 교동 500-118",
      "url": "http://place.map.kakao.com/1164857304",
      "region": "경기도"
    },
    {
      "lat": 37.803861105130224,
      "lng": 127.10468525339289,
      "title": "양주자이7단지아파트",
      "description": "경기 양주시 삼숭로58번길 141",
      "url": "http://place.map.kakao.com/8043060",
      "region": "경기도"
    },
    {
      "lat": 37.80256407177612,
      "lng": 127.10429281300392,
      "title": "양주자이6단지아파트",
      "description": "경기 양주시 삼숭로58번길 115",
      "url": "http://place.map.kakao.com/8028899",
      "region": "경기도"
    },
    {
      "lat": 37.79490457702788,
      "lng": 127.10578982399406,
      "title": "양주자이1단지아파트",
      "description": "경기 양주시 삼숭로38번길 78-30",
      "url": "http://place.map.kakao.com/10997801",
      "region": "경기도"
    },
    {
      "lat": 37.797896593951286,
      "lng": 127.10486304487043,
      "title": "양주자이3단지아파트",
      "description": "경기 양주시 삼숭로38번길 55",
      "url": "http://place.map.kakao.com/10997803",
      "region": "경기도"
    },
    {
      "lat": 37.79789117803232,
      "lng": 127.10687954616142,
      "title": "양주자이4단지아파트",
      "description": "경기 양주시 삼숭로38번길 91",
      "url": "http://place.map.kakao.com/11338185",
      "region": "경기도"
    },
    {
      "lat": 37.79532483458351,
      "lng": 127.10329712342637,
      "title": "양주자이2단지아파트",
      "description": "경기 양주시 삼숭로38번길 78-12",
      "url": "http://place.map.kakao.com/11000357",
      "region": "경기도"
    },
    {
      "lat": 37.79937360645405,
      "lng": 127.10944324460291,
      "title": "양주자이5단지아파트",
      "description": "경기 양주시 삼숭로38번길 190",
      "url": "http://place.map.kakao.com/10993651",
      "region": "경기도"
    },
    {
      "lat": 37.7990975438666,
      "lng": 127.107889555181,
      "title": "양주자이4단지아파트 상가동",
      "description": "경기 양주시 삼숭로38번길 191",
      "url": "http://place.map.kakao.com/26446509",
      "region": "경기도"
    },
    {
      "lat": 37.8022058416154,
      "lng": 127.105918327754,
      "title": "양주자이6단지아파트 상가동",
      "description": "경기 양주시 삼숭로58번길 111",
      "url": "http://place.map.kakao.com/26445877",
      "region": "경기도"
    },
    {
      "lat": 37.17479355299565,
      "lng": 127.06338540527499,
      "title": "오산대역세교자이아파트",
      "description": "경기 오산시 삼미로 34",
      "url": "http://place.map.kakao.com/768462756",
      "region": "경기도"
    },
    {
      "lat": 37.149837434435184,
      "lng": 127.08924238102718,
      "title": "오산시티자이1단지아파트",
      "description": "경기 오산시 부산중앙로 11",
      "url": "http://place.map.kakao.com/26644378",
      "region": "경기도"
    },
    {
      "lat": 37.149267562835924,
      "lng": 127.09212338051388,
      "title": "오산시티자이2단지아파트",
      "description": "경기 오산시 부산중앙로 12",
      "url": "http://place.map.kakao.com/26646819",
      "region": "경기도"
    },
    {
      "lat": 37.1825651072147,
      "lng": 127.065130668294,
      "title": "북오산자이리버블시티아파트 (예정)",
      "description": "경기 오산시 내삼미동 905",
      "url": "http://place.map.kakao.com/1140671022",
      "region": "경기도"
    },
    {
      "lat": 37.151524145597214,
      "lng": 127.09285443636495,
      "title": "오산시티자이3단지2차아파트",
      "description": "경기 오산시 부산중앙로 42",
      "url": "http://place.map.kakao.com/979430916",
      "region": "경기도"
    },
    {
      "lat": 37.557799283423414,
      "lng": 127.18607634619427,
      "title": "미사강변센트럴자이아파트",
      "description": "경기 하남시 미사강변대로 95",
      "url": "http://place.map.kakao.com/26257060",
      "region": "경기도"
    },
    {
      "lat": 36.866872938159666,
      "lng": 127.19855963342866,
      "title": "북천안자이포레스트아파트",
      "description": "충남 천안시 서북구 성거읍 성거길 20",
      "url": "http://place.map.kakao.com/11347625",
      "region": "충청남도"
    },
    {
      "lat": 37.38383403183159,
      "lng": 126.98118837272226,
      "title": "인덕원자이SK뷰아파트",
      "description": "경기 의왕시 내손중앙로 68",
      "url": "http://place.map.kakao.com/1422325449",
      "region": "경기도"
    },
    {
      "lat": 37.54019665389206,
      "lng": 127.19654650399572,
      "title": "하남자이아파트",
      "description": "경기 하남시 덕풍공원로 38",
      "url": "http://place.map.kakao.com/11000360",
      "region": "경기도"
    },
    {
      "lat": 37.48677130499126,
      "lng": 127.16108918280109,
      "title": "위례포레자이아파트",
      "description": "경기 하남시 위례대로6길 95",
      "url": "http://place.map.kakao.com/1741037032",
      "region": "경기도"
    },
    {
      "lat": 37.5403673695462,
      "lng": 127.197909282784,
      "title": "하남자이아파트 상가동",
      "description": "경기 하남시 덕풍공원로 34",
      "url": "http://place.map.kakao.com/26442818",
      "region": "경기도"
    },
    {
      "lat": 37.4282693457015,
      "lng": 126.998666816724,
      "title": "과천자이아파트",
      "description": "경기 과천시 별양로 110",
      "url": "http://place.map.kakao.com/1055353548",
      "region": "경기도"
    },
    {
      "lat": 37.40637771851044,
      "lng": 126.98191012781432,
      "title": "과천제이드자이아파트",
      "description": "경기 과천시 과천대로2길 34",
      "url": "http://place.map.kakao.com/1115956383",
      "region": "경기도"
    },
    {
      "lat": 37.42643561498769,
      "lng": 126.99369464882513,
      "title": "프레스티어자이아파트 (2027년10월예정)",
      "description": "경기 과천시 별양동 7",
      "url": "http://place.map.kakao.com/336937451",
      "region": "경기도"
    },
    {
      "lat": 37.820975288381725,
      "lng": 127.5084624011779,
      "title": "가평자이아파트",
      "description": "경기 가평군 가평읍 문화로 91",
      "url": "http://place.map.kakao.com/1216928738",
      "region": "경기도"
    },
    {
      "lat": 37.8669006838354,
      "lng": 127.70772155244678,
      "title": "춘천파크자이아파트",
      "description": "강원특별자치도 춘천시 스포츠타운길 460",
      "url": "http://place.map.kakao.com/1533599630",
      "region": "강원특별자치도"
    },
    {
      "lat": 37.48831285394397,
      "lng": 126.53172950467531,
      "title": "영종자이아파트",
      "description": "인천 중구 운남서로 7",
      "url": "http://place.map.kakao.com/12372913",
      "region": "인천광역시"
    },
    {
      "lat": 37.48964388322601,
      "lng": 126.54869459183003,
      "title": "영종센트럴푸르지오자이아파트",
      "description": "인천 중구 은하수로 412",
      "url": "http://place.map.kakao.com/384967949",
      "region": "인천광역시"
    },
    {
      "lat": 37.49118782413564,
      "lng": 126.55885304577463,
      "title": "스카이시티자이아파트",
      "description": "인천 중구 하늘별빛로 111",
      "url": "http://place.map.kakao.com/1688198029",
      "region": "인천광역시"
    },
    {
      "lat": 37.45544925254562,
      "lng": 126.64729690031228,
      "title": "용현자이크레스트아파트",
      "description": "인천 미추홀구 낙섬동로 134",
      "url": "http://place.map.kakao.com/2107186800",
      "region": "인천광역시"
    },
    {
      "lat": 37.447261354703954,
      "lng": 126.67153636243744,
      "title": "주안파크자이더플래티넘아파트",
      "description": "인천 미추홀구 인하로222번길 20",
      "url": "http://place.map.kakao.com/647541519",
      "region": "인천광역시"
    },
    {
      "lat": 37.528460211394005,
      "lng": 126.65895106788645,
      "title": "청라자이아파트",
      "description": "인천 서구 청라에메랄드로 30",
      "url": "http://place.map.kakao.com/11234360",
      "region": "인천광역시"
    },
    {
      "lat": 37.41082247354456,
      "lng": 126.65659345794722,
      "title": "송도파크자이아파트",
      "description": "인천 연수구 앵고개로104번길 22",
      "url": "http://place.map.kakao.com/678863726",
      "region": "인천광역시"
    },
    {
      "lat": 37.443942886349426,
      "lng": 126.7137920518415,
      "title": "구월아시아드선수촌센트럴자이아파트",
      "description": "인천 남동구 선수촌로 55",
      "url": "http://place.map.kakao.com/17727386",
      "region": "인천광역시"
    },
    {
      "lat": 37.5284181133208,
      "lng": 126.659037239866,
      "title": "청라자이아파트 자이안센터",
      "description": "인천 서구 청라에메랄드로 30",
      "url": "http://place.map.kakao.com/24763697",
      "region": "인천광역시"
    },
    {
      "lat": 37.3844528956551,
      "lng": 126.615200460461,
      "title": "송도자이더스타아파트",
      "description": "인천 연수구 아카데미로343번길 63",
      "url": "http://place.map.kakao.com/1641558910",
      "region": "인천광역시"
    },
    {
      "lat": 37.3880369371874,
      "lng": 126.611828403175,
      "title": "송도자이크리스탈오션아파트",
      "description": "인천 연수구 랜드마크로360번길 40",
      "url": "http://place.map.kakao.com/732074452",
      "region": "인천광역시"
    },
    {
      "lat": 37.39518782766298,
      "lng": 126.64313561864212,
      "title": "송도자이하버뷰2단지아파트",
      "description": "인천 연수구 컨벤시아대로130번길 32",
      "url": "http://place.map.kakao.com/11131429",
      "region": "인천광역시"
    },
    {
      "lat": 37.396235377676305,
      "lng": 126.64153603876186,
      "title": "송도자이하버뷰1단지아파트",
      "description": "인천 연수구 컨벤시아대로130번길 58",
      "url": "http://place.map.kakao.com/11356597",
      "region": "인천광역시"
    },
    {
      "lat": 37.3765011309322,
      "lng": 126.675832934685,
      "title": "송도자이풍경채그라노블5단지아파트 (2028년04월예정)",
      "description": "인천 연수구 송도동 553-2",
      "url": "http://place.map.kakao.com/524501671",
      "region": "인천광역시"
    },
    {
      "lat": 37.3783911087567,
      "lng": 126.677677592561,
      "title": "송도자이풍경채그라노블4단지아파트 (2028년04월예정)",
      "description": "인천 연수구 송도동 553",
      "url": "http://place.map.kakao.com/1467937861",
      "region": "인천광역시"
    },
    {
      "lat": 37.3797352978659,
      "lng": 126.678953349177,
      "title": "송도자이풍경채그라노블3단지아파트 (2028년04월예정)",
      "description": "인천 연수구 송도동 554",
      "url": "http://place.map.kakao.com/1363195018",
      "region": "인천광역시"
    },
    {
      "lat": 37.3771565655196,
      "lng": 126.679281602667,
      "title": "송도자이풍경채그라노블1단지아파트 (2027년06월예정)",
      "description": "인천 연수구 송도동 551-1",
      "url": "http://place.map.kakao.com/647134218",
      "region": "인천광역시"
    },
    {
      "lat": 37.3787808282545,
      "lng": 126.680844091885,
      "title": "송도자이풍경채그라노블2단지아파트 (2027년06월예정)",
      "description": "인천 연수구 송도동 552",
      "url": "http://place.map.kakao.com/1270504459",
      "region": "인천광역시"
    },
    {
      "lat": 37.5319785453309,
      "lng": 126.720674156827,
      "title": "힐스테이트자이계양아파트 상가",
      "description": "인천 계양구 작전동 839-5",
      "url": "http://place.map.kakao.com/1648930577",
      "region": "인천광역시"
    },
    {
      "lat": 37.5930400760042,
      "lng": 126.70631386611,
      "title": "라프리체자이1단지아파트 (2028년01월예정)",
      "description": "인천 서구 원당동 756",
      "url": "http://place.map.kakao.com/995221715",
      "region": "인천광역시"
    },
    {
      "lat": 37.59652496346579,
      "lng": 126.63842820500443,
      "title": "검단자이1단지아파트",
      "description": "인천 서구 버들로 27",
      "url": "http://place.map.kakao.com/26542170",
      "region": "인천광역시"
    },
    {
      "lat": 37.59572936513961,
      "lng": 126.64107606297888,
      "title": "검단자이2단지아파트",
      "description": "인천 서구 오동로 32",
      "url": "http://place.map.kakao.com/11324225",
      "region": "인천광역시"
    },
    {
      "lat": 37.61026849072032,
      "lng": 126.6825484553786,
      "title": "검단아테라자이아파트 (2027년02월예정)",
      "description": "인천 서구 불로동 484-3",
      "url": "http://place.map.kakao.com/2060730300",
      "region": "인천광역시"
    },
    {
      "lat": 37.5954175235876,
      "lng": 126.705847059393,
      "title": "라프리체자이2단지아파트 (2028년01월예정)",
      "description": "인천 서구 원당동 산 78-7",
      "url": "http://place.map.kakao.com/995257671",
      "region": "인천광역시"
    },
    {
      "lat": 35.13377821208643,
      "lng": 129.05711135720725,
      "title": "자이힐스테이트하이퍼시티아파트 (예정)",
      "description": "부산 동구 성남이로56번길 27",
      "url": "http://place.map.kakao.com/583950988",
      "region": "부산광역시"
    },
    {
      "lat": 35.12975435325107,
      "lng": 129.10356343213425,
      "title": "대연자이아파트",
      "description": "부산 남구 유엔로 246",
      "url": "http://place.map.kakao.com/1464849093",
      "region": "부산광역시"
    },
    {
      "lat": 35.169637465642964,
      "lng": 129.04838422430618,
      "title": "연지자이1차아파트",
      "description": "부산 부산진구 동평로183번길 67",
      "url": "http://place.map.kakao.com/8002672",
      "region": "부산광역시"
    },
    {
      "lat": 35.17223645666976,
      "lng": 129.04774264507398,
      "title": "연지자이2차아파트",
      "description": "부산 부산진구 초연로 11",
      "url": "http://place.map.kakao.com/12508763",
      "region": "부산광역시"
    },
    {
      "lat": 35.1330046079421,
      "lng": 129.110466847273,
      "title": "GS하이츠자이아파트",
      "description": "부산 남구 신선로 566",
      "url": "http://place.map.kakao.com/11305791",
      "region": "부산광역시"
    },
    {
      "lat": 35.12970485146236,
      "lng": 129.10200234585804,
      "title": "대연자이아파트 101동",
      "description": "부산 남구 유엔로 246",
      "url": "http://place.map.kakao.com/1048487121",
      "region": "부산광역시"
    },
    {
      "lat": 35.171373086266726,
      "lng": 129.0762160813434,
      "title": "양정자이더샵SKVIEW아파트",
      "description": "부산 부산진구 연수로 38",
      "url": "http://place.map.kakao.com/1287837027",
      "region": "부산광역시"
    },
    {
      "lat": 35.140258002087535,
      "lng": 129.11289650613253,
      "title": "남천자이아파트",
      "description": "부산 수영구 남천동로 46",
      "url": "http://place.map.kakao.com/439043613",
      "region": "부산광역시"
    },
    {
      "lat": 35.15437586715908,
      "lng": 129.10915132696846,
      "title": "광안자이아파트",
      "description": "부산 수영구 호암로29번길 50",
      "url": "http://place.map.kakao.com/732872232",
      "region": "부산광역시"
    },
    {
      "lat": 35.19253135750207,
      "lng": 129.0765294159745,
      "title": "거제센트럴자이아파트",
      "description": "부산 연제구 법원북로 93",
      "url": "http://place.map.kakao.com/809901519",
      "region": "부산광역시"
    },
    {
      "lat": 35.188516387699146,
      "lng": 129.08922323510802,
      "title": "연산자이아파트",
      "description": "부산 연제구 과정로343번길 43",
      "url": "http://place.map.kakao.com/11317635",
      "region": "부산광역시"
    },
    {
      "lat": 35.13268180610843,
      "lng": 129.10970161667862,
      "title": "GS하이츠자이아파트 307동",
      "description": "부산 남구 신선로 566",
      "url": "http://place.map.kakao.com/26707459",
      "region": "부산광역시"
    },
    {
      "lat": 35.20756361922078,
      "lng": 129.08092968189965,
      "title": "명륜자이아파트",
      "description": "부산 동래구 명륜로139번길 22",
      "url": "http://place.map.kakao.com/1893947052",
      "region": "부산광역시"
    },
    {
      "lat": 35.19678233638779,
      "lng": 129.0622835750359,
      "title": "사직자이아파트",
      "description": "부산 동래구 사직로 36",
      "url": "http://place.map.kakao.com/11051415",
      "region": "부산광역시"
    },
    {
      "lat": 35.1894633750061,
      "lng": 129.079810361086,
      "title": "연산동자이갤러리아파트 (예정)",
      "description": "부산 연제구 거제천로182번길 3",
      "url": "http://place.map.kakao.com/1205724644",
      "region": "부산광역시"
    },
    {
      "lat": 35.1429731467214,
      "lng": 129.116305147325,
      "title": "그랑자이더비치아파트 (예정)",
      "description": "부산 수영구 광안해변로 100",
      "url": "http://place.map.kakao.com/2053828975",
      "region": "부산광역시"
    },
    {
      "lat": 35.252399531411825,
      "lng": 129.01199356657108,
      "title": "신화명리버뷰자이아파트",
      "description": "부산 북구 금곡대로470번길 29",
      "url": "http://place.map.kakao.com/19731974",
      "region": "부산광역시"
    },
    {
      "lat": 35.159055286783726,
      "lng": 129.1432468763072,
      "title": "마린시티자이아파트",
      "description": "부산 해운대구 마린시티1로 9",
      "url": "http://place.map.kakao.com/220435651",
      "region": "부산광역시"
    },
    {
      "lat": 35.16725623348485,
      "lng": 129.14286074623078,
      "title": "해운대자이1차아파트",
      "description": "부산 해운대구 해운대로 435",
      "url": "http://place.map.kakao.com/12651501",
      "region": "부산광역시"
    },
    {
      "lat": 35.16848600897001,
      "lng": 129.1441495758701,
      "title": "해운대자이2차아파트",
      "description": "부산 해운대구 해운대로469번길 110",
      "url": "http://place.map.kakao.com/26843534",
      "region": "부산광역시"
    },
    {
      "lat": 35.14239143151672,
      "lng": 128.9150381692251,
      "title": "강서자이에코델타아파트",
      "description": "부산 강서구 에코델타1로 24",
      "url": "http://place.map.kakao.com/1783428040",
      "region": "부산광역시"
    },
    {
      "lat": 35.274240209670204,
      "lng": 129.09217031099803,
      "title": "세왕자이연아파트",
      "description": "부산 금정구 청룡예전로 6",
      "url": "http://place.map.kakao.com/26094573",
      "region": "부산광역시"
    },
    {
      "lat": 35.170963918518,
      "lng": 129.074325699051,
      "title": "양정자이더샵SKVIEW아파트 303동",
      "description": "부산 부산진구 연수로 38",
      "url": "http://place.map.kakao.com/1695491755",
      "region": "부산광역시"
    },
    {
      "lat": 35.26581736868224,
      "lng": 129.2242612731944,
      "title": "일광자이푸르지오2단지아파트",
      "description": "부산 기장군 일광읍 해빛로 29",
      "url": "http://place.map.kakao.com/2066576255",
      "region": "부산광역시"
    },
    {
      "lat": 35.265531937217794,
      "lng": 129.2226317636092,
      "title": "일광자이푸르지오1단지아파트",
      "description": "부산 기장군 일광읍 해빛로 39-15",
      "url": "http://place.map.kakao.com/1132705030",
      "region": "부산광역시"
    },
    {
      "lat": 35.86092992162709,
      "lng": 128.57542080579364,
      "title": "남산자이하늘채아파트",
      "description": "대구 중구 명덕로 33",
      "url": "http://place.map.kakao.com/417838518",
      "region": "대구광역시"
    },
    {
      "lat": 35.86168688436248,
      "lng": 128.57988051832993,
      "title": "청라힐스자이아파트",
      "description": "대구 중구 남산로 73",
      "url": "http://place.map.kakao.com/1485276231",
      "region": "대구광역시"
    },
    {
      "lat": 35.87575179189807,
      "lng": 128.586319294633,
      "title": "대구역센트럴자이아파트",
      "description": "대구 중구 서성로 99",
      "url": "http://place.map.kakao.com/26394918",
      "region": "대구광역시"
    },
    {
      "lat": 35.864751066322846,
      "lng": 128.57869367356548,
      "title": "대신센트럴자이아파트",
      "description": "대구 중구 달구벌대로 1955",
      "url": "http://place.map.kakao.com/17747955",
      "region": "대구광역시"
    },
    {
      "lat": 35.87649649536233,
      "lng": 128.61221019488187,
      "title": "신천자이아파트",
      "description": "대구 동구 신암로16길 25",
      "url": "http://place.map.kakao.com/11114999",
      "region": "대구광역시"
    },
    {
      "lat": 35.87273913957666,
      "lng": 128.6231526888383,
      "title": "동대구역센트럴시티자이아파트",
      "description": "대구 동구 송라로10길 33",
      "url": "http://place.map.kakao.com/1528372460",
      "region": "대구광역시"
    },
    {
      "lat": 35.89760803052419,
      "lng": 128.61826340453536,
      "title": "복현자이아파트",
      "description": "대구 북구 공항로 16",
      "url": "http://place.map.kakao.com/1112163762",
      "region": "대구광역시"
    },
    {
      "lat": 35.8651040976823,
      "lng": 128.628987307954,
      "title": "범어자이아파트 (2026년02월예정)",
      "description": "대구 수성구 범어동 48-26",
      "url": "http://place.map.kakao.com/341034024",
      "region": "대구광역시"
    },
    {
      "lat": 35.877081073249,
      "lng": 128.596444966853,
      "title": "대구역자이더스타아파트",
      "description": "대구 북구 칠성남로 150",
      "url": "http://place.map.kakao.com/674949124",
      "region": "대구광역시"
    },
    {
      "lat": 35.886843002788936,
      "lng": 128.57365282185518,
      "title": "서대구센트럴자이아파트",
      "description": "대구 서구 고성로 33",
      "url": "http://place.map.kakao.com/790739131",
      "region": "대구광역시"
    },
    {
      "lat": 35.8721687358695,
      "lng": 128.622217672539,
      "title": "동대구역센트럴시티자이아파트 상가동",
      "description": "대구 동구 송라로10길 33",
      "url": "http://place.map.kakao.com/368972363",
      "region": "대구광역시"
    },
    {
      "lat": 35.85946213112993,
      "lng": 128.55876015865,
      "title": "두류역자이아파트",
      "description": "대구 서구 달구벌대로 1769-7",
      "url": "http://place.map.kakao.com/810403731",
      "region": "대구광역시"
    },
    {
      "lat": 35.8867708269816,
      "lng": 128.572971461492,
      "title": "서대구센트럴자이아파트 커뮤니티센터",
      "description": "대구 서구 고성로 33",
      "url": "http://place.map.kakao.com/1116980205",
      "region": "대구광역시"
    },
    {
      "lat": 35.886688938182,
      "lng": 128.57268745974,
      "title": "서대구센트럴자이아파트 게스트하우스",
      "description": "대구 서구 고성로 33",
      "url": "http://place.map.kakao.com/387689777",
      "region": "대구광역시"
    },
    {
      "lat": 35.8527473384522,
      "lng": 128.575845542506,
      "title": "대명자이그랜드시티아파트 (2026년04월예정)",
      "description": "대구 남구 대명동 2301-2",
      "url": "http://place.map.kakao.com/2085908723",
      "region": "대구광역시"
    },
    {
      "lat": 35.85044681772371,
      "lng": 128.53314644802052,
      "title": "대구용산자이아파트",
      "description": "대구 달서구 달구벌대로 1515",
      "url": "http://place.map.kakao.com/1438811916",
      "region": "대구광역시"
    },
    {
      "lat": 35.82114410092668,
      "lng": 128.53037524298642,
      "title": "상인자이아파트",
      "description": "대구 달서구 상원로 142",
      "url": "http://place.map.kakao.com/10992990",
      "region": "대구광역시"
    },
    {
      "lat": 35.82187118051056,
      "lng": 128.52620668635066,
      "title": "월성자이아파트",
      "description": "대구 달서구 조암남로10길 21",
      "url": "http://place.map.kakao.com/8002950",
      "region": "대구광역시"
    },
    {
      "lat": 35.819869762399,
      "lng": 128.544120627901,
      "title": "상인센트럴자이아파트(송현주공3단지재건축) (예정)",
      "description": "대구 달서구 상인동 797",
      "url": "http://place.map.kakao.com/1851804650",
      "region": "대구광역시"
    },
    {
      "lat": 35.8211377427712,
      "lng": 128.529458959469,
      "title": "상인자이아파트 상가",
      "description": "대구 달서구 상원로 142",
      "url": "http://place.map.kakao.com/26439223",
      "region": "대구광역시"
    },
    {
      "lat": 35.169575813448525,
      "lng": 126.91884583106194,
      "title": "무등산자이앤어울림1단지아파트",
      "description": "광주 북구 서양로 155",
      "url": "http://place.map.kakao.com/190990994",
      "region": "광주광역시"
    },
    {
      "lat": 35.171091380307935,
      "lng": 126.9207883901787,
      "title": "무등산자이앤어울림2단지아파트",
      "description": "광주 북구 동문대로65번길 20",
      "url": "http://place.map.kakao.com/2100658993",
      "region": "광주광역시"
    },
    {
      "lat": 35.152877247630144,
      "lng": 126.86046568616123,
      "title": "상무센트럴자이아파트",
      "description": "광주 서구 상무민주로32번길 10",
      "url": "http://place.map.kakao.com/1216927027",
      "region": "광주광역시"
    },
    {
      "lat": 35.141082836075675,
      "lng": 126.85275740709518,
      "title": "상무자이아파트",
      "description": "광주 서구 백석길 22-23",
      "url": "http://place.map.kakao.com/11346154",
      "region": "광주광역시"
    },
    {
      "lat": 35.20885785810391,
      "lng": 126.88266952282659,
      "title": "GS그린자이2단지아파트",
      "description": "광주 북구 양산택지로34번길 22",
      "url": "http://place.map.kakao.com/10997798",
      "region": "광주광역시"
    },
    {
      "lat": 35.2096000203659,
      "lng": 126.882101763699,
      "title": "지에스그린자이2차아파트 상가동",
      "description": "광주 북구 양산택지로34번길 26",
      "url": "http://place.map.kakao.com/24007753",
      "region": "광주광역시"
    },
    {
      "lat": 35.21009929666278,
      "lng": 126.88389228115372,
      "title": "GS그린자이1단지아파트 106동",
      "description": "광주 북구 양산로71번길 10",
      "url": "http://place.map.kakao.com/26722326",
      "region": "광주광역시"
    },
    {
      "lat": 35.21069744409665,
      "lng": 126.88352790750179,
      "title": "GS그린자이1단지아파트",
      "description": "광주 북구 양산로71번길 10",
      "url": "http://place.map.kakao.com/10993646",
      "region": "광주광역시"
    },
    {
      "lat": 35.2106643428149,
      "lng": 126.882851430559,
      "title": "지에스그린자이1차아파트 상가동",
      "description": "광주 북구 양산로71번길 8",
      "url": "http://place.map.kakao.com/23864424",
      "region": "광주광역시"
    },
    {
      "lat": 35.21181110039187,
      "lng": 126.86901049634548,
      "title": "첨단자이2차아파트",
      "description": "광주 북구 임방울대로 1020",
      "url": "http://place.map.kakao.com/11156960",
      "region": "광주광역시"
    },
    {
      "lat": 35.210322043417435,
      "lng": 126.86898762828548,
      "title": "첨단자이1단지아파트",
      "description": "광주 북구 임방울대로1042번길 14-1",
      "url": "http://place.map.kakao.com/11365208",
      "region": "광주광역시"
    },
    {
      "lat": 35.19757682004946,
      "lng": 126.818597586575,
      "title": "수완자이아파트",
      "description": "광주 광산구 장덕로95번길 45",
      "url": "http://place.map.kakao.com/11265441",
      "region": "광주광역시"
    },
    {
      "lat": 35.1973906324236,
      "lng": 126.819463282682,
      "title": "수완자이아파트 상가동",
      "description": "광주 광산구 장덕로95번길 45",
      "url": "http://place.map.kakao.com/23864836",
      "region": "광주광역시"
    },
    {
      "lat": 36.34063970907294,
      "lng": 127.42442745875887,
      "title": "한밭자이아파트",
      "description": "대전 동구 대전로 935",
      "url": "http://place.map.kakao.com/11048185",
      "region": "대전광역시"
    },
    {
      "lat": 36.32223312216962,
      "lng": 127.42773089306405,
      "title": "대전센트럴자이1단지아파트",
      "description": "대전 중구 충무로107번길 100",
      "url": "http://place.map.kakao.com/13146995",
      "region": "대전광역시"
    },
    {
      "lat": 36.32225303003247,
      "lng": 127.42619418829275,
      "title": "대전센트럴자이2단지아파트",
      "description": "대전 중구 충무로107번길 100",
      "url": "http://place.map.kakao.com/13147002",
      "region": "대전광역시"
    },
    {
      "lat": 36.3405943780728,
      "lng": 127.422979150293,
      "title": "한밭자이아파트 상가동",
      "description": "대전 동구 대전로 935",
      "url": "http://place.map.kakao.com/23867764",
      "region": "대전광역시"
    },
    {
      "lat": 36.31020573263144,
      "lng": 127.40556853389177,
      "title": "문화자이SKVIEW아파트 (2027년08월예정)",
      "description": "대전 중구 문화동 435-2",
      "url": "http://place.map.kakao.com/1147898007",
      "region": "대전광역시"
    },
    {
      "lat": 36.34242386655352,
      "lng": 127.38059765826938,
      "title": "둔산자이아이파크아파트",
      "description": "대전 서구 계룡로 520",
      "url": "http://place.map.kakao.com/818390800",
      "region": "대전광역시"
    },
    {
      "lat": 36.30625771259767,
      "lng": 127.37202228744056,
      "title": "복수센트럴자이아파트",
      "description": "대전 서구 복수서로 15",
      "url": "http://place.map.kakao.com/1208109701",
      "region": "대전광역시"
    },
    {
      "lat": 36.355754808631325,
      "lng": 127.33713638847826,
      "title": "유성자이아파트",
      "description": "대전 유성구 계룡로 55",
      "url": "http://place.map.kakao.com/11312381",
      "region": "대전광역시"
    },
    {
      "lat": 35.5388836450395,
      "lng": 129.332652352208,
      "title": "울산센트럴자이아파트",
      "description": "울산 남구 삼산로 231",
      "url": "http://place.map.kakao.com/23256254",
      "region": "울산광역시"
    },
    {
      "lat": 35.55335248896766,
      "lng": 129.26646467149536,
      "title": "무거위브자이아파트",
      "description": "울산 남구 북부순환도로 35",
      "url": "http://place.map.kakao.com/13495596",
      "region": "울산광역시"
    },
    {
      "lat": 35.527950545174136,
      "lng": 129.4283614778414,
      "title": "울산지웰시티자이1단지아파트",
      "description": "울산 동구 서부로 50",
      "url": "http://place.map.kakao.com/963425208",
      "region": "울산광역시"
    },
    {
      "lat": 35.52549058114295,
      "lng": 129.42970916498498,
      "title": "울산지웰시티자이2단지아파트",
      "description": "울산 동구 서부로 51",
      "url": "http://place.map.kakao.com/1173942028",
      "region": "울산광역시"
    },
    {
      "lat": 36.58991312139944,
      "lng": 127.28998904324686,
      "title": "자이아파트",
      "description": "세종특별자치시 조치원읍 도원로 16",
      "url": "http://place.map.kakao.com/11161847",
      "region": "세종특별자치시"
    },
    {
      "lat": 36.53130602299948,
      "lng": 127.25622546994067,
      "title": "산울마을2단지세종자이더시티아파트",
      "description": "세종특별자치시 산울3로 45",
      "url": "http://place.map.kakao.com/1989972705",
      "region": "세종특별자치시"
    },
    {
      "lat": 36.486179483195,
      "lng": 127.318483492571,
      "title": "새나루마을1단지세종자이e편한세상아파트",
      "description": "세종특별자치시 남세종로 160",
      "url": "http://place.map.kakao.com/1308542922",
      "region": "세종특별자치시"
    },
    {
      "lat": 37.31584561922386,
      "lng": 127.95164621392237,
      "title": "원주자이센트로아파트 (2026년06월예정)",
      "description": "강원특별자치도 원주시 단구동 894",
      "url": "http://place.map.kakao.com/828594345",
      "region": "강원특별자치도"
    },
    {
      "lat": 37.74361953196031,
      "lng": 128.8899913960293,
      "title": "강릉자이파인베뉴아파트",
      "description": "강원특별자치도 강릉시 동해대로 2768",
      "url": "http://place.map.kakao.com/1415903137",
      "region": "강원특별자치도"
    },
    {
      "lat": 37.4995779464308,
      "lng": 129.113559867493,
      "title": "동해자이아파트",
      "description": "강원특별자치도 동해시 용정로 1",
      "url": "http://place.map.kakao.com/748777768",
      "region": "강원특별자치도"
    },
    {
      "lat": 38.21139463300466,
      "lng": 128.5937434974835,
      "title": "속초디오션자이아파트",
      "description": "강원특별자치도 속초시 장안로 31",
      "url": "http://place.map.kakao.com/858595754",
      "region": "강원특별자치도"
    },
    {
      "lat": 38.18683009749235,
      "lng": 128.57969466347873,
      "title": "속초자이아파트",
      "description": "강원특별자치도 속초시 조양로 181",
      "url": "http://place.map.kakao.com/1368954923",
      "region": "강원특별자치도"
    },
    {
      "lat": 36.61525465937899,
      "lng": 127.42672915326422,
      "title": "가경자이아파트",
      "description": "충북 청주시 흥덕구 서현로 30",
      "url": "http://place.map.kakao.com/1128466907",
      "region": "충청북도"
    },
    {
      "lat": 36.67582338744174,
      "lng": 127.39150974043855,
      "title": "청주리버파크자이아파트",
      "description": "충북 청주시 흥덕구 옥산면 오송가락로 1056",
      "url": "http://place.map.kakao.com/752886067",
      "region": "충청북도"
    },
    {
      "lat": 36.635275128327294,
      "lng": 127.42115276490883,
      "title": "서청주파크자이아파트",
      "description": "충북 청주시 흥덕구 2순환로 1106",
      "url": "http://place.map.kakao.com/1136211564",
      "region": "충청북도"
    },
    {
      "lat": 36.60024976966995,
      "lng": 127.50106841662708,
      "title": "청주센트럴자이아파트",
      "description": "충북 청주시 상당구 단재로 316",
      "url": "http://place.map.kakao.com/27444933",
      "region": "충청북도"
    },
    {
      "lat": 36.6407483944728,
      "lng": 127.455730462686,
      "title": "청주SKVIEW자이아파트",
      "description": "충북 청주시 흥덕구 월명로 76",
      "url": "http://place.map.kakao.com/1979729115",
      "region": "충청북도"
    },
    {
      "lat": 36.641945293116,
      "lng": 127.476859495405,
      "title": "청주센텀푸르지오자이아파트 (2028년12월예정)",
      "description": "충북 청주시 서원구 사직동 247-1",
      "url": "http://place.map.kakao.com/183115440",
      "region": "충청북도"
    },
    {
      "lat": 36.6353214694825,
      "lng": 127.446535498313,
      "title": "복대자이더스카이아파트 (2026년07월예정)",
      "description": "충북 청주시 흥덕구 공단로 12",
      "url": "http://place.map.kakao.com/556173225",
      "region": "충청북도"
    },
    {
      "lat": 37.01805905335643,
      "lng": 127.83228074551596,
      "title": "충주시티자이아파트",
      "description": "충북 충주시 중앙탑면 원앙4길 51",
      "url": "http://place.map.kakao.com/27295767",
      "region": "충청북도"
    },
    {
      "lat": 37.16089093889435,
      "lng": 128.18405075745594,
      "title": "제천자이더스카이아파트",
      "description": "충북 제천시 복합타운1길 22",
      "url": "http://place.map.kakao.com/564173097",
      "region": "충청북도"
    },
    {
      "lat": 36.993941827124,
      "lng": 127.587536385377,
      "title": "음성자이센트럴시티아파트",
      "description": "충북 음성군 금왕읍 무극로 243-15",
      "url": "http://place.map.kakao.com/1930477043",
      "region": "충청북도"
    },
    {
      "lat": 36.8426380200137,
      "lng": 127.1222380865541,
      "title": "천안시티자이아파트",
      "description": "충남 천안시 서북구 성성6로 21",
      "url": "http://place.map.kakao.com/27485048",
      "region": "충청남도"
    },
    {
      "lat": 36.78725734317716,
      "lng": 127.1162055691678,
      "title": "쌍용자이아파트",
      "description": "충남 천안시 서북구 월봉1길 15",
      "url": "http://place.map.kakao.com/11115932",
      "region": "충청남도"
    },
    {
      "lat": 36.848023416321254,
      "lng": 127.1253244079077,
      "title": "성성자이레이크파크아파트 (2028년02월예정)",
      "description": "충남 천안시 서북구 공단로 78-65",
      "url": "http://place.map.kakao.com/431285332",
      "region": "충청남도"
    },
    {
      "lat": 36.848145367519166,
      "lng": 127.12503757420691,
      "title": "성성자이레이크파크아파트(2회차) (2028년02월예정)",
      "description": "충남 천안시 서북구 공단로 78-65",
      "url": "http://place.map.kakao.com/328303158",
      "region": "충청남도"
    },
    {
      "lat": 36.767618822519914,
      "lng": 127.08352875785111,
      "title": "배방자이1차아파트",
      "description": "충남 아산시 배방읍 호서로 460",
      "url": "http://place.map.kakao.com/8011296",
      "region": "충청남도"
    },
    {
      "lat": 36.77283028870525,
      "lng": 127.07350705752022,
      "title": "배방자이2북수마을아파트",
      "description": "충남 아산시 배방읍 북수로 116",
      "url": "http://place.map.kakao.com/10998441",
      "region": "충청남도"
    },
    {
      "lat": 36.7699135434842,
      "lng": 127.001512111065,
      "title": "아산자이그랜드파크2BL아파트 (2026년02월예정)",
      "description": "충남 아산시 용화동 133-2",
      "url": "http://place.map.kakao.com/1432038908",
      "region": "충청남도"
    },
    {
      "lat": 36.82139159633307,
      "lng": 127.0900644455992,
      "title": "아산탕정자이퍼스트시티아파트 (2027년12월예정)",
      "description": "충남 아산시 탕정면 동산리 142-12",
      "url": "http://place.map.kakao.com/467394445",
      "region": "충청남도"
    },
    {
      "lat": 36.7777491961748,
      "lng": 127.096595631274,
      "title": "힐스테이트자이아산센텀아파트 (2026년02월예정)",
      "description": "충남 아산시 배방읍 세교리 1600",
      "url": "http://place.map.kakao.com/202798279",
      "region": "충청남도"
    },
    {
      "lat": 36.8209697670239,
      "lng": 127.09370551318548,
      "title": "아산탕정자이센트럴시티아파트(A2BL) (2028년02월예정)",
      "description": "충남 아산시 탕정면 동산리 147-4",
      "url": "http://place.map.kakao.com/386829133",
      "region": "충청남도"
    },
    {
      "lat": 36.768187865817545,
      "lng": 127.0033534511674,
      "title": "아산자이그랜드파크1BL아파트 (2026년02월예정)",
      "description": "충남 아산시 용화동 137-3",
      "url": "http://place.map.kakao.com/246034908",
      "region": "충청남도"
    },
    {
      "lat": 36.18106430209224,
      "lng": 127.1020963926968,
      "title": "힐스테이트자이논산아파트",
      "description": "충남 논산시 시민로132번길 7",
      "url": "http://place.map.kakao.com/1197239478",
      "region": "충청남도"
    },
    {
      "lat": 36.26223968089562,
      "lng": 127.25582677321098,
      "title": "계룡자이아파트",
      "description": "충남 계룡시 두마면 대실남북로 81",
      "url": "http://place.map.kakao.com/657635473",
      "region": "충청남도"
    },
    {
      "lat": 36.59718182151354,
      "lng": 126.6761078007637,
      "title": "홍성자이아파트",
      "description": "충남 홍성군 홍성읍 고암2길 21",
      "url": "http://place.map.kakao.com/254744286",
      "region": "충청남도"
    },
    {
      "lat": 35.86593458725361,
      "lng": 127.11906629932741,
      "title": "송천자이아파트",
      "description": "전북특별자치도 전주시 덕진구 두간6길 10",
      "url": "http://place.map.kakao.com/9846099",
      "region": "전북특별자치도"
    },
    {
      "lat": 35.87471863450062,
      "lng": 127.13404852151436,
      "title": "에코시티자이1차아파트",
      "description": "전북특별자치도 전주시 덕진구 세병로 111",
      "url": "http://place.map.kakao.com/232431222",
      "region": "전북특별자치도"
    },
    {
      "lat": 35.87574915551083,
      "lng": 127.13530821681505,
      "title": "에코시티자이2차아파트",
      "description": "전북특별자치도 전주시 덕진구 세병로 131",
      "url": "http://place.map.kakao.com/84373675",
      "region": "전북특별자치도"
    },
    {
      "lat": 35.94102983945194,
      "lng": 126.96437357146438,
      "title": "익산자이그랜드파크아파트",
      "description": "전북특별자치도 익산시 선화1로 76",
      "url": "http://place.map.kakao.com/1003846590",
      "region": "전북특별자치도"
    },
    {
      "lat": 35.95453863844141,
      "lng": 126.98710641541761,
      "title": "익산자이아파트",
      "description": "전북특별자치도 익산시 동서로 509",
      "url": "http://place.map.kakao.com/8056656",
      "region": "전북특별자치도"
    },
    {
      "lat": 35.9541852773216,
      "lng": 126.986428099511,
      "title": "익산자이아파트 상가",
      "description": "전북특별자치도 익산시 동서로 509",
      "url": "http://place.map.kakao.com/26438961",
      "region": "전북특별자치도"
    },
    {
      "lat": 34.9388395626637,
      "lng": 127.679402188238,
      "title": "광양센트럴자이아파트",
      "description": "전남 광양시 성황수동로 21",
      "url": "http://place.map.kakao.com/2127695381",
      "region": "전라남도"
    },
    {
      "lat": 34.935915923919474,
      "lng": 127.50860389776601,
      "title": "순천그랜드파크자이아파트 (2027년07월예정)",
      "description": "전남 순천시 풍덕동 327-3",
      "url": "http://place.map.kakao.com/1877817104",
      "region": "전라남도"
    },
    {
      "lat": 35.015089225286744,
      "lng": 126.7228380007482,
      "title": "나주역자이리버파크아파트",
      "description": "전남 나주시 신월길 54",
      "url": "http://place.map.kakao.com/1201492626",
      "region": "전라남도"
    },
    {
      "lat": 36.00954411674496,
      "lng": 129.3427882234258,
      "title": "포항자이아파트",
      "description": "경북 포항시 남구 상도남로 11",
      "url": "http://place.map.kakao.com/1232119405",
      "region": "경상북도"
    },
    {
      "lat": 36.029261615910166,
      "lng": 129.34964151661524,
      "title": "포항자이애서턴아파트 (2026년05월예정)",
      "description": "경북 포항시 북구 학잠동 93-4",
      "url": "http://place.map.kakao.com/1781781892",
      "region": "경상북도"
    },
    {
      "lat": 36.00842709092739,
      "lng": 129.34167062827575,
      "title": "포항자이아파트 102동",
      "description": "경북 포항시 남구 상도남로 11",
      "url": "http://place.map.kakao.com/1098880176",
      "region": "경상북도"
    },
    {
      "lat": 36.12632646417492,
      "lng": 128.09624982394132,
      "title": "김천센트럴자이아파트",
      "description": "경북 김천시 부곡길 137",
      "url": "http://place.map.kakao.com/1859875127",
      "region": "경상북도"
    },
    {
      "lat": 36.560224346152346,
      "lng": 128.71819451338723,
      "title": "안동센트럴자이아파트",
      "description": "경북 안동시 배움길 77",
      "url": "http://place.map.kakao.com/19148065",
      "region": "경상북도"
    },
    {
      "lat": 36.15431113345189,
      "lng": 128.3387277221265,
      "title": "원호자이더포레아파트",
      "description": "경북 구미시 고아읍 평성로9길 7-12",
      "url": "http://place.map.kakao.com/1329376319",
      "region": "경상북도"
    },
    {
      "lat": 36.15941881355754,
      "lng": 128.34571648767817,
      "title": "문성레이크자이아파트",
      "description": "경북 구미시 고아읍 가들로 33",
      "url": "http://place.map.kakao.com/394845498",
      "region": "경상북도"
    },
    {
      "lat": 36.15337483709703,
      "lng": 128.34331532564417,
      "title": "문성파크자이아파트",
      "description": "경북 구미시 고아읍 문성로 20",
      "url": "http://place.map.kakao.com/26567740",
      "region": "경상북도"
    },
    {
      "lat": 36.83518518683035,
      "lng": 128.63581026368695,
      "title": "영주자이시그니처아파트 (2026년11월예정)",
      "description": "경북 영주시 상망동 산 78-1",
      "url": "http://place.map.kakao.com/828672923",
      "region": "경상북도"
    },
    {
      "lat": 35.832638599517075,
      "lng": 128.71965737113655,
      "title": "중산자이1단지아파트",
      "description": "경북 경산시 펜타힐즈1로 130",
      "url": "http://place.map.kakao.com/1415902970",
      "region": "경상북도"
    },
    {
      "lat": 35.83217827099561,
      "lng": 128.71718968637387,
      "title": "중산자이2단지아파트",
      "description": "경북 경산시 펜타힐즈1로 84",
      "url": "http://place.map.kakao.com/1004465228",
      "region": "경상북도"
    },
    {
      "lat": 35.8504295472728,
      "lng": 128.532734355443,
      "title": "대구용산자이아파트 103동",
      "description": "대구 달서구 달구벌대로 1515",
      "url": "http://place.map.kakao.com/1791472168",
      "region": "대구광역시"
    },
    {
      "lat": 35.2101485779314,
      "lng": 128.693809494636,
      "title": "창원자이시그니처아파트",
      "description": "경남 창원시 성산구 원이대로878번길 10",
      "url": "http://place.map.kakao.com/1329219729",
      "region": "경상남도"
    },
    {
      "lat": 35.214319939889954,
      "lng": 128.5688604467371,
      "title": "무학자이아파트",
      "description": "경남 창원시 마산합포구 노산서18길 19",
      "url": "http://place.map.kakao.com/11244823",
      "region": "경상남도"
    },
    {
      "lat": 35.207205959860886,
      "lng": 128.69697222831465,
      "title": "창원자이아파트",
      "description": "경남 창원시 성산구 원이대로883번길 23",
      "url": "http://place.map.kakao.com/23822670",
      "region": "경상남도"
    },
    {
      "lat": 35.15619063025406,
      "lng": 128.69998088252666,
      "title": "진해GS자이아파트",
      "description": "경남 창원시 진해구 동진로21번길 26",
      "url": "http://place.map.kakao.com/11044472",
      "region": "경상남도"
    },
    {
      "lat": 35.15476842150453,
      "lng": 128.67012116030082,
      "title": "창원메가시티자이앤위브아파트 (2028년12월예정)",
      "description": "경남 창원시 진해구 대야남로 49",
      "url": "http://place.map.kakao.com/356758044",
      "region": "경상남도"
    },
    {
      "lat": 35.2206010659442,
      "lng": 128.675084461486,
      "title": "창원자이더스카이아파트 (예정)",
      "description": "경남 창원시 성산구 중앙대로39번길 14",
      "url": "http://place.map.kakao.com/883941429",
      "region": "경상남도"
    },
    {
      "lat": 35.1571062799092,
      "lng": 128.699209829868,
      "title": "GS자이아파트 상가",
      "description": "경남 창원시 진해구 진해대로776번길 15",
      "url": "http://place.map.kakao.com/26440137",
      "region": "경상남도"
    },
    {
      "lat": 35.177827946535345,
      "lng": 128.10574840084726,
      "title": "진주센트럴자이아파트",
      "description": "경남 진주시 도동천로 48",
      "url": "http://place.map.kakao.com/15104323",
      "region": "경상남도"
    },
    {
      "lat": 34.88120680615523,
      "lng": 128.59229505042146,
      "title": "거제오션파크자이아파트",
      "description": "경남 거제시 거제면 두동로 259-90",
      "url": "http://place.map.kakao.com/38708289",
      "region": "경상남도"
    },
    {
      "lat": 34.892335387372555,
      "lng": 128.6433737786215,
      "title": "거제자이아파트",
      "description": "경남 거제시 해명로 52",
      "url": "http://place.map.kakao.com/10993653",
      "region": "경상남도"
    },
    {
      "lat": 34.8915508776492,
      "lng": 128.643003750408,
      "title": "거제자이아파트 자이안센터",
      "description": "경남 거제시 해명로 52",
      "url": "http://place.map.kakao.com/11503556",
      "region": "경상남도"
    },
    {
      "lat": 35.310325949405694,
      "lng": 128.72892174122396,
      "title": "진영자이아파트",
      "description": "경남 김해시 진영읍 김해대로361번길 31",
      "url": "http://place.map.kakao.com/11151566",
      "region": "경상남도"
    },
    {
      "lat": 35.16969791526707,
      "lng": 128.82585753055176,
      "title": "율하자이힐스테이트아파트",
      "description": "경남 김해시 율하6로 17",
      "url": "http://place.map.kakao.com/914133488",
      "region": "경상남도"
    },
    {
      "lat": 35.17135722440782,
      "lng": 128.82787568985188,
      "title": "원메이저자이아파트",
      "description": "경남 김해시 율하6로 18",
      "url": "http://place.map.kakao.com/2139387593",
      "region": "경상남도"
    },
    {
      "lat": 35.1928250382515,
      "lng": 128.81251053031733,
      "title": "장유자이더파크아파트",
      "description": "경남 김해시 장유로334번길 67",
      "url": "http://place.map.kakao.com/2085921273",
      "region": "경상남도"
    },
    {
      "lat": 35.3098753619367,
      "lng": 128.72955091733,
      "title": "진영자이아파트 상가동",
      "description": "경남 김해시 진영읍 김해대로361번길 35",
      "url": "http://place.map.kakao.com/23842098",
      "region": "경상남도"
    },
    {
      "lat": 35.3881551453782,
      "lng": 129.151005244413,
      "title": "양산자이파크팰리체아파트 (2028년07월예정)",
      "description": "경남 양산시 평산동 47-1",
      "url": "http://place.map.kakao.com/150375649",
      "region": "경상남도"
    },
    {
      "lat": 35.273989084885784,
      "lng": 128.5245777537043,
      "title": "광려천메트로자이아파트",
      "description": "경남 함안군 칠원읍 삼호길 181",
      "url": "http://place.map.kakao.com/11344234",
      "region": "경상남도"
    },
    {
      "lat": 35.2151733598213,
      "lng": 128.568933975684,
      "title": "무학자이아파트 상가동",
      "description": "경남 창원시 마산합포구 노산서18길 19",
      "url": "http://place.map.kakao.com/26444982",
      "region": "경상남도"
    }
  ]
}