{
  "pins": [
    {
      "lat": 37.46677996948494,
      "lng": 127.09296824674976,
      "title": "세곡푸르지오아파트",
      "description": "서울 강남구 자곡로 21",
      "url": "http://place.map.kakao.com/14493488",
      "region": "서울특별시"
    },
    {
      "lat": 37.50147842810233,
      "lng": 127.0617311838319,
      "title": "대치푸르지오써밋아파트",
      "description": "서울 강남구 삼성로72길 12",
      "url": "http://place.map.kakao.com/2079187033",
      "region": "서울특별시"
    },
    {
      "lat": 37.49775512904686,
      "lng": 127.04678151274898,
      "title": "역삼푸르지오아파트",
      "description": "서울 강남구 언주로 332",
      "url": "http://place.map.kakao.com/8000614",
      "region": "서울특별시"
    },
    {
      "lat": 37.49972161637075,
      "lng": 127.0499809018625,
      "title": "개나리푸르지오아파트",
      "description": "서울 강남구 역삼로 314",
      "url": "http://place.map.kakao.com/8189602",
      "region": "서울특별시"
    },
    {
      "lat": 37.48773610225771,
      "lng": 127.03291161371894,
      "title": "도곡푸르지오아파트(102동)",
      "description": "서울 강남구 강남대로 272",
      "url": "http://place.map.kakao.com/7837790",
      "region": "서울특별시"
    },
    {
      "lat": 37.48804688515971,
      "lng": 127.03314354683235,
      "title": "도곡푸르지오1차아파트",
      "description": "서울 강남구 강남대로54길 6",
      "url": "http://place.map.kakao.com/11231929",
      "region": "서울특별시"
    },
    {
      "lat": 37.534146130429356,
      "lng": 127.14651776352255,
      "title": "둔촌푸르지오아파트",
      "description": "서울 강동구 명일로 172",
      "url": "http://place.map.kakao.com/11336299",
      "region": "서울특별시"
    },
    {
      "lat": 37.557711676927354,
      "lng": 127.17008653243371,
      "title": "고덕센트럴푸르지오아파트",
      "description": "서울 강동구 고덕로 399",
      "url": "http://place.map.kakao.com/157579208",
      "region": "서울특별시"
    },
    {
      "lat": 37.54953788473015,
      "lng": 127.10906445923118,
      "title": "워커힐푸르지오아파트",
      "description": "서울 광진구 아차산로78길 10",
      "url": "http://place.map.kakao.com/11185680",
      "region": "서울특별시"
    },
    {
      "lat": 37.564475645416415,
      "lng": 127.18378507086837,
      "title": "미사강변푸르지오아파트 104동",
      "description": "경기 하남시 미사강변대로 165",
      "url": "http://place.map.kakao.com/26766363",
      "region": "경기도"
    },
    {
      "lat": 37.61077190927401,
      "lng": 127.03899216768632,
      "title": "꿈의숲푸르지오아파트",
      "description": "서울 성북구 오패산로16가길 40",
      "url": "http://place.map.kakao.com/11374496",
      "region": "서울특별시"
    },
    {
      "lat": 37.61178635414699,
      "lng": 127.01614615726216,
      "title": "길음뉴타운2단지푸르지오아파트",
      "description": "서울 성북구 길음로 119",
      "url": "http://place.map.kakao.com/11506228",
      "region": "서울특별시"
    },
    {
      "lat": 37.6108382511224,
      "lng": 127.017962598423,
      "title": "길음뉴타운2단지푸르지오아파트 상가",
      "description": "서울 성북구 길음로 103",
      "url": "http://place.map.kakao.com/926636410",
      "region": "서울특별시"
    },
    {
      "lat": 37.6085407488469,
      "lng": 127.017827273913,
      "title": "길음뉴타운3단지푸르지오아파트(1280-3)",
      "description": "서울 성북구 길음로13길 39",
      "url": "http://place.map.kakao.com/933576985",
      "region": "서울특별시"
    },
    {
      "lat": 37.544622377545736,
      "lng": 126.83144140674757,
      "title": "화곡푸르지오아파트",
      "description": "서울 강서구 화곡로13길 107",
      "url": "http://place.map.kakao.com/8162476",
      "region": "서울특별시"
    },
    {
      "lat": 37.57005231355478,
      "lng": 126.82177270026665,
      "title": "마곡푸르지오아파트",
      "description": "서울 강서구 방화대로34길 88",
      "url": "http://place.map.kakao.com/8300884",
      "region": "서울특별시"
    },
    {
      "lat": 37.48730982964421,
      "lng": 126.96086404320091,
      "title": "관악푸르지오아파트",
      "description": "서울 관악구 관악로30길 27",
      "url": "http://place.map.kakao.com/10152781",
      "region": "서울특별시"
    },
    {
      "lat": 37.4791228684825,
      "lng": 126.91048508711464,
      "title": "신림푸르지오1차아파트",
      "description": "서울 관악구 남부순환로 1430",
      "url": "http://place.map.kakao.com/8434389",
      "region": "서울특별시"
    },
    {
      "lat": 37.48272925507542,
      "lng": 126.9613254706078,
      "title": "관악파크푸르지오아파트",
      "description": "서울 관악구 행운10길 21",
      "url": "http://place.map.kakao.com/21960836",
      "region": "서울특별시"
    },
    {
      "lat": 37.46068128890394,
      "lng": 126.93266328492025,
      "title": "서울대벤처타운역푸르지오아파트",
      "description": "서울 관악구 약수암길 1-8",
      "url": "http://place.map.kakao.com/1426446121",
      "region": "서울특별시"
    },
    {
      "lat": 37.46134368706692,
      "lng": 126.91991049364272,
      "title": "신림푸르지오2차아파트",
      "description": "서울 관악구 난곡로 66",
      "url": "http://place.map.kakao.com/7981559",
      "region": "서울특별시"
    },
    {
      "lat": 37.4896198307704,
      "lng": 126.96031556009,
      "title": "관악푸르지오아파트(1717-1)",
      "description": "서울 관악구 청림5길 28",
      "url": "http://place.map.kakao.com/1161041177",
      "region": "서울특별시"
    },
    {
      "lat": 37.482076202407384,
      "lng": 126.9618752914201,
      "title": "관악파크푸르지오아파트 상가",
      "description": "서울 관악구 행운10길 21",
      "url": "http://place.map.kakao.com/896491906",
      "region": "서울특별시"
    },
    {
      "lat": 37.51744017278381,
      "lng": 127.10357798467008,
      "title": "잠실푸르지오월드마크아파트",
      "description": "서울 송파구 올림픽로35가길 9",
      "url": "http://place.map.kakao.com/19147106",
      "region": "서울특별시"
    },
    {
      "lat": 37.55716165220632,
      "lng": 127.03699721790633,
      "title": "라체르보푸르지오써밋아파트",
      "description": "서울 성동구 고산자로2길 71",
      "url": "http://place.map.kakao.com/2080336644",
      "region": "서울특별시"
    },
    {
      "lat": 37.544733216499736,
      "lng": 127.02308858683003,
      "title": "서울숲1차푸르지오아파트",
      "description": "서울 성동구 금호로 15",
      "url": "http://place.map.kakao.com/10504283",
      "region": "서울특별시"
    },
    {
      "lat": 37.555200612275385,
      "lng": 127.03246706571781,
      "title": "서울숲행당푸르지오아파트",
      "description": "서울 성동구 고산자로 177",
      "url": "http://place.map.kakao.com/11360718",
      "region": "서울특별시"
    },
    {
      "lat": 37.549606289457095,
      "lng": 127.02053936150381,
      "title": "금호1차푸르지오아파트",
      "description": "서울 성동구 금호산8길 5",
      "url": "http://place.map.kakao.com/11341306",
      "region": "서울특별시"
    },
    {
      "lat": 37.55920028966219,
      "lng": 127.01950301121795,
      "title": "신당푸르지오아파트",
      "description": "서울 중구 다산로36길 110",
      "url": "http://place.map.kakao.com/7975948",
      "region": "서울특별시"
    },
    {
      "lat": 37.54644313089131,
      "lng": 127.02400118172234,
      "title": "서울숲2차푸르지오아파트",
      "description": "서울 성동구 금호로 17",
      "url": "http://place.map.kakao.com/11540445",
      "region": "서울특별시"
    },
    {
      "lat": 37.50116115047685,
      "lng": 127.0208314307178,
      "title": "서초푸르지오써밋아파트",
      "description": "서울 서초구 서운로 201",
      "url": "http://place.map.kakao.com/26257071",
      "region": "서울특별시"
    },
    {
      "lat": 37.5004094376531,
      "lng": 126.84813342649245,
      "title": "개봉푸르지오아파트",
      "description": "서울 구로구 남부순환로 775",
      "url": "http://place.map.kakao.com/17664514",
      "region": "서울특별시"
    },
    {
      "lat": 37.50761186307415,
      "lng": 126.85811244173017,
      "title": "고척파크푸르지오아파트",
      "description": "서울 구로구 중앙로 121",
      "url": "http://place.map.kakao.com/11371723",
      "region": "서울특별시"
    },
    {
      "lat": 37.49160694628738,
      "lng": 126.84152946950135,
      "title": "오류푸르지오아파트",
      "description": "서울 구로구 오류로8길 11",
      "url": "http://place.map.kakao.com/8448100",
      "region": "서울특별시"
    },
    {
      "lat": 37.503633068648256,
      "lng": 126.85814711450197,
      "title": "고척푸르지오힐스테이트아파트 (2028년08월예정)",
      "description": "서울 구로구 고척로 233",
      "url": "http://place.map.kakao.com/1201387431",
      "region": "서울특별시"
    },
    {
      "lat": 37.510496126351526,
      "lng": 126.88945074603241,
      "title": "신도림푸르지오2차아파트",
      "description": "서울 구로구 경인로67길 23",
      "url": "http://place.map.kakao.com/11322952",
      "region": "서울특별시"
    },
    {
      "lat": 37.506843718340775,
      "lng": 126.88408614959258,
      "title": "신도림푸르지오3차아파트",
      "description": "서울 구로구 경인로 619-3",
      "url": "http://place.map.kakao.com/10525517",
      "region": "서울특별시"
    },
    {
      "lat": 37.43312337431051,
      "lng": 126.90459667955089,
      "title": "석수역푸르지오아파트",
      "description": "경기 안양시 만안구 삼성산길 8",
      "url": "http://place.map.kakao.com/8382479",
      "region": "경기도"
    },
    {
      "lat": 37.472218596715585,
      "lng": 126.86911786458694,
      "title": "철산푸르지오하늘채아파트",
      "description": "경기 광명시 디지털로 24",
      "url": "http://place.map.kakao.com/11368875",
      "region": "경기도"
    },
    {
      "lat": 37.47210050718941,
      "lng": 126.86664911319947,
      "title": "광명철산센트럴푸르지오아파트",
      "description": "경기 광명시 오리로 835",
      "url": "http://place.map.kakao.com/1902962896",
      "region": "경기도"
    },
    {
      "lat": 37.47343431167334,
      "lng": 126.863761720292,
      "title": "광명푸르지오아파트",
      "description": "경기 광명시 도덕공원로 59",
      "url": "http://place.map.kakao.com/8183957",
      "region": "경기도"
    },
    {
      "lat": 37.4745858135413,
      "lng": 126.85765712476051,
      "title": "광명푸르지오포레나아파트",
      "description": "경기 광명시 새터로 90",
      "url": "http://place.map.kakao.com/1552379045",
      "region": "경기도"
    },
    {
      "lat": 37.66516332869758,
      "lng": 127.0747815511486,
      "title": "노원센트럴푸르지오아파트",
      "description": "서울 노원구 수락산로 12",
      "url": "http://place.map.kakao.com/1285536836",
      "region": "서울특별시"
    },
    {
      "lat": 37.6158056088291,
      "lng": 127.058852374522,
      "title": "푸르지오라디우스파크아파트 (2027년03월예정)",
      "description": "서울 성북구 장위동 25-55",
      "url": "http://place.map.kakao.com/1780863870",
      "region": "서울특별시"
    },
    {
      "lat": 37.611451912657074,
      "lng": 127.03972190529478,
      "title": "꿈의숲푸르지오아파트 108동",
      "description": "서울 성북구 오패산로16가길 40",
      "url": "http://place.map.kakao.com/26726046",
      "region": "서울특별시"
    },
    {
      "lat": 37.723305004392444,
      "lng": 127.05542105001419,
      "title": "의정부장암푸르지오1단지아파트",
      "description": "경기 의정부시 장곡로226번길 52",
      "url": "http://place.map.kakao.com/8060247",
      "region": "경기도"
    },
    {
      "lat": 37.72978420594817,
      "lng": 127.05071479245731,
      "title": "의정부역푸르지오더센트럴아파트",
      "description": "경기 의정부시 경의로132번길 72",
      "url": "http://place.map.kakao.com/2136516759",
      "region": "경기도"
    },
    {
      "lat": 37.66830056041304,
      "lng": 127.1289973530546,
      "title": "별내푸르지오아파트",
      "description": "경기 남양주시 송산로307번길 22",
      "url": "http://place.map.kakao.com/21906970",
      "region": "경기도"
    },
    {
      "lat": 37.72406851560837,
      "lng": 127.05650146698055,
      "title": "의정부장암푸르지오2단지아파트",
      "description": "경기 의정부시 장곡로226번길 65",
      "url": "http://place.map.kakao.com/8528514",
      "region": "경기도"
    },
    {
      "lat": 37.625812357845284,
      "lng": 127.11469253884862,
      "title": "구리갈매푸르지오아파트",
      "description": "경기 구리시 갈매중앙로 16",
      "url": "http://place.map.kakao.com/26983559",
      "region": "경기도"
    },
    {
      "lat": 37.606291000372785,
      "lng": 127.0099886805535,
      "title": "정릉푸르지오아파트",
      "description": "서울 성북구 보국문로 19",
      "url": "http://place.map.kakao.com/8061608",
      "region": "서울특별시"
    },
    {
      "lat": 37.7240300320364,
      "lng": 127.054028677673,
      "title": "푸르지오아파트 상가",
      "description": "경기 의정부시 장곡로226번길 32",
      "url": "http://place.map.kakao.com/26450934",
      "region": "경기도"
    },
    {
      "lat": 37.6043242718197,
      "lng": 127.07042626672298,
      "title": "이문2차푸르지오아파트",
      "description": "서울 동대문구 한천로58길 181",
      "url": "http://place.map.kakao.com/10235577",
      "region": "서울특별시"
    },
    {
      "lat": 37.58349197284173,
      "lng": 127.01338210755104,
      "title": "삼선푸르지오아파트",
      "description": "서울 성북구 보문로29다길 31",
      "url": "http://place.map.kakao.com/11012309",
      "region": "서울특별시"
    },
    {
      "lat": 37.5559599240376,
      "lng": 127.033290171065,
      "title": "서울숲행당푸르지오아파트(110동)",
      "description": "서울 성동구 고산자로 175",
      "url": "http://place.map.kakao.com/1199970776",
      "region": "서울특별시"
    },
    {
      "lat": 37.4975596238123,
      "lng": 126.939373499031,
      "title": "상도푸르지오클라베뉴아파트",
      "description": "서울 동작구 성대로 164",
      "url": "http://place.map.kakao.com/820939919",
      "region": "서울특별시"
    },
    {
      "lat": 37.5032122257823,
      "lng": 126.96544285543273,
      "title": "흑석한강푸르지오아파트",
      "description": "서울 동작구 흑석한강로 27",
      "url": "http://place.map.kakao.com/11886017",
      "region": "서울특별시"
    },
    {
      "lat": 37.4928838172573,
      "lng": 126.98042039011014,
      "title": "이수푸르지오더프레티움아파트",
      "description": "서울 동작구 동작대로39길 39",
      "url": "http://place.map.kakao.com/1169767101",
      "region": "서울특별시"
    },
    {
      "lat": 37.48592258780247,
      "lng": 126.96181341066148,
      "title": "관악푸르지오아파트 102동",
      "description": "서울 관악구 관악로30길 27",
      "url": "http://place.map.kakao.com/26713994",
      "region": "서울특별시"
    },
    {
      "lat": 37.553310836830384,
      "lng": 126.95300610568283,
      "title": "마포래미안푸르지오아파트",
      "description": "서울 마포구 마포대로 195",
      "url": "http://place.map.kakao.com/17638211",
      "region": "서울특별시"
    },
    {
      "lat": 37.5433930773551,
      "lng": 126.95410880481352,
      "title": "공덕푸르지오펜트라우스아파트",
      "description": "서울 마포구 백범로 205",
      "url": "http://place.map.kakao.com/12025903",
      "region": "서울특별시"
    },
    {
      "lat": 37.55379288404938,
      "lng": 126.92369568722683,
      "title": "서교푸르지오아파트",
      "description": "서울 마포구 홍익로 10",
      "url": "http://place.map.kakao.com/10502044",
      "region": "서울특별시"
    },
    {
      "lat": 37.5500223666492,
      "lng": 126.912251747044,
      "title": "마포한강푸르지오아파트",
      "description": "서울 마포구 월드컵로1길 14",
      "url": "http://place.map.kakao.com/19337151",
      "region": "서울특별시"
    },
    {
      "lat": 37.5537531757758,
      "lng": 126.923596137434,
      "title": "푸르지오아파트상가",
      "description": "서울 마포구 홍익로 10",
      "url": "http://place.map.kakao.com/27195071",
      "region": "서울특별시"
    },
    {
      "lat": 37.55112583136965,
      "lng": 126.91190529468844,
      "title": "마포한강2차푸르지오아파트",
      "description": "서울 마포구 월드컵로3길 14",
      "url": "http://place.map.kakao.com/22297830",
      "region": "서울특별시"
    },
    {
      "lat": 37.552920003428596,
      "lng": 126.95585822319063,
      "title": "마포푸르지오어반피스아파트 (2027년03월예정)",
      "description": "서울 마포구 아현동 613-10",
      "url": "http://place.map.kakao.com/1426874285",
      "region": "서울특별시"
    },
    {
      "lat": 37.55494006692562,
      "lng": 126.95357773589026,
      "title": "마포래미안푸르지오아파트1단지 상가",
      "description": "서울 마포구 마포대로 195",
      "url": "http://place.map.kakao.com/27094981",
      "region": "서울특별시"
    },
    {
      "lat": 37.5533576241882,
      "lng": 126.952844242934,
      "title": "마포래미안푸르지오4단지아파트 커뮤니티센터",
      "description": "서울 마포구 마포대로 195",
      "url": "http://place.map.kakao.com/771935919",
      "region": "서울특별시"
    },
    {
      "lat": 37.56039783307326,
      "lng": 126.95238481931821,
      "title": "신촌푸르지오아파트",
      "description": "서울 서대문구 북아현로1길 50",
      "url": "http://place.map.kakao.com/26785544",
      "region": "서울특별시"
    },
    {
      "lat": 37.57572431363535,
      "lng": 126.92846863657495,
      "title": "연희파크푸르지오아파트",
      "description": "서울 서대문구 홍제천로 136",
      "url": "http://place.map.kakao.com/1490294435",
      "region": "서울특별시"
    },
    {
      "lat": 37.58095230994799,
      "lng": 126.95037354140833,
      "title": "서대문푸르지오센트럴파크아파트",
      "description": "서울 서대문구 통일로 339",
      "url": "http://place.map.kakao.com/1852794549",
      "region": "서울특별시"
    },
    {
      "lat": 37.50388757530879,
      "lng": 126.99645332559173,
      "title": "반포푸르지오아파트",
      "description": "서울 서초구 신반포로15길 4",
      "url": "http://place.map.kakao.com/12143689",
      "region": "서울특별시"
    },
    {
      "lat": 37.5474405449109,
      "lng": 127.023960763466,
      "title": "서울숲2차푸르지오아파트(235-1)",
      "description": "서울 성동구 금호로3길 11",
      "url": "http://place.map.kakao.com/1200418821",
      "region": "서울특별시"
    },
    {
      "lat": 37.48035553536787,
      "lng": 127.12341628099882,
      "title": "송파파크하비오푸르지오아파트",
      "description": "서울 송파구 송파대로 111",
      "url": "http://place.map.kakao.com/22278334",
      "region": "서울특별시"
    },
    {
      "lat": 37.48020939023371,
      "lng": 127.1397599524179,
      "title": "위례송파푸르지오아파트",
      "description": "서울 송파구 위례광장로 185",
      "url": "http://place.map.kakao.com/18082402",
      "region": "서울특별시"
    },
    {
      "lat": 37.48684048624714,
      "lng": 127.12728940974272,
      "title": "문정푸르지오2차아파트",
      "description": "서울 송파구 송이로32길 37",
      "url": "http://place.map.kakao.com/7872877",
      "region": "서울특별시"
    },
    {
      "lat": 37.48687925060397,
      "lng": 127.12810357783181,
      "title": "문정푸르지오1차아파트",
      "description": "서울 송파구 문정로 55",
      "url": "http://place.map.kakao.com/11332061",
      "region": "서울특별시"
    },
    {
      "lat": 37.48711860585526,
      "lng": 127.13327355259653,
      "title": "문정푸르지오3차아파트",
      "description": "서울 송파구 송이로 257",
      "url": "http://place.map.kakao.com/11321394",
      "region": "서울특별시"
    },
    {
      "lat": 37.47497539036918,
      "lng": 127.14280712651491,
      "title": "위례중앙푸르지오2단지아파트",
      "description": "서울 송파구 위례광장로 290",
      "url": "http://place.map.kakao.com/26157292",
      "region": "서울특별시"
    },
    {
      "lat": 37.4748435783521,
      "lng": 127.14152939247207,
      "title": "위례중앙푸르지오1단지아파트",
      "description": "서울 송파구 위례광장로 120",
      "url": "http://place.map.kakao.com/26157287",
      "region": "서울특별시"
    },
    {
      "lat": 37.52355178340668,
      "lng": 126.87682595504974,
      "title": "목동센트럴푸르지오아파트",
      "description": "서울 양천구 오목로 354",
      "url": "http://place.map.kakao.com/19149373",
      "region": "서울특별시"
    },
    {
      "lat": 37.51185180912726,
      "lng": 126.90237014189154,
      "title": "영등포푸르지오아파트",
      "description": "서울 영등포구 도신로29길 28",
      "url": "http://place.map.kakao.com/8496120",
      "region": "서울특별시"
    },
    {
      "lat": 37.52976692485051,
      "lng": 126.90630084746235,
      "title": "당산푸르지오아파트",
      "description": "서울 영등포구 영중로 154",
      "url": "http://place.map.kakao.com/7814486",
      "region": "서울특별시"
    },
    {
      "lat": 37.5215014563344,
      "lng": 126.907856431546,
      "title": "리버센트푸르지오위브아파트 (2029년01월예정)",
      "description": "서울 영등포구 영중로22길 23",
      "url": "http://place.map.kakao.com/821729389",
      "region": "서울특별시"
    },
    {
      "lat": 37.506580874492,
      "lng": 126.910247601356,
      "title": "신길AK푸르지오아파트",
      "description": "서울 영등포구 가마산로 483",
      "url": "http://place.map.kakao.com/1346808762",
      "region": "서울특별시"
    },
    {
      "lat": 37.54011856402765,
      "lng": 126.95820684822077,
      "title": "효창파크푸르지오아파트",
      "description": "서울 용산구 백범로 260",
      "url": "http://place.map.kakao.com/11356363",
      "region": "서울특별시"
    },
    {
      "lat": 37.5272085878306,
      "lng": 126.96520100231086,
      "title": "용산푸르지오써밋아파트",
      "description": "서울 용산구 한강대로 69",
      "url": "http://place.map.kakao.com/1402636549",
      "region": "서울특별시"
    },
    {
      "lat": 37.524524086352,
      "lng": 126.994316518126,
      "title": "용산푸르지오파크타운2단지아파트",
      "description": "서울 용산구 녹사평대로 66",
      "url": "http://place.map.kakao.com/12518750",
      "region": "서울특별시"
    },
    {
      "lat": 37.5259260948978,
      "lng": 126.995447699231,
      "title": "용산푸르지오파크타운1단지아파트",
      "description": "서울 용산구 장문로6길 76",
      "url": "http://place.map.kakao.com/17135560",
      "region": "서울특별시"
    },
    {
      "lat": 37.60683748279,
      "lng": 126.93654536993654,
      "title": "북한산푸르지오아파트",
      "description": "서울 은평구 통일로 660",
      "url": "http://place.map.kakao.com/22511700",
      "region": "서울특별시"
    },
    {
      "lat": 37.597416985960656,
      "lng": 126.92614690202873,
      "title": "응암푸르지오아파트",
      "description": "서울 은평구 백련산로 146",
      "url": "http://place.map.kakao.com/11177927",
      "region": "서울특별시"
    },
    {
      "lat": 37.6263658309914,
      "lng": 126.920707979538,
      "title": "은평푸르지오발라드아파트",
      "description": "서울 은평구 불광동 500",
      "url": "http://place.map.kakao.com/2067320352",
      "region": "서울특별시"
    },
    {
      "lat": 37.64911991204861,
      "lng": 126.93023061085002,
      "title": "은평뉴타운상림마을6단지푸르지오아파트(615~621동)",
      "description": "서울 은평구 진관4로 107",
      "url": "http://place.map.kakao.com/11355599",
      "region": "서울특별시"
    },
    {
      "lat": 37.646641914049646,
      "lng": 126.92973549104471,
      "title": "은평뉴타운상림마을6단지푸르지오아파트(601~605동)",
      "description": "서울 은평구 진관4로 78-7",
      "url": "http://place.map.kakao.com/11176506",
      "region": "서울특별시"
    },
    {
      "lat": 37.564555570978925,
      "lng": 126.99650817684346,
      "title": "세운푸르지오헤리시티아파트",
      "description": "서울 중구 마른내로 79",
      "url": "http://place.map.kakao.com/1135369943",
      "region": "서울특별시"
    },
    {
      "lat": 37.61474306180582,
      "lng": 127.16472422342157,
      "title": "다산푸르지오아파트",
      "description": "경기 남양주시 다산중앙로82번안길 74",
      "url": "http://place.map.kakao.com/577220910",
      "region": "경기도"
    },
    {
      "lat": 37.6220103392263,
      "lng": 127.150627439782,
      "title": "다산역자연앤푸르지오아파트",
      "description": "경기 남양주시 다산동 6084",
      "url": "http://place.map.kakao.com/1600220570",
      "region": "경기도"
    },
    {
      "lat": 37.2352405044396,
      "lng": 127.048204401608,
      "title": "영통푸르지오파인베르아파트",
      "description": "경기 수원시 영통구 태장로36번길 36",
      "url": "http://place.map.kakao.com/1560703452",
      "region": "경기도"
    },
    {
      "lat": 37.291505275464935,
      "lng": 126.98045690821208,
      "title": "화서역푸르지오더에듀포레아파트",
      "description": "경기 수원시 장안구 화산로 85",
      "url": "http://place.map.kakao.com/22578726",
      "region": "경기도"
    },
    {
      "lat": 37.28881864679446,
      "lng": 126.98973429281659,
      "title": "화서역푸르지오브리시엘아파트",
      "description": "경기 수원시 장안구 수성로157번길 60",
      "url": "http://place.map.kakao.com/1752827554",
      "region": "경기도"
    },
    {
      "lat": 37.2376326505441,
      "lng": 127.048527109754,
      "title": "영통푸르지오트레센츠아파트",
      "description": "경기 수원시 영통구 태장로36번길 8",
      "url": "http://place.map.kakao.com/1546282407",
      "region": "경기도"
    },
    {
      "lat": 37.2897812922758,
      "lng": 126.99492967070694,
      "title": "화서역파크푸르지오아파트",
      "description": "경기 수원시 장안구 대평로 27",
      "url": "http://place.map.kakao.com/542328785",
      "region": "경기도"
    },
    {
      "lat": 37.268191856871624,
      "lng": 127.0121975594358,
      "title": "힐스테이트푸르지오수원아파트",
      "description": "경기 수원시 팔달구 효원로93번길 33",
      "url": "http://place.map.kakao.com/986344653",
      "region": "경기도"
    },
    {
      "lat": 37.26312774817394,
      "lng": 127.06690226934258,
      "title": "영흥숲푸르지오파크비엔아파트",
      "description": "경기 수원시 영통구 영흥숲길 50",
      "url": "http://place.map.kakao.com/236564797",
      "region": "경기도"
    },
    {
      "lat": 37.26760499868048,
      "lng": 127.02069927464919,
      "title": "매교역푸르지오SKVIEW아파트",
      "description": "경기 수원시 팔달구 인계로 20",
      "url": "http://place.map.kakao.com/54263930",
      "region": "경기도"
    },
    {
      "lat": 37.3002150883714,
      "lng": 126.95298921084382,
      "title": "서수원레이크푸르지오1단지아파트",
      "description": "경기 수원시 권선구 입북로77번길 62",
      "url": "http://place.map.kakao.com/12274306",
      "region": "경기도"
    },
    {
      "lat": 37.276914668550056,
      "lng": 127.03541860962996,
      "title": "수원인계푸르지오아파트",
      "description": "경기 수원시 팔달구 중부대로170번길 17",
      "url": "http://place.map.kakao.com/12706950",
      "region": "경기도"
    },
    {
      "lat": 37.29199993649618,
      "lng": 127.04799699157675,
      "title": "광교푸르지오월드마크아파트",
      "description": "경기 수원시 영통구 센트럴타운로 107",
      "url": "http://place.map.kakao.com/1958413285",
      "region": "경기도"
    },
    {
      "lat": 37.27498272508365,
      "lng": 126.99888939133028,
      "title": "수원역푸르지오자이아파트",
      "description": "경기 수원시 팔달구 고등로 15",
      "url": "http://place.map.kakao.com/163876676",
      "region": "경기도"
    },
    {
      "lat": 37.298571522443034,
      "lng": 126.95280075102434,
      "title": "서수원레이크푸르지오2단지아파트",
      "description": "경기 수원시 권선구 입북로77번길 61",
      "url": "http://place.map.kakao.com/17026943",
      "region": "경기도"
    },
    {
      "lat": 37.27331488567375,
      "lng": 126.99791074876552,
      "title": "수원역푸르지오더스마트아파트",
      "description": "경기 수원시 팔달구 고등로 13",
      "url": "http://place.map.kakao.com/1533158686",
      "region": "경기도"
    },
    {
      "lat": 37.24610337657746,
      "lng": 126.9672117935908,
      "title": "오목천푸르지오1단지아파트",
      "description": "경기 수원시 권선구 서수원로 219",
      "url": "http://place.map.kakao.com/11220351",
      "region": "경기도"
    },
    {
      "lat": 37.244196984733414,
      "lng": 126.96801396103443,
      "title": "오목천푸르지오2단지아파트",
      "description": "경기 수원시 권선구 서수원로183번길 2",
      "url": "http://place.map.kakao.com/8570899",
      "region": "경기도"
    },
    {
      "lat": 37.44865240764464,
      "lng": 127.14788669682535,
      "title": "산성역자이푸르지오아파트",
      "description": "경기 성남시 수정구 수정로 260",
      "url": "http://place.map.kakao.com/1644281808",
      "region": "경기도"
    },
    {
      "lat": 37.393180283571155,
      "lng": 127.11469061923565,
      "title": "판교푸르지오그랑블아파트",
      "description": "경기 성남시 분당구 동판교로 123",
      "url": "http://place.map.kakao.com/11506175",
      "region": "경기도"
    },
    {
      "lat": 37.45030957739671,
      "lng": 127.15816525269128,
      "title": "성남단대푸르지오아파트",
      "description": "경기 성남시 수정구 산성대로437번길 7",
      "url": "http://place.map.kakao.com/11701346",
      "region": "경기도"
    },
    {
      "lat": 37.3817140076852,
      "lng": 127.11730286766463,
      "title": "분당지웰푸르지오아파트",
      "description": "경기 성남시 분당구 수내로 39",
      "url": "http://place.map.kakao.com/617831924",
      "region": "경기도"
    },
    {
      "lat": 37.47108686523486,
      "lng": 127.15270933630437,
      "title": "위례센트럴푸르지오아파트",
      "description": "경기 성남시 수정구 위례순환로 211",
      "url": "http://place.map.kakao.com/22612833",
      "region": "경기도"
    },
    {
      "lat": 37.37419595715724,
      "lng": 127.07070279277754,
      "title": "판교퍼스트힐푸르지오1단지아파트",
      "description": "경기 성남시 분당구 판교대장로7길 69",
      "url": "http://place.map.kakao.com/945420804",
      "region": "경기도"
    },
    {
      "lat": 37.392942666097056,
      "lng": 127.06097691920753,
      "title": "운중푸르지오하임",
      "description": "경기 성남시 분당구 하오개로 377",
      "url": "http://place.map.kakao.com/12897631",
      "region": "경기도"
    },
    {
      "lat": 37.39552394430519,
      "lng": 127.11365069478009,
      "title": "판교푸르지오월드마크아파트",
      "description": "경기 성남시 분당구 대왕판교로606번길 58",
      "url": "http://place.map.kakao.com/12984721",
      "region": "경기도"
    },
    {
      "lat": 37.466174837019295,
      "lng": 127.142383446313,
      "title": "위례역푸르지오6단지아파트",
      "description": "경기 성남시 수정구 위례광장로 12",
      "url": "http://place.map.kakao.com/26912399",
      "region": "경기도"
    },
    {
      "lat": 37.375422488321895,
      "lng": 127.06877444375213,
      "title": "판교퍼스트힐푸르지오2단지아파트",
      "description": "경기 성남시 분당구 판교대장로7길 57",
      "url": "http://place.map.kakao.com/614128599",
      "region": "경기도"
    },
    {
      "lat": 37.38785621201642,
      "lng": 127.08592832666946,
      "title": "판교원마을3단지푸르지오아파트",
      "description": "경기 성남시 분당구 판교로 20",
      "url": "http://place.map.kakao.com/11506140",
      "region": "경기도"
    },
    {
      "lat": 37.4667034456678,
      "lng": 127.14111840803196,
      "title": "위례역푸르지오5단지아파트",
      "description": "경기 성남시 수정구 위례광장로 34",
      "url": "http://place.map.kakao.com/26912383",
      "region": "경기도"
    },
    {
      "lat": 37.46791969895193,
      "lng": 127.14121112719647,
      "title": "위례역푸르지오4단지아파트",
      "description": "경기 성남시 수정구 위례광장로 36",
      "url": "http://place.map.kakao.com/26912357",
      "region": "경기도"
    },
    {
      "lat": 37.387555238037585,
      "lng": 127.08841675046718,
      "title": "판교원마을5단지푸르지오아파트",
      "description": "경기 성남시 분당구 판교원로 207",
      "url": "http://place.map.kakao.com/11506048",
      "region": "경기도"
    },
    {
      "lat": 37.38962906804349,
      "lng": 127.08641817996812,
      "title": "판교원마을2단지푸르지오아파트",
      "description": "경기 성남시 분당구 판교로 30",
      "url": "http://place.map.kakao.com/11506046",
      "region": "경기도"
    },
    {
      "lat": 37.47046924219557,
      "lng": 127.14147479625149,
      "title": "위례아트리버푸르지오1단지아파트",
      "description": "경기 성남시 수정구 위례광장로 70",
      "url": "http://place.map.kakao.com/26396601",
      "region": "경기도"
    },
    {
      "lat": 37.4704320121127,
      "lng": 127.142465000025,
      "title": "위례아트리버푸르지오2단지아파트",
      "description": "경기 성남시 수정구 위례순환로 130",
      "url": "http://place.map.kakao.com/1829896067",
      "region": "경기도"
    },
    {
      "lat": 37.38536193858217,
      "lng": 127.08625971507246,
      "title": "판교원마을4단지휴먼시아푸르지오",
      "description": "경기 성남시 분당구 판교원로 186",
      "url": "http://place.map.kakao.com/11506047",
      "region": "경기도"
    },
    {
      "lat": 37.69050249629979,
      "lng": 126.77310298662806,
      "title": "일산푸르지오아파트",
      "description": "경기 고양시 일산서구 일청로 75",
      "url": "http://place.map.kakao.com/19970378",
      "region": "경기도"
    },
    {
      "lat": 37.704146410328725,
      "lng": 126.76778722213722,
      "title": "일산에듀포레푸르지오아파트",
      "description": "경기 고양시 일산서구 탄현로 136",
      "url": "http://place.map.kakao.com/113196098",
      "region": "경기도"
    },
    {
      "lat": 37.6885527191528,
      "lng": 126.760316816727,
      "title": "일산푸르지오더센트럴아파트",
      "description": "경기 고양시 일산서구 경의로 790",
      "url": "http://place.map.kakao.com/1701695166",
      "region": "경기도"
    },
    {
      "lat": 37.650786540715835,
      "lng": 126.91610511423619,
      "title": "지축역센트럴푸르지오아파트",
      "description": "경기 고양시 덕양구 지축로 55",
      "url": "http://place.map.kakao.com/1817575371",
      "region": "경기도"
    },
    {
      "lat": 37.602296438225,
      "lng": 126.874554795002,
      "title": "양지푸르지오아파트",
      "description": "경기 고양시 덕양구 화전동 250-1",
      "url": "http://place.map.kakao.com/662605780",
      "region": "경기도"
    },
    {
      "lat": 37.64903255146497,
      "lng": 126.87640371867026,
      "title": "삼송원흥역센트럴푸르지오아파트",
      "description": "경기 고양시 덕양구 원흥5로 25",
      "url": "http://place.map.kakao.com/27463309",
      "region": "경기도"
    },
    {
      "lat": 37.67240634845616,
      "lng": 126.80589827152521,
      "title": "식사푸르지오파크센트아파트 (2028년06월예정)",
      "description": "경기 고양시 일산동구 식사동 1126",
      "url": "http://place.map.kakao.com/327861604",
      "region": "경기도"
    },
    {
      "lat": 37.68715620292844,
      "lng": 126.71720219886319,
      "title": "가좌마을2단지대우푸르지오아파트",
      "description": "경기 고양시 일산서구 가좌3로 45",
      "url": "http://place.map.kakao.com/11506162",
      "region": "경기도"
    },
    {
      "lat": 37.26749417453355,
      "lng": 127.0979876848932,
      "title": "기흥푸르지오포레피스아파트",
      "description": "경기 용인시 기흥구 덕영대로 2063",
      "url": "http://place.map.kakao.com/657974035",
      "region": "경기도"
    },
    {
      "lat": 37.2313537519866,
      "lng": 127.18275030276516,
      "title": "역북푸르지오아파트",
      "description": "경기 용인시 처인구 명지로40번길 35-16",
      "url": "http://place.map.kakao.com/27024005",
      "region": "경기도"
    },
    {
      "lat": 37.27330390567467,
      "lng": 127.1197401000669,
      "title": "기흥역센트럴푸르지오아파트",
      "description": "경기 용인시 기흥구 기흥역로58번길 10",
      "url": "http://place.map.kakao.com/26883863",
      "region": "경기도"
    },
    {
      "lat": 37.326468916041456,
      "lng": 127.06993707235905,
      "title": "수지스카이뷰푸르지오아파트",
      "description": "경기 용인시 수지구 신봉3로7번길 31",
      "url": "http://place.map.kakao.com/391003818",
      "region": "경기도"
    },
    {
      "lat": 37.32730499232018,
      "lng": 127.0979874478868,
      "title": "수지파크푸르지오아파트",
      "description": "경기 용인시 수지구 풍덕천로171번길 9",
      "url": "http://place.map.kakao.com/698839039",
      "region": "경기도"
    },
    {
      "lat": 37.31488852681482,
      "lng": 127.09382324350946,
      "title": "수지진산푸르지오아파트",
      "description": "경기 용인시 수지구 진산로34번길 24",
      "url": "http://place.map.kakao.com/17664501",
      "region": "경기도"
    },
    {
      "lat": 37.316347847051986,
      "lng": 127.07954733383932,
      "title": "푸른마을푸르지오아파트",
      "description": "경기 용인시 수지구 성복2로76번길 31",
      "url": "http://place.map.kakao.com/8131206",
      "region": "경기도"
    },
    {
      "lat": 37.27219870499497,
      "lng": 127.12114206148453,
      "title": "기흥역파크푸르지오아파트",
      "description": "경기 용인시 기흥구 기흥역로58번길 56",
      "url": "http://place.map.kakao.com/27300454",
      "region": "경기도"
    },
    {
      "lat": 37.32359758645214,
      "lng": 127.10079761012607,
      "title": "수지푸르지오월드마크아파트",
      "description": "경기 용인시 수지구 포은대로 467",
      "url": "http://place.map.kakao.com/12777138",
      "region": "경기도"
    },
    {
      "lat": 37.28989398001558,
      "lng": 127.11779960108323,
      "title": "산양마을푸르지오아파트",
      "description": "경기 용인시 기흥구 기흥로116번길 77",
      "url": "http://place.map.kakao.com/7973905",
      "region": "경기도"
    },
    {
      "lat": 37.22113108382704,
      "lng": 127.21659701989834,
      "title": "용인푸르지오원클러스터1단지아파트 (2027년08월예정)",
      "description": "경기 용인시 처인구 남동 산 126-13",
      "url": "http://place.map.kakao.com/282027980",
      "region": "경기도"
    },
    {
      "lat": 37.342421613529034,
      "lng": 127.10117035083236,
      "title": "원천마을푸르지오아파트",
      "description": "경기 용인시 수지구 고기로 3",
      "url": "http://place.map.kakao.com/11086976",
      "region": "경기도"
    },
    {
      "lat": 37.22327666075937,
      "lng": 127.21600259802901,
      "title": "용인푸르지오원클러스터2단지아파트 (2028년02월예정)",
      "description": "경기 용인시 처인구 남동 산 126-1",
      "url": "http://place.map.kakao.com/1630020100",
      "region": "경기도"
    },
    {
      "lat": 37.2397945749576,
      "lng": 127.188038256027,
      "title": "용인푸르지오클루센트아파트 (2028년12월예정)",
      "description": "경기 용인시 처인구 역북동 811",
      "url": "http://place.map.kakao.com/329388853",
      "region": "경기도"
    },
    {
      "lat": 37.27340344500102,
      "lng": 127.11476235711592,
      "title": "기흥역더퍼스트푸르지오아파트",
      "description": "경기 용인시 기흥구 기흥역로 16",
      "url": "http://place.map.kakao.com/26559382",
      "region": "경기도"
    },
    {
      "lat": 37.330470948301745,
      "lng": 127.1267362656943,
      "title": "내대지마을푸르지오아파트",
      "description": "경기 용인시 수지구 죽전로 235",
      "url": "http://place.map.kakao.com/11222384",
      "region": "경기도"
    },
    {
      "lat": 37.2324907828717,
      "lng": 127.290194845546,
      "title": "용인푸르지오원클러스터파크아파트 (2028년12월예정)",
      "description": "경기 용인시 처인구 양지면 양지리 산 97-12",
      "url": "http://place.map.kakao.com/1725059031",
      "region": "경기도"
    },
    {
      "lat": 37.32405324223848,
      "lng": 127.11492846795852,
      "title": "도담마을푸르지오아파트",
      "description": "경기 용인시 수지구 푸른솔로 41",
      "url": "http://place.map.kakao.com/11279576",
      "region": "경기도"
    },
    {
      "lat": 37.33130787474253,
      "lng": 127.12258529943476,
      "title": "새터마을푸르지오아파트(7블럭)",
      "description": "경기 용인시 수지구 현암로 126",
      "url": "http://place.map.kakao.com/11506050",
      "region": "경기도"
    },
    {
      "lat": 37.22384713607025,
      "lng": 127.21741830575834,
      "title": "용인푸르지오원클러스터3단지아파트 (2028년02월예정)",
      "description": "경기 용인시 처인구 남동 243",
      "url": "http://place.map.kakao.com/1354560486",
      "region": "경기도"
    },
    {
      "lat": 37.50202336501171,
      "lng": 126.76788763283432,
      "title": "센트럴파크푸르지오아파트",
      "description": "경기 부천시 원미구 소향로 181",
      "url": "http://place.map.kakao.com/1636381358",
      "region": "경기도"
    },
    {
      "lat": 37.484917184475044,
      "lng": 126.76530498183973,
      "title": "부천중동역푸르지오아파트",
      "description": "경기 부천시 소사구 중동로 64",
      "url": "http://place.map.kakao.com/8070670",
      "region": "경기도"
    },
    {
      "lat": 37.479305044055515,
      "lng": 126.7981048938904,
      "title": "부천소사역푸르지오아파트",
      "description": "경기 부천시 소사구 소삼로 47",
      "url": "http://place.map.kakao.com/12274312",
      "region": "경기도"
    },
    {
      "lat": 37.486410957616485,
      "lng": 126.75767042106223,
      "title": "송내역푸르지오센트비엔아파트 (2026년09월예정)",
      "description": "경기 부천시 소사구 송내동 339",
      "url": "http://place.map.kakao.com/50441900",
      "region": "경기도"
    },
    {
      "lat": 37.485259879194516,
      "lng": 126.76728484634705,
      "title": "부천중동역푸르지오2차A단지아파트",
      "description": "경기 부천시 소사구 경인로117번길 27",
      "url": "http://place.map.kakao.com/11149420",
      "region": "경기도"
    },
    {
      "lat": 37.485477688309146,
      "lng": 126.75426445165031,
      "title": "송내역파인푸르지오1단지아파트",
      "description": "경기 부천시 소사구 송내대로 16",
      "url": "http://place.map.kakao.com/25737438",
      "region": "경기도"
    },
    {
      "lat": 37.48447806042922,
      "lng": 126.75406646834085,
      "title": "송내역파인푸르지오2단지아파트",
      "description": "경기 부천시 소사구 송내대로 14",
      "url": "http://place.map.kakao.com/25737439",
      "region": "경기도"
    },
    {
      "lat": 37.48516659757168,
      "lng": 126.76933843270841,
      "title": "부천중동역푸르지오2차B단지아파트",
      "description": "경기 부천시 소사구 경인로133번길 23",
      "url": "http://place.map.kakao.com/11329565",
      "region": "경기도"
    },
    {
      "lat": 37.326605250951395,
      "lng": 126.79785976194349,
      "title": "안산푸르지오브리파크아파트",
      "description": "경기 안산시 단원구 라성로 15",
      "url": "http://place.map.kakao.com/372858100",
      "region": "경기도"
    },
    {
      "lat": 37.33010584914255,
      "lng": 126.80164161579378,
      "title": "안산8차푸르지오아파트",
      "description": "경기 안산시 단원구 원초로 9",
      "url": "http://place.map.kakao.com/11338998",
      "region": "경기도"
    },
    {
      "lat": 37.29601348541984,
      "lng": 126.82387392874335,
      "title": "안산고잔푸르지오6차아파트",
      "description": "경기 안산시 상록구 해양1로 11",
      "url": "http://place.map.kakao.com/8000863",
      "region": "경기도"
    },
    {
      "lat": 37.29603008979287,
      "lng": 126.81817043307737,
      "title": "안산고잔푸르지오7차아파트",
      "description": "경기 안산시 상록구 해양1로 30",
      "url": "http://place.map.kakao.com/7831295",
      "region": "경기도"
    },
    {
      "lat": 37.319358743964315,
      "lng": 126.84749212828017,
      "title": "안산파크푸르지오아파트",
      "description": "경기 안산시 상록구 화랑로 534",
      "url": "http://place.map.kakao.com/27538202",
      "region": "경기도"
    },
    {
      "lat": 37.31977455866483,
      "lng": 126.83898135745613,
      "title": "안산센트럴푸르지오아파트",
      "description": "경기 안산시 단원구 고잔로 115",
      "url": "http://place.map.kakao.com/27188972",
      "region": "경기도"
    },
    {
      "lat": 37.31360642975043,
      "lng": 126.83465698165062,
      "title": "안산고잔푸르지오3차아파트",
      "description": "경기 안산시 단원구 광덕3로 201",
      "url": "http://place.map.kakao.com/7821736",
      "region": "경기도"
    },
    {
      "lat": 37.306099256196255,
      "lng": 126.83100183026234,
      "title": "안산레이크타운푸르지오아파트",
      "description": "경기 안산시 단원구 광덕동로 25",
      "url": "http://place.map.kakao.com/19148040",
      "region": "경기도"
    },
    {
      "lat": 37.34915103025041,
      "lng": 126.80716807247316,
      "title": "안산메트로타운푸르지오힐스테이트아파트",
      "description": "경기 안산시 단원구 석수로 138",
      "url": "http://place.map.kakao.com/27223787",
      "region": "경기도"
    },
    {
      "lat": 37.3062621128325,
      "lng": 126.83402221516383,
      "title": "고잔1차푸르지오아파트",
      "description": "경기 안산시 단원구 광덕동로 26",
      "url": "http://place.map.kakao.com/11004529",
      "region": "경기도"
    },
    {
      "lat": 37.30896860177648,
      "lng": 126.84310929643273,
      "title": "푸르지오2차아파트",
      "description": "경기 안산시 상록구 안산천남1로 70",
      "url": "http://place.map.kakao.com/11032640",
      "region": "경기도"
    },
    {
      "lat": 37.311319735467094,
      "lng": 126.82351673132334,
      "title": "안산고잔푸르지오5차아파트",
      "description": "경기 안산시 단원구 광덕2로 121",
      "url": "http://place.map.kakao.com/11005222",
      "region": "경기도"
    },
    {
      "lat": 37.32212362669326,
      "lng": 126.80654780537137,
      "title": "초지역메이저타운푸르지오메트로단지아파트",
      "description": "경기 안산시 단원구 화랑로 170",
      "url": "http://place.map.kakao.com/319594256",
      "region": "경기도"
    },
    {
      "lat": 37.293497476100875,
      "lng": 126.82066331935039,
      "title": "안산고잔푸르지오9차아파트",
      "description": "경기 안산시 상록구 해양로 16",
      "url": "http://place.map.kakao.com/10167438",
      "region": "경기도"
    },
    {
      "lat": 37.32402662585191,
      "lng": 126.80766553812471,
      "title": "초지역메이저타운푸르지오파크아파트",
      "description": "경기 안산시 단원구 원초로 90",
      "url": "http://place.map.kakao.com/1341090242",
      "region": "경기도"
    },
    {
      "lat": 37.32377177796037,
      "lng": 126.8033675616829,
      "title": "초지역메이저타운푸르지오에코단지아파트",
      "description": "경기 안산시 단원구 원선1로 10",
      "url": "http://place.map.kakao.com/1085194302",
      "region": "경기도"
    },
    {
      "lat": 37.31398682190556,
      "lng": 126.82658231932417,
      "title": "안산고잔4차푸르지오아파트",
      "description": "경기 안산시 단원구 적금로 76",
      "url": "http://place.map.kakao.com/10237016",
      "region": "경기도"
    },
    {
      "lat": 37.2962325536263,
      "lng": 126.820948936317,
      "title": "안산고잔푸르지오6차아파트 상가",
      "description": "경기 안산시 상록구 해양1로 15",
      "url": "http://place.map.kakao.com/17217818",
      "region": "경기도"
    },
    {
      "lat": 37.39837853467386,
      "lng": 126.92782664735974,
      "title": "안양역푸르지오더샵아파트",
      "description": "경기 안양시 만안구 안양천서로 249",
      "url": "http://place.map.kakao.com/1139759536",
      "region": "경기도"
    },
    {
      "lat": 37.39484504882563,
      "lng": 126.9789044061076,
      "title": "인덕원센트럴푸르지오아파트",
      "description": "경기 안양시 동안구 학의로 390",
      "url": "http://place.map.kakao.com/11341000",
      "region": "경기도"
    },
    {
      "lat": 37.39702012511302,
      "lng": 126.93967479882643,
      "title": "평촌래미안푸르지오아파트",
      "description": "경기 안양시 동안구 경수대로884번길 12",
      "url": "http://place.map.kakao.com/1519767757",
      "region": "경기도"
    },
    {
      "lat": 37.37440065888182,
      "lng": 126.95099654342536,
      "title": "금정역호계푸르지오아파트",
      "description": "경기 안양시 동안구 엘에스로116번길 56",
      "url": "http://place.map.kakao.com/22546896",
      "region": "경기도"
    },
    {
      "lat": 37.65441708065928,
      "lng": 127.2982895037352,
      "title": "마석힐즈파크푸르지오아파트",
      "description": "경기 남양주시 화도읍 비룡로33번길 25",
      "url": "http://place.map.kakao.com/1837243633",
      "region": "경기도"
    },
    {
      "lat": 37.695557222451335,
      "lng": 127.19986763903506,
      "title": "남양주오남푸르지오아파트",
      "description": "경기 남양주시 오남읍 진건오남로759번길 70",
      "url": "http://place.map.kakao.com/11348374",
      "region": "경기도"
    },
    {
      "lat": 37.217363032201916,
      "lng": 127.11188328669274,
      "title": "동탄파크푸르지오아파트",
      "description": "경기 화성시 동탄대로24가길 7",
      "url": "http://place.map.kakao.com/696949389",
      "region": "경기도"
    },
    {
      "lat": 37.22772263035472,
      "lng": 127.04472901838216,
      "title": "신동탄푸르지오아파트",
      "description": "경기 화성시 동탄지성로 405",
      "url": "http://place.map.kakao.com/8293049",
      "region": "경기도"
    },
    {
      "lat": 37.19720077682536,
      "lng": 127.11599741513125,
      "title": "동탄역센트럴푸르지오아파트",
      "description": "경기 화성시 동탄순환대로21길 54",
      "url": "http://place.map.kakao.com/19512371",
      "region": "경기도"
    },
    {
      "lat": 37.20768924590962,
      "lng": 127.08979373602017,
      "title": "동탄역푸르지오아파트",
      "description": "경기 화성시 동탄순환대로 881-10",
      "url": "http://place.map.kakao.com/26644371",
      "region": "경기도"
    },
    {
      "lat": 37.2111047527218,
      "lng": 127.119758906985,
      "title": "동탄행복마을푸르지오아파트",
      "description": "경기 화성시 동탄순환대로26길 81",
      "url": "http://place.map.kakao.com/760124651",
      "region": "경기도"
    },
    {
      "lat": 37.18666448013016,
      "lng": 127.06749697068201,
      "title": "푸르지오하임",
      "description": "경기 화성시 금반1길 53",
      "url": "http://place.map.kakao.com/12280429",
      "region": "경기도"
    },
    {
      "lat": 37.209949745935404,
      "lng": 127.07872352689992,
      "title": "동탄예당마을푸르지오아파트",
      "description": "경기 화성시 동탄반석로 264",
      "url": "http://place.map.kakao.com/11221147",
      "region": "경기도"
    },
    {
      "lat": 37.16420302483403,
      "lng": 127.10257835018746,
      "title": "동탄레이크자연앤푸르지오아파트",
      "description": "경기 화성시 동탄대로3길 33",
      "url": "http://place.map.kakao.com/1031867813",
      "region": "경기도"
    },
    {
      "lat": 37.165399155635,
      "lng": 127.117634255361,
      "title": "동탄포레파크자연앤푸르지오아파트(민영) (2028년07월예정)",
      "description": "경기 화성시 산척동 749",
      "url": "http://place.map.kakao.com/1290554896",
      "region": "경기도"
    },
    {
      "lat": 37.212845918682106,
      "lng": 126.9679483385395,
      "title": "봉담센트럴푸르지오아파트",
      "description": "경기 화성시 봉담읍 와우로34번길 12",
      "url": "http://place.map.kakao.com/26157302",
      "region": "경기도"
    },
    {
      "lat": 37.23296935197639,
      "lng": 127.06767458115993,
      "title": "반달마을3단지대우푸르지오아파트",
      "description": "경기 화성시 영통로26번길 24",
      "url": "http://place.map.kakao.com/11360839",
      "region": "경기도"
    },
    {
      "lat": 37.1655184085575,
      "lng": 127.117318064332,
      "title": "동탄포레파크자연앤푸르지오아파트(국민) (2028년07월예정)",
      "description": "경기 화성시 산척동 749",
      "url": "http://place.map.kakao.com/931285029",
      "region": "경기도"
    },
    {
      "lat": 37.005568738547744,
      "lng": 127.0929440173202,
      "title": "지제역푸르지오엘리아츠아파트",
      "description": "경기 평택시 서재8로 30",
      "url": "http://place.map.kakao.com/1678286664",
      "region": "경기도"
    },
    {
      "lat": 36.995716697955416,
      "lng": 127.12144914458716,
      "title": "평택비전푸르지오아파트",
      "description": "경기 평택시 용죽1로 14",
      "url": "http://place.map.kakao.com/26338454",
      "region": "경기도"
    },
    {
      "lat": 36.99300306949378,
      "lng": 127.1227804862769,
      "title": "평택비전에듀포레푸르지오아파트",
      "description": "경기 평택시 용죽2로 30",
      "url": "http://place.map.kakao.com/1197928499",
      "region": "경기도"
    },
    {
      "lat": 37.008161510047564,
      "lng": 127.10236154875314,
      "title": "평택소사벌푸르지오아파트",
      "description": "경기 평택시 평남로 996",
      "url": "http://place.map.kakao.com/401151705",
      "region": "경기도"
    },
    {
      "lat": 36.99743397172928,
      "lng": 127.1225101274915,
      "title": "평택비전지웰푸르지오아파트",
      "description": "경기 평택시 용죽1로 33",
      "url": "http://place.map.kakao.com/873645350",
      "region": "경기도"
    },
    {
      "lat": 36.99687531616634,
      "lng": 127.14191261978291,
      "title": "평택용이2차푸르지오아파트",
      "description": "경기 평택시 현신3길 76",
      "url": "http://place.map.kakao.com/11317327",
      "region": "경기도"
    },
    {
      "lat": 37.0548972595519,
      "lng": 127.08709055456,
      "title": "브레인시티푸르지오아파트 (2028년04월예정)",
      "description": "경기 평택시 장안동 171-2",
      "url": "http://place.map.kakao.com/220583614",
      "region": "경기도"
    },
    {
      "lat": 36.99409896781321,
      "lng": 127.12260475698743,
      "title": "평택비전센트럴푸르지오아파트",
      "description": "경기 평택시 용죽2로 24",
      "url": "http://place.map.kakao.com/1616950420",
      "region": "경기도"
    },
    {
      "lat": 36.99722777277392,
      "lng": 127.11971476085938,
      "title": "평택비전레이크푸르지오아파트",
      "description": "경기 평택시 용죽1로 13",
      "url": "http://place.map.kakao.com/508884021",
      "region": "경기도"
    },
    {
      "lat": 36.998875428667404,
      "lng": 127.14215450395417,
      "title": "평택용이1차푸르지오아파트",
      "description": "경기 평택시 현신3길 75",
      "url": "http://place.map.kakao.com/11831025",
      "region": "경기도"
    },
    {
      "lat": 36.970236924248,
      "lng": 126.906655369544,
      "title": "평택푸르지오센터파인아파트 (2026년11월예정)",
      "description": "경기 평택시 현덕면 화양리 790-176",
      "url": "http://place.map.kakao.com/1506497947",
      "region": "경기도"
    },
    {
      "lat": 37.75149948923454,
      "lng": 127.11000018996985,
      "title": "의정부민락푸르지오아파트",
      "description": "경기 의정부시 송양로 46",
      "url": "http://place.map.kakao.com/20459804",
      "region": "경기도"
    },
    {
      "lat": 37.74247179886196,
      "lng": 127.08860123060128,
      "title": "송산푸르지오아파트",
      "description": "경기 의정부시 용현로 111",
      "url": "http://place.map.kakao.com/11336277",
      "region": "경기도"
    },
    {
      "lat": 37.737308535944,
      "lng": 127.080812434305,
      "title": "탑석푸르지오파크7아파트 (2029년03월예정)",
      "description": "경기 의정부시 용현동 267-8",
      "url": "http://place.map.kakao.com/1290646556",
      "region": "경기도"
    },
    {
      "lat": 37.74690059393515,
      "lng": 127.05712925849917,
      "title": "의정부푸르지오클라시엘아파트 (2027년12월예정)",
      "description": "경기 의정부시 금오동 369-1",
      "url": "http://place.map.kakao.com/564253603",
      "region": "경기도"
    },
    {
      "lat": 37.44047691200228,
      "lng": 126.78984953304935,
      "title": "시흥센트럴푸르지오아파트",
      "description": "경기 시흥시 수인로3312번길 16",
      "url": "http://place.map.kakao.com/703738282",
      "region": "경기도"
    },
    {
      "lat": 37.44020447970784,
      "lng": 126.79583248208671,
      "title": "시흥은행푸르지오4차아파트",
      "description": "경기 시흥시 은행로 93-1",
      "url": "http://place.map.kakao.com/7821197",
      "region": "경기도"
    },
    {
      "lat": 37.37588350482317,
      "lng": 126.84308067344445,
      "title": "목감레이크푸르지오아파트",
      "description": "경기 시흥시 목감남서로 92-30",
      "url": "http://place.map.kakao.com/26912407",
      "region": "경기도"
    },
    {
      "lat": 37.34943488510375,
      "lng": 126.76169477146865,
      "title": "시흥6차푸르지오1단지아파트",
      "description": "경기 시흥시 죽율로 45-10",
      "url": "http://place.map.kakao.com/20750104",
      "region": "경기도"
    },
    {
      "lat": 37.4415546523467,
      "lng": 126.78690170253385,
      "title": "시흥5차푸르지오아파트",
      "description": "경기 시흥시 복지로 15",
      "url": "http://place.map.kakao.com/11351998",
      "region": "경기도"
    },
    {
      "lat": 37.34726666581229,
      "lng": 126.76152217697361,
      "title": "시흥6차푸르지오2단지아파트",
      "description": "경기 시흥시 죽율로 36",
      "url": "http://place.map.kakao.com/14081972",
      "region": "경기도"
    },
    {
      "lat": 37.323715801848,
      "lng": 126.68394849829,
      "title": "시화MTV푸르지오디오션아파트 (2026년05월예정)",
      "description": "경기 시흥시 정왕동 2715",
      "url": "http://place.map.kakao.com/1266820995",
      "region": "경기도"
    },
    {
      "lat": 37.7363727187736,
      "lng": 126.73507486139664,
      "title": "해오름마을14단지푸르지오파르세나아파트",
      "description": "경기 파주시 청암로 82",
      "url": "http://place.map.kakao.com/1326652654",
      "region": "경기도"
    },
    {
      "lat": 37.74773028203597,
      "lng": 126.80860188092652,
      "title": "파주푸르지오아파트",
      "description": "경기 파주시 조리읍 내산길 55",
      "url": "http://place.map.kakao.com/11221797",
      "region": "경기도"
    },
    {
      "lat": 37.71934750842706,
      "lng": 126.73445043477568,
      "title": "산내마을10단지운정센트럴푸르지오아파트",
      "description": "경기 파주시 심학산로 385",
      "url": "http://place.map.kakao.com/27373019",
      "region": "경기도"
    },
    {
      "lat": 37.74316945941,
      "lng": 126.73024000753,
      "title": "운정신도시푸르지오더스마트아파트 (2026년06월예정)",
      "description": "경기 파주시 다율동 1017",
      "url": "http://place.map.kakao.com/1003732487",
      "region": "경기도"
    },
    {
      "lat": 37.73604542745665,
      "lng": 126.72785056353628,
      "title": "해오름마을10단지운정신도시파크푸르지오아파트",
      "description": "경기 파주시 해올로 33",
      "url": "http://place.map.kakao.com/807453879",
      "region": "경기도"
    },
    {
      "lat": 37.47046618067616,
      "lng": 126.85234051656565,
      "title": "광명푸르지오센트베르아파트",
      "description": "경기 광명시 새터로 27",
      "url": "http://place.map.kakao.com/1569622523",
      "region": "경기도"
    },
    {
      "lat": 37.414242907648664,
      "lng": 126.88023245749106,
      "title": "광명역푸르지오아파트",
      "description": "경기 광명시 양달로 7",
      "url": "http://place.map.kakao.com/26157297",
      "region": "경기도"
    },
    {
      "lat": 37.60850135083653,
      "lng": 126.73300125875966,
      "title": "풍무푸르지오아파트",
      "description": "경기 김포시 유현로 200",
      "url": "http://place.map.kakao.com/20459812",
      "region": "경기도"
    },
    {
      "lat": 37.609854451317986,
      "lng": 126.72779459993713,
      "title": "풍무센트럴푸르지오아파트",
      "description": "경기 김포시 유현로 215",
      "url": "http://place.map.kakao.com/27223784",
      "region": "경기도"
    },
    {
      "lat": 37.64890018678628,
      "lng": 126.67766001112804,
      "title": "한강신도시푸르지오아파트",
      "description": "경기 김포시 김포한강11로 179",
      "url": "http://place.map.kakao.com/13609146",
      "region": "경기도"
    },
    {
      "lat": 37.641005918955074,
      "lng": 126.62298375420768,
      "title": "한강신도시3차푸르지오아파트",
      "description": "경기 김포시 김포한강8로 409",
      "url": "http://place.map.kakao.com/26414164",
      "region": "경기도"
    },
    {
      "lat": 37.61727847627695,
      "lng": 126.73247829892294,
      "title": "풍무역푸르지오더마크아파트 (2028년11월예정)",
      "description": "경기 김포시 사우동 428-3",
      "url": "http://place.map.kakao.com/1610790460",
      "region": "경기도"
    },
    {
      "lat": 37.65250056942903,
      "lng": 126.68099985513736,
      "title": "한강신도시운양역푸르지오아파트",
      "description": "경기 김포시 모담공원로 17",
      "url": "http://place.map.kakao.com/25741995",
      "region": "경기도"
    },
    {
      "lat": 37.3655930787101,
      "lng": 126.95087132218377,
      "title": "금정역푸르지오그랑블아파트 (2028년05월예정)",
      "description": "경기 군포시 금정동 146-3",
      "url": "http://place.map.kakao.com/1234788566",
      "region": "경기도"
    },
    {
      "lat": 37.39672497155134,
      "lng": 127.26902609999144,
      "title": "광주센트럴푸르지오아파트",
      "description": "경기 광주시 경충대로1461번길 43",
      "url": "http://place.map.kakao.com/1184287613",
      "region": "경기도"
    },
    {
      "lat": 37.47330126898327,
      "lng": 127.1549985673379,
      "title": "위례그린파크푸르지오아파트",
      "description": "경기 하남시 위례순환로 270",
      "url": "http://place.map.kakao.com/22612846",
      "region": "경기도"
    },
    {
      "lat": 37.288108430130734,
      "lng": 127.45923561778106,
      "title": "이천센트럴푸르지오아파트",
      "description": "경기 이천시 갈산로 60",
      "url": "http://place.map.kakao.com/26414161",
      "region": "경기도"
    },
    {
      "lat": 37.28473521565348,
      "lng": 127.45403353323896,
      "title": "설봉푸르지오1차아파트",
      "description": "경기 이천시 향교로 159",
      "url": "http://place.map.kakao.com/11352324",
      "region": "경기도"
    },
    {
      "lat": 37.28566558474062,
      "lng": 127.45296106912319,
      "title": "설봉2차푸르지오아파트",
      "description": "경기 이천시 애련정로 180",
      "url": "http://place.map.kakao.com/12279072",
      "region": "경기도"
    },
    {
      "lat": 37.27789823152651,
      "lng": 127.6345100236291,
      "title": "여주역푸르지오클라테르아파트",
      "description": "경기 여주시 세종로 220",
      "url": "http://place.map.kakao.com/1836488519",
      "region": "경기도"
    },
    {
      "lat": 37.825219136579825,
      "lng": 127.08946448803351,
      "title": "옥정센트럴파크푸르지오아파트",
      "description": "경기 양주시 옥정서로 130",
      "url": "http://place.map.kakao.com/25765728",
      "region": "경기도"
    },
    {
      "lat": 37.81272328084344,
      "lng": 127.05688239952848,
      "title": "양주푸르지오아파트",
      "description": "경기 양주시 고덕로 89",
      "url": "http://place.map.kakao.com/11310535",
      "region": "경기도"
    },
    {
      "lat": 37.77995176116253,
      "lng": 127.04176094905311,
      "title": "양주역푸르지오센터파크아파트 (2028년02월예정)",
      "description": "경기 양주시 남방동 600",
      "url": "http://place.map.kakao.com/821784166",
      "region": "경기도"
    },
    {
      "lat": 37.13722839393737,
      "lng": 127.08247472703479,
      "title": "오산원동푸르지오아파트",
      "description": "경기 오산시 남부대로 411-15",
      "url": "http://place.map.kakao.com/8036069",
      "region": "경기도"
    },
    {
      "lat": 37.16037132596659,
      "lng": 127.0823017187609,
      "title": "오산센트럴푸르지오아파트",
      "description": "경기 오산시 현충로 107-30",
      "url": "http://place.map.kakao.com/1247134143",
      "region": "경기도"
    },
    {
      "lat": 37.01152307108269,
      "lng": 127.28970651657366,
      "title": "안성푸르지오아파트",
      "description": "경기 안성시 비봉로 37",
      "url": "http://place.map.kakao.com/883936517",
      "region": "경기도"
    },
    {
      "lat": 37.83288924442923,
      "lng": 127.14524927369993,
      "title": "태봉공원푸르지오파크몬트아파트",
      "description": "경기 포천시 소흘읍 태봉로 194",
      "url": "http://place.map.kakao.com/822038588",
      "region": "경기도"
    },
    {
      "lat": 37.39441695416322,
      "lng": 126.9839457570681,
      "title": "인덕원푸르지오엘센트로아파트",
      "description": "경기 의왕시 안양판교로 100",
      "url": "http://place.map.kakao.com/1546985055",
      "region": "경기도"
    },
    {
      "lat": 37.318942308425406,
      "lng": 126.96350344799423,
      "title": "의왕역푸르지오라포레아파트",
      "description": "경기 의왕시 장안중앙로 42",
      "url": "http://place.map.kakao.com/943885022",
      "region": "경기도"
    },
    {
      "lat": 37.39323628847549,
      "lng": 126.98169872116146,
      "title": "인덕원센트럴푸르지오아파트",
      "description": "경기 의왕시 새롬길 21",
      "url": "http://place.map.kakao.com/11353111",
      "region": "경기도"
    },
    {
      "lat": 37.32054481826126,
      "lng": 126.95941971111998,
      "title": "의왕푸르지오포레움1블럭아파트",
      "description": "경기 의왕시 장안남북로 24",
      "url": "http://place.map.kakao.com/563477644",
      "region": "경기도"
    },
    {
      "lat": 37.319539388631874,
      "lng": 126.95978239960773,
      "title": "의왕푸르지오포레움2블럭아파트",
      "description": "경기 의왕시 장안중앙로 23",
      "url": "http://place.map.kakao.com/2092991389",
      "region": "경기도"
    },
    {
      "lat": 37.510226936375865,
      "lng": 127.15521400913983,
      "title": "감일푸르지오마크베르아파트",
      "description": "경기 하남시 감일중앙로 80",
      "url": "http://place.map.kakao.com/1247972587",
      "region": "경기도"
    },
    {
      "lat": 37.49833021154255,
      "lng": 127.1644342434029,
      "title": "포웰시티푸르지오라포레아파트",
      "description": "경기 하남시 감일백제로 20",
      "url": "http://place.map.kakao.com/1243374360",
      "region": "경기도"
    },
    {
      "lat": 37.5759014725836,
      "lng": 127.18299921036896,
      "title": "미사강변푸르지오2차아파트",
      "description": "경기 하남시 미사강변한강로 60",
      "url": "http://place.map.kakao.com/25069803",
      "region": "경기도"
    },
    {
      "lat": 37.56529972477421,
      "lng": 127.18399762528482,
      "title": "미사강변푸르지오아파트",
      "description": "경기 하남시 미사강변대로 165",
      "url": "http://place.map.kakao.com/22612851",
      "region": "경기도"
    },
    {
      "lat": 37.543818661929215,
      "lng": 127.19327449977571,
      "title": "미사힐즈파크푸르지오아파트",
      "description": "경기 하남시 세미로1길 10",
      "url": "http://place.map.kakao.com/238202919",
      "region": "경기도"
    },
    {
      "lat": 37.536815222940604,
      "lng": 127.21809175152498,
      "title": "교산푸르지오더퍼스트아파트(하남교산A2블록) (2029년06월예정)",
      "description": "경기 하남시 천현동 130",
      "url": "http://place.map.kakao.com/1964711349",
      "region": "경기도"
    },
    {
      "lat": 37.54387661380921,
      "lng": 127.19528995233614,
      "title": "미사힐즈파크푸르지오2단지아파트",
      "description": "경기 하남시 세미로1길 11",
      "url": "http://place.map.kakao.com/1754188662",
      "region": "경기도"
    },
    {
      "lat": 37.542103457026386,
      "lng": 127.19528532725171,
      "title": "미사힐즈파크푸르지오3단지아파트",
      "description": "경기 하남시 세미로1길 30",
      "url": "http://place.map.kakao.com/2033694239",
      "region": "경기도"
    },
    {
      "lat": 37.431165905750476,
      "lng": 126.99284233774377,
      "title": "과천푸르지오써밋아파트",
      "description": "경기 과천시 관문로 106",
      "url": "http://place.map.kakao.com/1929260645",
      "region": "경기도"
    },
    {
      "lat": 37.413437450385175,
      "lng": 126.98356102548573,
      "title": "과천푸르지오라비엔오아파트",
      "description": "경기 과천시 과천대로8길 15",
      "url": "http://place.map.kakao.com/699018581",
      "region": "경기도"
    },
    {
      "lat": 37.41165498004483,
      "lng": 126.98917423219464,
      "title": "과천푸르지오벨라르테아파트",
      "description": "경기 과천시 과천대로8길 65",
      "url": "http://place.map.kakao.com/990631843",
      "region": "경기도"
    },
    {
      "lat": 37.416647325387785,
      "lng": 126.98715371426012,
      "title": "과천푸르지오오르투스아파트",
      "description": "경기 과천시 과천대로12가길 33",
      "url": "http://place.map.kakao.com/1388066624",
      "region": "경기도"
    },
    {
      "lat": 37.43217976575721,
      "lng": 126.99971753122342,
      "title": "과천센트럴파크푸르지오써밋아파트",
      "description": "경기 과천시 별양로 164",
      "url": "http://place.map.kakao.com/184475812",
      "region": "경기도"
    },
    {
      "lat": 37.410826024738974,
      "lng": 126.98898797502525,
      "title": "과천푸르지오벨라르테아파트 근린생활시설",
      "description": "경기 과천시 과천대로8길 65",
      "url": "http://place.map.kakao.com/1334040143",
      "region": "경기도"
    },
    {
      "lat": 37.8683856392874,
      "lng": 127.71142250166572,
      "title": "춘천센트럴파크푸르지오아파트",
      "description": "강원특별자치도 춘천시 스포츠타운길 501",
      "url": "http://place.map.kakao.com/2063000645",
      "region": "강원특별자치도"
    },
    {
      "lat": 37.868950951101894,
      "lng": 127.72068464557942,
      "title": "춘천센트럴타워푸르지오아파트",
      "description": "강원특별자치도 춘천시 방송길 77",
      "url": "http://place.map.kakao.com/1612393860",
      "region": "강원특별자치도"
    },
    {
      "lat": 37.8675251110625,
      "lng": 127.712488189931,
      "title": "춘천센트럴파크푸르지오아파트 상가",
      "description": "강원특별자치도 춘천시 스포츠타운길 503",
      "url": "http://place.map.kakao.com/440554657",
      "region": "강원특별자치도"
    },
    {
      "lat": 37.48964388322601,
      "lng": 126.54869459183003,
      "title": "영종센트럴푸르지오자이아파트",
      "description": "인천 중구 은하수로 412",
      "url": "http://place.map.kakao.com/384967949",
      "region": "인천광역시"
    },
    {
      "lat": 37.47909200227075,
      "lng": 126.50649053302145,
      "title": "운서역푸르지오더스카이아파트",
      "description": "인천 중구 흰바위로 277",
      "url": "http://place.map.kakao.com/952949536",
      "region": "인천광역시"
    },
    {
      "lat": 37.47555654244164,
      "lng": 126.63731601335964,
      "title": "동인천역파크푸르지오아파트",
      "description": "인천 동구 화도진로 16",
      "url": "http://place.map.kakao.com/108793379",
      "region": "인천광역시"
    },
    {
      "lat": 37.452683953100866,
      "lng": 126.67754215474855,
      "title": "힐스테이트푸르지오주안아파트",
      "description": "인천 미추홀구 남주길 150",
      "url": "http://place.map.kakao.com/2020982199",
      "region": "인천광역시"
    },
    {
      "lat": 37.4451118657022,
      "lng": 126.661432812255,
      "title": "인하대역푸르지오에듀포레아파트 (2028년03월예정)",
      "description": "인천 미추홀구 학익동 321-35",
      "url": "http://place.map.kakao.com/706896484",
      "region": "인천광역시"
    },
    {
      "lat": 37.4522006877986,
      "lng": 126.679410142494,
      "title": "힐스테이트푸르지오주안아파트 상가",
      "description": "인천 미추홀구 남주길 150",
      "url": "http://place.map.kakao.com/1769750565",
      "region": "인천광역시"
    },
    {
      "lat": 37.376522983869,
      "lng": 126.654279570752,
      "title": "글로벌캠퍼스푸르지오아파트",
      "description": "인천 연수구 송도문화로28번길 28",
      "url": "http://place.map.kakao.com/12138087",
      "region": "인천광역시"
    },
    {
      "lat": 37.39739795899389,
      "lng": 126.63984551625508,
      "title": "송도푸르지오하버뷰아파트",
      "description": "인천 연수구 컨벤시아대로130번길 80",
      "url": "http://place.map.kakao.com/11351957",
      "region": "인천광역시"
    },
    {
      "lat": 37.39263348591789,
      "lng": 126.63197919563683,
      "title": "송도아트윈푸르지오아파트",
      "description": "인천 연수구 인천타워대로 253-25",
      "url": "http://place.map.kakao.com/17280780",
      "region": "인천광역시"
    },
    {
      "lat": 37.3739507042064,
      "lng": 126.65898122490049,
      "title": "송도에듀포레푸르지오아파트",
      "description": "인천 연수구 송도문화로84번길 24",
      "url": "http://place.map.kakao.com/23097596",
      "region": "인천광역시"
    },
    {
      "lat": 37.392600899479625,
      "lng": 126.64399709748953,
      "title": "송도센트럴파크푸르지오아파트",
      "description": "인천 연수구 센트럴로 160",
      "url": "http://place.map.kakao.com/17727410",
      "region": "인천광역시"
    },
    {
      "lat": 37.41631924856206,
      "lng": 126.67992011094547,
      "title": "연수푸르지오1단지아파트",
      "description": "인천 연수구 벚꽃로 130-3",
      "url": "http://place.map.kakao.com/11307984",
      "region": "인천광역시"
    },
    {
      "lat": 37.41663761976331,
      "lng": 126.67771370484493,
      "title": "연수푸르지오3단지아파트",
      "description": "인천 연수구 먼우금로 218",
      "url": "http://place.map.kakao.com/11359863",
      "region": "인천광역시"
    },
    {
      "lat": 37.41706108129702,
      "lng": 126.67704766007498,
      "title": "연수푸르지오4단지아파트",
      "description": "인천 연수구 먼우금로 217",
      "url": "http://place.map.kakao.com/11220349",
      "region": "인천광역시"
    },
    {
      "lat": 37.39339579095096,
      "lng": 126.64646421811938,
      "title": "송도푸르지오월드마크7단지아파트",
      "description": "인천 연수구 컨벤시아대로 116",
      "url": "http://place.map.kakao.com/11013831",
      "region": "인천광역시"
    },
    {
      "lat": 37.4165697297161,
      "lng": 126.679254819075,
      "title": "연수푸르지오2단지아파트",
      "description": "인천 연수구 벚꽃로 130-4",
      "url": "http://place.map.kakao.com/1542114416",
      "region": "인천광역시"
    },
    {
      "lat": 37.3977609022482,
      "lng": 126.651516766754,
      "title": "송도푸르지오월드마크1단지아파트",
      "description": "인천 연수구 컨벤시아대로 50",
      "url": "http://place.map.kakao.com/11012111",
      "region": "인천광역시"
    },
    {
      "lat": 37.3973476581169,
      "lng": 126.65071006806009,
      "title": "송도푸르지오월드마크2단지아파트",
      "description": "인천 연수구 컨벤시아대로 60",
      "url": "http://place.map.kakao.com/19146897",
      "region": "인천광역시"
    },
    {
      "lat": 37.3927268976208,
      "lng": 126.64574913940935,
      "title": "송도푸르지오월드마크8단지아파트",
      "description": "인천 연수구 컨벤시아대로 126",
      "url": "http://place.map.kakao.com/19147030",
      "region": "인천광역시"
    },
    {
      "lat": 37.42882764975252,
      "lng": 126.74916217501088,
      "title": "서창센트럴푸르지오아파트",
      "description": "인천 남동구 서창남순환로 55",
      "url": "http://place.map.kakao.com/27344311",
      "region": "인천광역시"
    },
    {
      "lat": 37.40303199155132,
      "lng": 126.73896355890058,
      "title": "논현푸르지오더퍼스트아파트",
      "description": "인천 남동구 포구로 40",
      "url": "http://place.map.kakao.com/804292428",
      "region": "인천광역시"
    },
    {
      "lat": 37.4543150236243,
      "lng": 126.707050422285,
      "title": "구월지웰시티푸르지오아파트",
      "description": "인천 남동구 남동대로799번길 34",
      "url": "http://place.map.kakao.com/7593904",
      "region": "인천광역시"
    },
    {
      "lat": 37.49029413544867,
      "lng": 126.73776577562663,
      "title": "부개역푸르지오아파트",
      "description": "인천 부평구 부일로 69",
      "url": "http://place.map.kakao.com/11324823",
      "region": "인천광역시"
    },
    {
      "lat": 37.51426685601934,
      "lng": 126.70807403658019,
      "title": "청천푸르지오아파트",
      "description": "인천 부평구 세월천로 16",
      "url": "http://place.map.kakao.com/11387805",
      "region": "인천광역시"
    },
    {
      "lat": 37.50724390170053,
      "lng": 126.70712420164016,
      "title": "산곡푸르지오아파트",
      "description": "인천 부평구 안남로 269",
      "url": "http://place.map.kakao.com/11506218",
      "region": "인천광역시"
    },
    {
      "lat": 37.52193967965756,
      "lng": 126.67426921964162,
      "title": "루원지웰시티푸르지오아파트",
      "description": "인천 서구 가정로 406",
      "url": "http://place.map.kakao.com/1528258479",
      "region": "인천광역시"
    },
    {
      "lat": 37.59641516201657,
      "lng": 126.65043049427555,
      "title": "왕길역로열파크씨티푸르지오아파트",
      "description": "인천 서구 검단로 380",
      "url": "http://place.map.kakao.com/657635675",
      "region": "인천광역시"
    },
    {
      "lat": 37.53500815166297,
      "lng": 126.63848669033159,
      "title": "청라푸르지오아파트",
      "description": "인천 서구 크리스탈로102번길 25",
      "url": "http://place.map.kakao.com/11512962",
      "region": "인천광역시"
    },
    {
      "lat": 37.59832310627429,
      "lng": 126.70944224780006,
      "title": "검단신도시푸르지오더베뉴아파트",
      "description": "인천 서구 이음6로 33",
      "url": "http://place.map.kakao.com/1563380786",
      "region": "인천광역시"
    },
    {
      "lat": 37.59251360741616,
      "lng": 126.67788072545441,
      "title": "당하푸르지오아파트",
      "description": "인천 서구 청마로 170",
      "url": "http://place.map.kakao.com/11001706",
      "region": "인천광역시"
    },
    {
      "lat": 37.578489367381415,
      "lng": 126.67057472321655,
      "title": "검암역로열파크씨티푸르지오2단지아파트",
      "description": "인천 서구 한들로 73",
      "url": "http://place.map.kakao.com/1609053075",
      "region": "인천광역시"
    },
    {
      "lat": 37.579256169705445,
      "lng": 126.6661063860104,
      "title": "검암역로열파크씨티푸르지오1단지아파트",
      "description": "인천 서구 한들로 33",
      "url": "http://place.map.kakao.com/2072100215",
      "region": "인천광역시"
    },
    {
      "lat": 37.6000123150729,
      "lng": 126.672564603404,
      "title": "검단신도시푸르지오더파크아파트(AA28) (2027년12월예정)",
      "description": "인천 서구 마전동 산 128-6",
      "url": "http://place.map.kakao.com/209937841",
      "region": "인천광역시"
    },
    {
      "lat": 37.5921579982044,
      "lng": 126.676994547033,
      "title": "당하푸르지오아파트 상가",
      "description": "인천 서구 청마로 166",
      "url": "http://place.map.kakao.com/23917271",
      "region": "인천광역시"
    },
    {
      "lat": 35.10783586020413,
      "lng": 129.01460037008258,
      "title": "대신푸르지오1차아파트",
      "description": "부산 서구 대영로38번길 11",
      "url": "http://place.map.kakao.com/26338460",
      "region": "부산광역시"
    },
    {
      "lat": 35.10899376981641,
      "lng": 129.01216578372726,
      "title": "대신2차푸르지오아파트",
      "description": "부산 서구 고운들로 181",
      "url": "http://place.map.kakao.com/539672777",
      "region": "부산광역시"
    },
    {
      "lat": 35.09863068590631,
      "lng": 128.99343245313997,
      "title": "괴정어반푸르지오아파트",
      "description": "부산 사하구 사하로 189",
      "url": "http://place.map.kakao.com/1554129143",
      "region": "부산광역시"
    },
    {
      "lat": 35.12980678998813,
      "lng": 129.0851530110911,
      "title": "대연푸르지오클라센트아파트",
      "description": "부산 남구 유엔로 81",
      "url": "http://place.map.kakao.com/1322459421",
      "region": "부산광역시"
    },
    {
      "lat": 35.12488440394631,
      "lng": 129.0899786927113,
      "title": "대연파크푸르지오아파트",
      "description": "부산 남구 홍곡로 360",
      "url": "http://place.map.kakao.com/26855651",
      "region": "부산광역시"
    },
    {
      "lat": 35.104681332282276,
      "lng": 128.97719761631865,
      "title": "부산당리푸르지오아파트",
      "description": "부산 사하구 승학로71번길 30",
      "url": "http://place.map.kakao.com/12643869",
      "region": "부산광역시"
    },
    {
      "lat": 35.069133394223,
      "lng": 129.08241327836,
      "title": "부산오션시티푸르지오아파트",
      "description": "부산 영도구 동삼오션로 30",
      "url": "http://place.map.kakao.com/2114757550",
      "region": "부산광역시"
    },
    {
      "lat": 35.1484620974525,
      "lng": 129.072160089284,
      "title": "문현푸르지오트레시엘아파트 (2027년09월예정)",
      "description": "부산 남구 문현동 산 23-1",
      "url": "http://place.map.kakao.com/2085905533",
      "region": "부산광역시"
    },
    {
      "lat": 35.0987792094241,
      "lng": 128.983115564499,
      "title": "힐스테이트푸르지오사하역포레스트아파트 (예정)",
      "description": "부산 사하구 괴정동 570-22",
      "url": "http://place.map.kakao.com/1399740870",
      "region": "부산광역시"
    },
    {
      "lat": 35.13908854323007,
      "lng": 129.1020055816325,
      "title": "대연동푸르지오아파트",
      "description": "부산 남구 수영로325번길 12",
      "url": "http://place.map.kakao.com/7819513",
      "region": "부산광역시"
    },
    {
      "lat": 35.062009716195206,
      "lng": 128.97290603582027,
      "title": "부산다대푸르지오아파트",
      "description": "부산 사하구 윤공단로 123",
      "url": "http://place.map.kakao.com/12752855",
      "region": "부산광역시"
    },
    {
      "lat": 35.12515947262542,
      "lng": 129.08928702474336,
      "title": "대연파크푸르지오아파트 UZ센터",
      "description": "부산 남구 홍곡로 360",
      "url": "http://place.map.kakao.com/1542171615",
      "region": "부산광역시"
    },
    {
      "lat": 35.18769131298307,
      "lng": 129.07137106626925,
      "title": "아시아드푸르지오아파트",
      "description": "부산 연제구 아시아드대로22번길 36",
      "url": "http://place.map.kakao.com/11057808",
      "region": "부산광역시"
    },
    {
      "lat": 35.136447440499275,
      "lng": 129.1088904799312,
      "title": "더비치푸르지오써밋아파트",
      "description": "부산 남구 황령대로 504",
      "url": "http://place.map.kakao.com/759166999",
      "region": "부산광역시"
    },
    {
      "lat": 35.14167104136771,
      "lng": 129.1012908825403,
      "title": "대연힐스테이트푸르지오아파트",
      "description": "부산 남구 수영로 345",
      "url": "http://place.map.kakao.com/18059450",
      "region": "부산광역시"
    },
    {
      "lat": 35.183612558107605,
      "lng": 129.11273206573753,
      "title": "부산센텀푸르지오아파트",
      "description": "부산 연제구 고분로 280",
      "url": "http://place.map.kakao.com/17809191",
      "region": "부산광역시"
    },
    {
      "lat": 35.18332512342573,
      "lng": 129.11169723852245,
      "title": "센텀수영강푸르지오아파트",
      "description": "부산 연제구 고분로 270",
      "url": "http://place.map.kakao.com/10654815",
      "region": "부산광역시"
    },
    {
      "lat": 35.15972140944215,
      "lng": 129.13108421602732,
      "title": "센텀비치푸르지오아파트",
      "description": "부산 수영구 광안해변로 418",
      "url": "http://place.map.kakao.com/10464873",
      "region": "부산광역시"
    },
    {
      "lat": 35.2004034026965,
      "lng": 129.109852532789,
      "title": "동래푸르지오에듀포레아파트 (2030년03월예정)",
      "description": "부산 동래구 안락로101번길 16",
      "url": "http://place.map.kakao.com/320814709",
      "region": "부산광역시"
    },
    {
      "lat": 35.22955813359335,
      "lng": 129.0902796793516,
      "title": "부곡푸르지오아파트",
      "description": "부산 금정구 중앙대로 1617-12",
      "url": "http://place.map.kakao.com/7901928",
      "region": "부산광역시"
    },
    {
      "lat": 35.13987546796196,
      "lng": 129.10375806360682,
      "title": "대연힐스테이트푸르지오아파트(113동,114동)",
      "description": "부산 남구 수영로 345",
      "url": "http://place.map.kakao.com/18192893",
      "region": "부산광역시"
    },
    {
      "lat": 35.23946537429874,
      "lng": 129.01701553687974,
      "title": "화명푸르지오헤리센트아파트",
      "description": "부산 북구 산성로 28",
      "url": "http://place.map.kakao.com/1614874469",
      "region": "부산광역시"
    },
    {
      "lat": 35.23406611950397,
      "lng": 129.01903896182063,
      "title": "대우푸르지오아파트",
      "description": "부산 북구 화명대로 104",
      "url": "http://place.map.kakao.com/11363524",
      "region": "부산광역시"
    },
    {
      "lat": 35.16448217627566,
      "lng": 129.161285222025,
      "title": "해운대센트럴푸르지오아파트",
      "description": "부산 해운대구 해운대로 650",
      "url": "http://place.map.kakao.com/1983466610",
      "region": "부산광역시"
    },
    {
      "lat": 35.163435362959,
      "lng": 129.160510217369,
      "title": "해운대역푸르지오더원아파트",
      "description": "부산 해운대구 구남로11번길 30",
      "url": "http://place.map.kakao.com/1888216371",
      "region": "부산광역시"
    },
    {
      "lat": 35.1413634658357,
      "lng": 128.919176533461,
      "title": "에코델타시티푸르지오린아파트",
      "description": "부산 강서구 에코델타3로 43",
      "url": "http://place.map.kakao.com/1570559212",
      "region": "부산광역시"
    },
    {
      "lat": 35.14710991427931,
      "lng": 128.91595956434915,
      "title": "에코델타시티푸르지오센터파크아파트",
      "description": "부산 강서구 에코델타1로 66",
      "url": "http://place.map.kakao.com/1784634369",
      "region": "부산광역시"
    },
    {
      "lat": 35.152659903844594,
      "lng": 128.91119590031437,
      "title": "에코델타시티푸르지오트레파크아파트 (2028년09월예정)",
      "description": "부산 강서구 강동동 11",
      "url": "http://place.map.kakao.com/1290525687",
      "region": "부산광역시"
    },
    {
      "lat": 35.26581736868224,
      "lng": 129.2242612731944,
      "title": "일광자이푸르지오2단지아파트",
      "description": "부산 기장군 일광읍 해빛로 29",
      "url": "http://place.map.kakao.com/2066576255",
      "region": "부산광역시"
    },
    {
      "lat": 35.265531937217794,
      "lng": 129.2226317636092,
      "title": "일광자이푸르지오1단지아파트",
      "description": "부산 기장군 일광읍 해빛로 39-15",
      "url": "http://place.map.kakao.com/1132705030",
      "region": "부산광역시"
    },
    {
      "lat": 35.876852123118034,
      "lng": 128.58043853338916,
      "title": "달성파크푸르지오힐스테이트아파트",
      "description": "대구 중구 달성로 123",
      "url": "http://place.map.kakao.com/630246494",
      "region": "대구광역시"
    },
    {
      "lat": 35.87160037697758,
      "lng": 128.5880124174558,
      "title": "중앙로역푸르지오더센트럴아파트",
      "description": "대구 중구 서성로 60",
      "url": "http://place.map.kakao.com/1678631014",
      "region": "대구광역시"
    },
    {
      "lat": 35.86086066794941,
      "lng": 128.62326023414727,
      "title": "범어센트럴푸르지오아파트",
      "description": "대구 수성구 상록로 15",
      "url": "http://place.map.kakao.com/664573863",
      "region": "대구광역시"
    },
    {
      "lat": 35.8688626001221,
      "lng": 128.628267121216,
      "title": "벤처밸리푸르지오아파트 (2026년04월예정)",
      "description": "대구 동구 신천동 311-4",
      "url": "http://place.map.kakao.com/736296990",
      "region": "대구광역시"
    },
    {
      "lat": 35.85089098443166,
      "lng": 128.59760879106094,
      "title": "교대역푸르지오트레힐즈아파트",
      "description": "대구 남구 이천로19길 16",
      "url": "http://place.map.kakao.com/1546320138",
      "region": "대구광역시"
    },
    {
      "lat": 35.875176283032005,
      "lng": 128.63613462684586,
      "title": "동대구푸르지오브리센트아파트",
      "description": "대구 동구 효목로5길 55",
      "url": "http://place.map.kakao.com/1559843253",
      "region": "대구광역시"
    },
    {
      "lat": 35.889304396212886,
      "lng": 128.59024631518514,
      "title": "명성푸르지오아파트",
      "description": "대구 북구 침산로 153",
      "url": "http://place.map.kakao.com/19146958",
      "region": "대구광역시"
    },
    {
      "lat": 35.8851196892883,
      "lng": 128.58723478101,
      "title": "침산푸르지오1차아파트",
      "description": "대구 북구 침산로21길 23",
      "url": "http://place.map.kakao.com/11239170",
      "region": "대구광역시"
    },
    {
      "lat": 35.84258835341178,
      "lng": 128.60931778398145,
      "title": "수성푸르지오리버센트아파트",
      "description": "대구 수성구 수성로35길 50",
      "url": "http://place.map.kakao.com/1492009425",
      "region": "대구광역시"
    },
    {
      "lat": 35.87263530101418,
      "lng": 128.6830706386003,
      "title": "용계역푸르지오아츠베르1단지아파트",
      "description": "대구 동구 화랑로108길 42",
      "url": "http://place.map.kakao.com/1559949240",
      "region": "대구광역시"
    },
    {
      "lat": 35.871352274984645,
      "lng": 128.68331474785953,
      "title": "용계역푸르지오아츠베르2단지아파트",
      "description": "대구 동구 화랑로108길 46",
      "url": "http://place.map.kakao.com/50389498",
      "region": "대구광역시"
    },
    {
      "lat": 35.8744230053183,
      "lng": 128.71732496700142,
      "title": "각산푸르지오2단지아파트",
      "description": "대구 동구 경안로 822",
      "url": "http://place.map.kakao.com/8728383",
      "region": "대구광역시"
    },
    {
      "lat": 35.87556497643075,
      "lng": 128.71661443922946,
      "title": "각산푸르지오1단지아파트",
      "description": "대구 동구 경안로 824",
      "url": "http://place.map.kakao.com/10120385",
      "region": "대구광역시"
    },
    {
      "lat": 35.86899844787714,
      "lng": 128.55852402054742,
      "title": "평리푸르지오아파트",
      "description": "대구 서구 국채보상로50길 20",
      "url": "http://place.map.kakao.com/13311991",
      "region": "대구광역시"
    },
    {
      "lat": 35.8633197476118,
      "lng": 128.572808965419,
      "title": "반고개역푸르지오아파트",
      "description": "대구 서구 큰장로7길 11",
      "url": "http://place.map.kakao.com/1559979147",
      "region": "대구광역시"
    },
    {
      "lat": 35.88812574860099,
      "lng": 128.57924953462853,
      "title": "북구청역푸르지오에듀포레아파트",
      "description": "대구 북구 침산남로 30",
      "url": "http://place.map.kakao.com/1784041839",
      "region": "대구광역시"
    },
    {
      "lat": 35.83580977235692,
      "lng": 128.62119479599065,
      "title": "수성레이크푸르지오아파트",
      "description": "대구 수성구 청수로24길 91",
      "url": "http://place.map.kakao.com/1380406189",
      "region": "대구광역시"
    },
    {
      "lat": 35.82008458879792,
      "lng": 128.61317405904998,
      "title": "수성더팰리스푸르지오더샵아파트",
      "description": "대구 수성구 파동로 190",
      "url": "http://place.map.kakao.com/1352563508",
      "region": "대구광역시"
    },
    {
      "lat": 35.83587405916482,
      "lng": 128.62110535768537,
      "title": "수성레이크푸르지오오피스텔 상가",
      "description": "대구 수성구 청수로24길 91",
      "url": "http://place.map.kakao.com/943527879",
      "region": "대구광역시"
    },
    {
      "lat": 35.89122871079895,
      "lng": 128.62687896274645,
      "title": "복현푸르지오아파트",
      "description": "대구 북구 동북로 345",
      "url": "http://place.map.kakao.com/18164892",
      "region": "대구광역시"
    },
    {
      "lat": 35.888030599223704,
      "lng": 128.5895342543937,
      "title": "침산푸르지오3차아파트",
      "description": "대구 북구 침산남로 130",
      "url": "http://place.map.kakao.com/11253087",
      "region": "대구광역시"
    },
    {
      "lat": 35.83744907075741,
      "lng": 128.71901088879176,
      "title": "시지푸르지오아파트",
      "description": "대구 수성구 달구벌대로661길 7",
      "url": "http://place.map.kakao.com/10519481",
      "region": "대구광역시"
    },
    {
      "lat": 35.827662256845485,
      "lng": 128.5266141417957,
      "title": "월성푸르지오아파트",
      "description": "대구 달서구 조암로6길 20",
      "url": "http://place.map.kakao.com/8294427",
      "region": "대구광역시"
    },
    {
      "lat": 35.810547511254235,
      "lng": 128.53904460330887,
      "title": "상인푸르지오아파트",
      "description": "대구 달서구 상화로 235",
      "url": "http://place.map.kakao.com/12134066",
      "region": "대구광역시"
    },
    {
      "lat": 35.80980158282771,
      "lng": 128.54289235631,
      "title": "상인푸르지오센터파크아파트",
      "description": "대구 달서구 상화로 245",
      "url": "http://place.map.kakao.com/1784082985",
      "region": "대구광역시"
    },
    {
      "lat": 35.8386999222556,
      "lng": 128.537756697589,
      "title": "달서푸르지오시그니처아파트 (2026년03월예정)",
      "description": "대구 달서구 본리동 358-5",
      "url": "http://place.map.kakao.com/1100944136",
      "region": "대구광역시"
    },
    {
      "lat": 35.8103735554511,
      "lng": 128.539961707696,
      "title": "상인푸르지오아파트 상가",
      "description": "대구 달서구 상화로 235",
      "url": "http://place.map.kakao.com/26443908",
      "region": "대구광역시"
    },
    {
      "lat": 35.85099374140933,
      "lng": 128.46593856036162,
      "title": "죽곡푸르지오2단지아파트",
      "description": "대구 달성군 다사읍 대실역남로 93",
      "url": "http://place.map.kakao.com/12341320",
      "region": "대구광역시"
    },
    {
      "lat": 35.85654965092398,
      "lng": 128.4682061068105,
      "title": "죽곡푸르지오1단지아파트",
      "description": "대구 달성군 다사읍 대실역북로 16",
      "url": "http://place.map.kakao.com/12341316",
      "region": "대구광역시"
    },
    {
      "lat": 35.84986232906482,
      "lng": 128.46656636603143,
      "title": "푸르지오공인중개사사무소",
      "description": "대구 달성군 다사읍 대실역남로 98",
      "url": "http://place.map.kakao.com/1598646271",
      "region": "대구광역시"
    },
    {
      "lat": 35.14264689459892,
      "lng": 126.85516434634658,
      "title": "상무푸르지오아파트",
      "description": "광주 서구 금호운천길 83",
      "url": "http://place.map.kakao.com/11263419",
      "region": "광주광역시"
    },
    {
      "lat": 36.34505667225437,
      "lng": 127.40883039324552,
      "title": "중촌역푸르지오센터파크아파트",
      "description": "대전 중구 대전천서로 709",
      "url": "http://place.map.kakao.com/1223257198",
      "region": "대전광역시"
    },
    {
      "lat": 36.3022882091308,
      "lng": 127.34583855301,
      "title": "관저푸르지오센트럴파크1단지아파트 (2026년11월예정)",
      "description": "대전 서구 관저동 7-27",
      "url": "http://place.map.kakao.com/618358028",
      "region": "대전광역시"
    },
    {
      "lat": 36.3012649586713,
      "lng": 127.347532988848,
      "title": "관저푸르지오센트럴파크2단지아파트 (2026년11월예정)",
      "description": "대전 서구 가수원동 산 16-119",
      "url": "http://place.map.kakao.com/1460610244",
      "region": "대전광역시"
    },
    {
      "lat": 36.32449741341221,
      "lng": 127.33458615273126,
      "title": "도안푸르지오디아델아파트(29블록) (2027년09월예정)",
      "description": "대전 유성구 용계동 70",
      "url": "http://place.map.kakao.com/2002464261",
      "region": "대전광역시"
    },
    {
      "lat": 36.3265143705277,
      "lng": 127.33454465893,
      "title": "도안푸르지오디아델아파트(31블록) (2027년09월예정)",
      "description": "대전 유성구 용계동 73-48",
      "url": "http://place.map.kakao.com/1959735819",
      "region": "대전광역시"
    },
    {
      "lat": 36.37401619886869,
      "lng": 127.33872960774217,
      "title": "죽동푸르지오아파트",
      "description": "대전 유성구 죽동로 251",
      "url": "http://place.map.kakao.com/19731946",
      "region": "대전광역시"
    },
    {
      "lat": 36.36135247637101,
      "lng": 127.33214220370952,
      "title": "장대푸르지오아파트",
      "description": "대전 유성구 장대로71번길 34",
      "url": "http://place.map.kakao.com/8054739",
      "region": "대전광역시"
    },
    {
      "lat": 36.419890295965416,
      "lng": 127.38228213794552,
      "title": "대덕테크노밸리2단지푸르지오아파트",
      "description": "대전 유성구 배울1로 13",
      "url": "http://place.map.kakao.com/8106804",
      "region": "대전광역시"
    },
    {
      "lat": 36.416791620468196,
      "lng": 127.39624883591148,
      "title": "대덕테크노밸리푸르지오하임2단지아파트",
      "description": "대전 유성구 배울1로 147",
      "url": "http://place.map.kakao.com/11003374",
      "region": "대전광역시"
    },
    {
      "lat": 36.41785668535336,
      "lng": 127.39682512526427,
      "title": "대덕테크노밸리푸르지오하임1단지아파트",
      "description": "대전 유성구 배울2로 134",
      "url": "http://place.map.kakao.com/12811764",
      "region": "대전광역시"
    },
    {
      "lat": 35.56452424454366,
      "lng": 129.34767856067435,
      "title": "남외푸르지오아파트",
      "description": "울산 중구 남외3길 33",
      "url": "http://place.map.kakao.com/11025279",
      "region": "울산광역시"
    },
    {
      "lat": 35.56032802079789,
      "lng": 129.30478429755416,
      "title": "울산유곡푸르지오아파트",
      "description": "울산 중구 평동3길 1",
      "url": "http://place.map.kakao.com/11324652",
      "region": "울산광역시"
    },
    {
      "lat": 35.559958289196054,
      "lng": 129.30102780667417,
      "title": "우정혁신도시푸르지오아파트",
      "description": "울산 중구 유곡로 80",
      "url": "http://place.map.kakao.com/13083169",
      "region": "울산광역시"
    },
    {
      "lat": 35.566132038972846,
      "lng": 129.34655212308033,
      "title": "남외2차푸르지오아파트",
      "description": "울산 중구 남외로 60",
      "url": "http://place.map.kakao.com/11025277",
      "region": "울산광역시"
    },
    {
      "lat": 35.54694108546947,
      "lng": 129.31516604059073,
      "title": "울산신정푸르지오아파트",
      "description": "울산 남구 팔등로 85",
      "url": "http://place.map.kakao.com/11701363",
      "region": "울산광역시"
    },
    {
      "lat": 35.54682684825777,
      "lng": 129.34178644687566,
      "title": "삼산푸르지오아파트",
      "description": "울산 남구 돋질로339번길 35",
      "url": "http://place.map.kakao.com/7919854",
      "region": "울산광역시"
    },
    {
      "lat": 35.5355336627158,
      "lng": 129.30604554484,
      "title": "문수로푸르지오어반피스아파트 (2026년06월예정)",
      "description": "울산 남구 신정동 1266-6",
      "url": "http://place.map.kakao.com/724534783",
      "region": "울산광역시"
    },
    {
      "lat": 35.50878019936506,
      "lng": 129.42297702121004,
      "title": "울산전하푸르지오아파트",
      "description": "울산 동구 봉수로 250",
      "url": "http://place.map.kakao.com/12639303",
      "region": "울산광역시"
    },
    {
      "lat": 35.64470015535075,
      "lng": 129.35244264863087,
      "title": "매곡푸르지오1단지아파트",
      "description": "울산 북구 신천로 92",
      "url": "http://place.map.kakao.com/11081423",
      "region": "울산광역시"
    },
    {
      "lat": 35.64276339214382,
      "lng": 129.35269492137402,
      "title": "매곡푸르지오2단지아파트",
      "description": "울산 북구 매곡1로 17",
      "url": "http://place.map.kakao.com/11254141",
      "region": "울산광역시"
    },
    {
      "lat": 35.599861670698616,
      "lng": 129.36957854430153,
      "title": "울산송정푸르지오아파트",
      "description": "울산 북구 박상진4로 72",
      "url": "http://place.map.kakao.com/1870462865",
      "region": "울산광역시"
    },
    {
      "lat": 35.63820642882528,
      "lng": 129.43544932922313,
      "title": "울산블루마시티푸르지오1차아파트",
      "description": "울산 북구 강동산하5로 66",
      "url": "http://place.map.kakao.com/14874160",
      "region": "울산광역시"
    },
    {
      "lat": 35.624698510073934,
      "lng": 129.43695076531728,
      "title": "울산블루마시티2차푸르지오아파트",
      "description": "울산 북구 강동산하2로 43",
      "url": "http://place.map.kakao.com/19148033",
      "region": "울산광역시"
    },
    {
      "lat": 35.55460529443507,
      "lng": 129.2532814374588,
      "title": "문수산푸르지오아파트",
      "description": "울산 울주군 범서읍 장검길 48",
      "url": "http://place.map.kakao.com/18039004",
      "region": "울산광역시"
    },
    {
      "lat": 35.57494474909274,
      "lng": 129.24243809460802,
      "title": "구영2차푸르지오아파트",
      "description": "울산 울주군 범서읍 구영로 101-7",
      "url": "http://place.map.kakao.com/11372265",
      "region": "울산광역시"
    },
    {
      "lat": 35.57071470237438,
      "lng": 129.2437185956037,
      "title": "구영지구푸르지오1단지아파트",
      "description": "울산 울주군 범서읍 대리2길 48",
      "url": "http://place.map.kakao.com/8707926",
      "region": "울산광역시"
    },
    {
      "lat": 35.570342261757894,
      "lng": 129.24629773383137,
      "title": "구영지구푸르지오2단지아파트",
      "description": "울산 울주군 범서읍 대리2길 46",
      "url": "http://place.map.kakao.com/8706408",
      "region": "울산광역시"
    },
    {
      "lat": 36.5923182135381,
      "lng": 127.28964043979096,
      "title": "신흥푸르지오아파트",
      "description": "세종특별자치시 조치원읍 도원1로 16",
      "url": "http://place.map.kakao.com/7977967",
      "region": "세종특별자치시"
    },
    {
      "lat": 36.59019732569953,
      "lng": 127.29462539495555,
      "title": "조치원죽림푸르지오아파트",
      "description": "세종특별자치시 조치원읍 죽림본로 33-6",
      "url": "http://place.map.kakao.com/8578337",
      "region": "세종특별자치시"
    },
    {
      "lat": 36.51421610032289,
      "lng": 127.24964832768313,
      "title": "범지기마을8단지푸르지오아파트",
      "description": "세종특별자치시 달빛로 165",
      "url": "http://place.map.kakao.com/14757943",
      "region": "세종특별자치시"
    },
    {
      "lat": 36.477764169181775,
      "lng": 127.2514394756106,
      "title": "첫마을5단지푸르지오아파트",
      "description": "세종특별자치시 누리로 59",
      "url": "http://place.map.kakao.com/17040970",
      "region": "세종특별자치시"
    },
    {
      "lat": 36.48061749519602,
      "lng": 127.252171798062,
      "title": "첫마을4단지푸르지오아파트",
      "description": "세종특별자치시 누리로 119",
      "url": "http://place.map.kakao.com/14809838",
      "region": "세종특별자치시"
    },
    {
      "lat": 36.49224104274713,
      "lng": 127.24767154136498,
      "title": "가온마을4단지세종e편한세상푸르지오아파트",
      "description": "세종특별자치시 다정중앙로 19",
      "url": "http://place.map.kakao.com/1790317277",
      "region": "세종특별자치시"
    },
    {
      "lat": 36.49208195409654,
      "lng": 127.25475023831672,
      "title": "가온마을11단지세종지웰푸르지오아파트",
      "description": "세종특별자치시 가온로 10",
      "url": "http://place.map.kakao.com/707233953",
      "region": "세종특별자치시"
    },
    {
      "lat": 36.49231336325686,
      "lng": 127.255259923488,
      "title": "세종지웰푸르지오 근린생활시설",
      "description": "세종특별자치시 다정남로 130",
      "url": "http://place.map.kakao.com/140723349",
      "region": "세종특별자치시"
    },
    {
      "lat": 37.35520124730005,
      "lng": 127.92102516921508,
      "title": "원주봉화산푸르지오아파트",
      "description": "강원특별자치도 원주시 봉화서부로 11",
      "url": "http://place.map.kakao.com/26932400",
      "region": "강원특별자치도"
    },
    {
      "lat": 37.3435009197145,
      "lng": 127.946362758321,
      "title": "원주푸르지오더센트럴아파트 (2027년11월예정)",
      "description": "강원특별자치도 원주시 원동 274-40",
      "url": "http://place.map.kakao.com/284406452",
      "region": "강원특별자치도"
    },
    {
      "lat": 37.7532572177962,
      "lng": 128.88383188217364,
      "title": "강릉홍제푸르지오아파트",
      "description": "강원특별자치도 강릉시 홍제로71번길 1",
      "url": "http://place.map.kakao.com/8161787",
      "region": "강원특별자치도"
    },
    {
      "lat": 37.52959654437861,
      "lng": 129.09969079619725,
      "title": "동해푸르지오아파트",
      "description": "강원특별자치도 동해시 평릉1길 39",
      "url": "http://place.map.kakao.com/12602345",
      "region": "강원특별자치도"
    },
    {
      "lat": 36.6147271257523,
      "lng": 127.4404520108523,
      "title": "가경푸르지오아파트",
      "description": "충북 청주시 흥덕구 2순환로1375번길 20",
      "url": "http://place.map.kakao.com/8088235",
      "region": "충청북도"
    },
    {
      "lat": 36.608710405198764,
      "lng": 127.4643865394245,
      "title": "청주산남푸르지오아파트",
      "description": "충북 청주시 서원구 두꺼비로 53",
      "url": "http://place.map.kakao.com/7912243",
      "region": "충청북도"
    },
    {
      "lat": 36.66148755344095,
      "lng": 127.49875492152927,
      "title": "청주힐즈파크푸르지오아파트",
      "description": "충북 청주시 청원구 1순환로 123",
      "url": "http://place.map.kakao.com/1007043185",
      "region": "충청북도"
    },
    {
      "lat": 36.67115816843708,
      "lng": 127.4783854121816,
      "title": "청주사천푸르지오아파트",
      "description": "충북 청주시 청원구 사뜸로 106",
      "url": "http://place.map.kakao.com/230809757",
      "region": "충청북도"
    },
    {
      "lat": 36.62967567022536,
      "lng": 127.46681098676478,
      "title": "푸르지오캐슬4단지아파트",
      "description": "충북 청주시 서원구 창직로 50",
      "url": "http://place.map.kakao.com/20059858",
      "region": "충청북도"
    },
    {
      "lat": 36.619420895046396,
      "lng": 127.4470474414035,
      "title": "청주개신푸르지오아파트",
      "description": "충북 청주시 서원구 신율로 13",
      "url": "http://place.map.kakao.com/8175045",
      "region": "충청북도"
    },
    {
      "lat": 36.671142920491405,
      "lng": 127.45585258599584,
      "title": "청주테크노폴리스지웰푸르지오아파트",
      "description": "충북 청주시 흥덕구 송화로 229",
      "url": "http://place.map.kakao.com/1512067306",
      "region": "충청북도"
    },
    {
      "lat": 36.64464851530579,
      "lng": 127.42827676612477,
      "title": "청주지웰시티푸르지오아파트",
      "description": "충북 청주시 흥덕구 대농로 45",
      "url": "http://place.map.kakao.com/1505370405",
      "region": "충청북도"
    },
    {
      "lat": 36.66963606680166,
      "lng": 127.45754287715513,
      "title": "청주테크노폴리스푸르지오아파트",
      "description": "충북 청주시 흥덕구 송화로214번길 7",
      "url": "http://place.map.kakao.com/1976154113",
      "region": "충청북도"
    },
    {
      "lat": 36.641945293116,
      "lng": 127.476859495405,
      "title": "청주센텀푸르지오자이아파트 (2028년12월예정)",
      "description": "충북 청주시 서원구 사직동 247-1",
      "url": "http://place.map.kakao.com/183115440",
      "region": "충청북도"
    },
    {
      "lat": 36.63203620414642,
      "lng": 127.46921342801515,
      "title": "푸르지오캐슬아파트(1,2,3단지)",
      "description": "충북 청주시 서원구 예체로 68",
      "url": "http://place.map.kakao.com/11237811",
      "region": "충청북도"
    },
    {
      "lat": 36.62962922358992,
      "lng": 127.46945822049818,
      "title": "푸르지오캐슬5단지아파트",
      "description": "충북 청주시 서원구 예체로 30",
      "url": "http://place.map.kakao.com/20059853",
      "region": "충청북도"
    },
    {
      "lat": 37.009884625849914,
      "lng": 127.81764260829459,
      "title": "서충주푸르지오더퍼스트아파트",
      "description": "충북 충주시 주덕읍 화개1길 74",
      "url": "http://place.map.kakao.com/495029882",
      "region": "충청북도"
    },
    {
      "lat": 36.97678649770704,
      "lng": 127.94480055782978,
      "title": "충주2차푸르지오아파트",
      "description": "충북 충주시 봉현로 366",
      "url": "http://place.map.kakao.com/24943336",
      "region": "충청북도"
    },
    {
      "lat": 36.97865885428639,
      "lng": 127.91278747490026,
      "title": "충주1차푸르지오아파트",
      "description": "충북 충주시 봉계1길 7",
      "url": "http://place.map.kakao.com/17645958",
      "region": "충청북도"
    },
    {
      "lat": 36.99030599578288,
      "lng": 127.9306405341904,
      "title": "충주센트럴푸르지오아파트",
      "description": "충북 충주시 연수서편2길 11",
      "url": "http://place.map.kakao.com/27388424",
      "region": "충청북도"
    },
    {
      "lat": 36.95781364301124,
      "lng": 127.94370267501094,
      "title": "충주3차푸르지오아파트",
      "description": "충북 충주시 염밭로 13",
      "url": "http://place.map.kakao.com/27360700",
      "region": "충청북도"
    },
    {
      "lat": 36.9706133454261,
      "lng": 127.536062831994,
      "title": "음성푸르지오센터피크아파트",
      "description": "충북 음성군 대소면 성본산단5로 29",
      "url": "http://place.map.kakao.com/1327054403",
      "region": "충청북도"
    },
    {
      "lat": 36.97043393647239,
      "lng": 127.53388407716666,
      "title": "음성푸르지오마크베르아파트",
      "description": "충북 음성군 대소면 성본산단5로 9",
      "url": "http://place.map.kakao.com/1373583353",
      "region": "충청북도"
    },
    {
      "lat": 36.97125271106377,
      "lng": 127.538540187668,
      "title": "음성푸르지오더퍼스트아파트",
      "description": "충북 음성군 대소면 성본산단4로 41",
      "url": "http://place.map.kakao.com/121227736",
      "region": "충청북도"
    },
    {
      "lat": 36.8428267746963,
      "lng": 127.126992037582,
      "title": "천안푸르지오레이크사이드아파트",
      "description": "충남 천안시 서북구 성성7로 36",
      "url": "http://place.map.kakao.com/1977757270",
      "region": "충청남도"
    },
    {
      "lat": 36.833838765503735,
      "lng": 127.15048032986853,
      "title": "천안두정역푸르지오아파트",
      "description": "충남 천안시 서북구 두정역길 48",
      "url": "http://place.map.kakao.com/11076419",
      "region": "충청남도"
    },
    {
      "lat": 36.82985278271675,
      "lng": 127.12168641097186,
      "title": "천안백석푸르지오아파트",
      "description": "충남 천안시 서북구 한들2로 88",
      "url": "http://place.map.kakao.com/11366231",
      "region": "충청남도"
    },
    {
      "lat": 36.84075127059826,
      "lng": 127.13379937116626,
      "title": "천안레이크타운푸르지오2차아파트",
      "description": "충남 천안시 서북구 성성9로 14",
      "url": "http://place.map.kakao.com/26887695",
      "region": "충청남도"
    },
    {
      "lat": 36.8382347026364,
      "lng": 127.14290149431346,
      "title": "천안두정푸르지오3차아파트",
      "description": "충남 천안시 서북구 성정두정로 142",
      "url": "http://place.map.kakao.com/8946830",
      "region": "충청남도"
    },
    {
      "lat": 36.82160193130657,
      "lng": 127.10600296021917,
      "title": "천안불당지웰푸르지오아파트",
      "description": "충남 천안시 서북구 불당24로 38",
      "url": "http://place.map.kakao.com/21906971",
      "region": "충청남도"
    },
    {
      "lat": 36.842568227922676,
      "lng": 127.13270269808903,
      "title": "천안레이크타운푸르지오1차아파트",
      "description": "충남 천안시 서북구 성성6로 111",
      "url": "http://place.map.kakao.com/26323802",
      "region": "충청남도"
    },
    {
      "lat": 36.7719544673908,
      "lng": 127.13189090958393,
      "title": "천안신방푸르지오아파트",
      "description": "충남 천안시 동남구 통정9로 51",
      "url": "http://place.map.kakao.com/11325544",
      "region": "충청남도"
    },
    {
      "lat": 36.83467890041109,
      "lng": 127.1287340925916,
      "title": "천안두정푸르지오5차아파트",
      "description": "충남 천안시 서북구 두정고1길 9",
      "url": "http://place.map.kakao.com/8282157",
      "region": "충청남도"
    },
    {
      "lat": 36.84042522522582,
      "lng": 127.12708784542579,
      "title": "천안레이크타운3차푸르지오아파트",
      "description": "충남 천안시 서북구 성성6로 68",
      "url": "http://place.map.kakao.com/1433905965",
      "region": "충청남도"
    },
    {
      "lat": 36.81446224452856,
      "lng": 127.10622174401367,
      "title": "천안불당지웰시티푸르지오1단지아파트",
      "description": "충남 천안시 서북구 불당26로 80",
      "url": "http://place.map.kakao.com/26932426",
      "region": "충청남도"
    },
    {
      "lat": 36.82964191591056,
      "lng": 127.13020082520342,
      "title": "두정4차푸르지오아파트",
      "description": "충남 천안시 서북구 늘푸른1길 50",
      "url": "http://place.map.kakao.com/10370889",
      "region": "충청남도"
    },
    {
      "lat": 36.79098187990098,
      "lng": 127.11870741880837,
      "title": "쌍용역푸르지오아파트",
      "description": "충남 천안시 서북구 충무로 93",
      "url": "http://place.map.kakao.com/11375805",
      "region": "충청남도"
    },
    {
      "lat": 36.819191886501635,
      "lng": 127.10753961486645,
      "title": "천안불당파크푸르지오2단지아파트",
      "description": "충남 천안시 서북구 불당26로 122",
      "url": "http://place.map.kakao.com/1946264253",
      "region": "충청남도"
    },
    {
      "lat": 36.81182276401141,
      "lng": 127.10535292316327,
      "title": "천안불당지웰시티푸르지오2단지아파트",
      "description": "충남 천안시 서북구 불당26로 50",
      "url": "http://place.map.kakao.com/26932427",
      "region": "충청남도"
    },
    {
      "lat": 36.821135903481135,
      "lng": 127.10817560244516,
      "title": "천안불당파크푸르지오1단지아파트",
      "description": "충남 천안시 서북구 불당26로 144",
      "url": "http://place.map.kakao.com/214512099",
      "region": "충청남도"
    },
    {
      "lat": 36.790806599919385,
      "lng": 126.9927040442125,
      "title": "아산푸르지오아파트",
      "description": "충남 아산시 아산로117번길 17",
      "url": "http://place.map.kakao.com/8271671",
      "region": "충청남도"
    },
    {
      "lat": 36.77065897266817,
      "lng": 127.05630035766156,
      "title": "아산배방푸르지오1차아파트",
      "description": "충남 아산시 배방읍 배방로105번길 31",
      "url": "http://place.map.kakao.com/11004343",
      "region": "충청남도"
    },
    {
      "lat": 36.7930066558596,
      "lng": 127.056257324101,
      "title": "탕정푸르지오리버파크아파트 (2026년08월예정)",
      "description": "충남 아산시 탕정면 갈산리 609-4",
      "url": "http://place.map.kakao.com/158874",
      "region": "충청남도"
    },
    {
      "lat": 36.782439292644476,
      "lng": 127.01939401931264,
      "title": "아산모종푸르지오아파트",
      "description": "충남 아산시 문화로 353",
      "url": "http://place.map.kakao.com/11256974",
      "region": "충청남도"
    },
    {
      "lat": 36.7953957841626,
      "lng": 127.057563278407,
      "title": "탕정푸르지오센터파크아파트 (2028년03월예정)",
      "description": "충남 아산시 탕정면 갈산리 625-8",
      "url": "http://place.map.kakao.com/1760948273",
      "region": "충청남도"
    },
    {
      "lat": 36.786813151273435,
      "lng": 127.08775977863571,
      "title": "한들물빛도시지웰시티센트럴푸르지오3단지아파트",
      "description": "충남 아산시 탕정면 한들물빛5로 36",
      "url": "http://place.map.kakao.com/1837925755",
      "region": "충청남도"
    },
    {
      "lat": 36.78501890885208,
      "lng": 127.08290682618329,
      "title": "한들물빛도시지웰시티센트럴푸르지오1단지아파트",
      "description": "충남 아산시 탕정면 한들물빛도시로 69",
      "url": "http://place.map.kakao.com/1561664292",
      "region": "충청남도"
    },
    {
      "lat": 36.7716281411918,
      "lng": 127.049144702182,
      "title": "아산배방2차푸르지오아파트",
      "description": "충남 아산시 배방읍 배방로 58-38",
      "url": "http://place.map.kakao.com/1340354975",
      "region": "충청남도"
    },
    {
      "lat": 36.786003960921704,
      "lng": 127.08526727298674,
      "title": "한들물빛도시지웰시티센트럴푸르지오2단지아파트",
      "description": "충남 아산시 탕정면 한들물빛도시로 70",
      "url": "http://place.map.kakao.com/1181833041",
      "region": "충청남도"
    },
    {
      "lat": 36.77137474842054,
      "lng": 126.44175413059313,
      "title": "서산푸르지오더센트럴아파트",
      "description": "충남 서산시 예천3로 72",
      "url": "http://place.map.kakao.com/916436987",
      "region": "충청남도"
    },
    {
      "lat": 36.772913644857745,
      "lng": 126.44653480708357,
      "title": "서산예천푸르지오아파트",
      "description": "충남 서산시 호수공원11로 11",
      "url": "http://place.map.kakao.com/14884543",
      "region": "충청남도"
    },
    {
      "lat": 36.7721548254409,
      "lng": 126.446903174109,
      "title": "서산예천푸르지오아파트 상가",
      "description": "충남 서산시 호수공원11로 11",
      "url": "http://place.map.kakao.com/26449467",
      "region": "충청남도"
    },
    {
      "lat": 36.1287757887478,
      "lng": 127.095928667824,
      "title": "논산푸르지오더퍼스트아파트 (2026년08월예정)",
      "description": "충남 논산시 연무읍 안심리 26",
      "url": "http://place.map.kakao.com/690630300",
      "region": "충청남도"
    },
    {
      "lat": 36.1635739229281,
      "lng": 127.0208575239,
      "title": "논산강경푸르지오더퍼스트아파트 (예정)",
      "description": "충남 논산시 강경읍 동흥리 32",
      "url": "http://place.map.kakao.com/690561273",
      "region": "충청남도"
    },
    {
      "lat": 36.26036690114462,
      "lng": 127.25922348567263,
      "title": "계룡푸르지오더퍼스트아파트",
      "description": "충남 계룡시 두마면 농소로 63",
      "url": "http://place.map.kakao.com/655403412",
      "region": "충청남도"
    },
    {
      "lat": 36.89904966794665,
      "lng": 126.62583833087461,
      "title": "당진푸르지오1차아파트",
      "description": "충남 당진시 북문로 15",
      "url": "http://place.map.kakao.com/13017177",
      "region": "충청남도"
    },
    {
      "lat": 36.90019993579407,
      "lng": 126.6279981303471,
      "title": "당진2차푸르지오아파트",
      "description": "충남 당진시 북문로 16",
      "url": "http://place.map.kakao.com/15176639",
      "region": "충청남도"
    },
    {
      "lat": 36.9000945141286,
      "lng": 126.696467254756,
      "title": "당진푸르지오센트럴파크아파트",
      "description": "충남 당진시 송악읍 틀모시로 768-38",
      "url": "http://place.map.kakao.com/1666268430",
      "region": "충청남도"
    },
    {
      "lat": 35.97844857837489,
      "lng": 126.74036546423747,
      "title": "군산디오션시티푸르지오아파트",
      "description": "전북특별자치도 군산시 궁포2로 20",
      "url": "http://place.map.kakao.com/1894766300",
      "region": "전북특별자치도"
    },
    {
      "lat": 36.7824391682884,
      "lng": 127.020142355969,
      "title": "모종푸르지오아파트 상가",
      "description": "충남 아산시 문화로 353",
      "url": "http://place.map.kakao.com/23976078",
      "region": "충청남도"
    },
    {
      "lat": 36.7713176524455,
      "lng": 126.440342114275,
      "title": "서산푸르지오더센트럴아파트 101동",
      "description": "충남 서산시 예천3로 72",
      "url": "http://place.map.kakao.com/233658239",
      "region": "충청남도"
    },
    {
      "lat": 35.9210886633876,
      "lng": 127.12054276286776,
      "title": "완주푸르지오더퍼스트아파트",
      "description": "전북특별자치도 완주군 삼례읍 삼봉3로 21",
      "url": "http://place.map.kakao.com/1390944867",
      "region": "전북특별자치도"
    },
    {
      "lat": 35.9690787522758,
      "lng": 127.091025516118,
      "title": "익산푸르지오더퍼스트아파트",
      "description": "전북특별자치도 익산시 왕궁면 국가식품로13길 40",
      "url": "http://place.map.kakao.com/1168061962",
      "region": "전북특별자치도"
    },
    {
      "lat": 35.58252189978765,
      "lng": 126.84408054076675,
      "title": "정읍푸르지오더퍼스트아파트 (2025년12월예정)",
      "description": "전북특별자치도 정읍시 농흥1길 79",
      "url": "http://place.map.kakao.com/457341036",
      "region": "전북특별자치도"
    },
    {
      "lat": 35.5830899254659,
      "lng": 126.845643939984,
      "title": "정읍푸르지오더퍼스트아파트 상가",
      "description": "전북특별자치도 정읍시 농흥1길 79",
      "url": "http://place.map.kakao.com/400645940",
      "region": "전북특별자치도"
    },
    {
      "lat": 34.80947360636329,
      "lng": 126.44443136926922,
      "title": "옥암푸르지오아파트",
      "description": "전남 목포시 남악1로 51",
      "url": "http://place.map.kakao.com/10628962",
      "region": "전라남도"
    },
    {
      "lat": 34.7973560044086,
      "lng": 126.4769535798743,
      "title": "오룡푸르지오파르세나2단지아파트",
      "description": "전남 무안군 일로읍 오룡번영1로 26",
      "url": "http://place.map.kakao.com/1522506891",
      "region": "전라남도"
    },
    {
      "lat": 34.79887457891215,
      "lng": 126.47563050448088,
      "title": "오룡푸르지오파르세나1단지아파트",
      "description": "전남 무안군 일로읍 오룡번영1로 10",
      "url": "http://place.map.kakao.com/1558704961",
      "region": "전라남도"
    },
    {
      "lat": 34.80385821437067,
      "lng": 126.48508239364465,
      "title": "오룡에듀포레푸르지오2단지아파트",
      "description": "전남 무안군 일로읍 오룡중앙동로 65",
      "url": "http://place.map.kakao.com/514152148",
      "region": "전라남도"
    },
    {
      "lat": 34.80561787311163,
      "lng": 126.4866057953719,
      "title": "오룡에듀포레푸르지오1단지아파트",
      "description": "전남 무안군 일로읍 오룡중앙동로 37",
      "url": "http://place.map.kakao.com/731940832",
      "region": "전라남도"
    },
    {
      "lat": 34.91530719659393,
      "lng": 127.64163610365156,
      "title": "황금푸르지오더센트럴아파트",
      "description": "전남 광양시 황금4로 53",
      "url": "http://place.map.kakao.com/1102173347",
      "region": "전라남도"
    },
    {
      "lat": 34.939979160049,
      "lng": 127.6803212051,
      "title": "광양푸르지오더퍼스트아파트 101동",
      "description": "전남 광양시 성황수동로 22",
      "url": "http://place.map.kakao.com/1757116320",
      "region": "전라남도"
    },
    {
      "lat": 34.9418436356648,
      "lng": 127.511553340658,
      "title": "순천푸르지오더퍼스트아파트",
      "description": "전남 순천시 충효로 25",
      "url": "http://place.map.kakao.com/1618565378",
      "region": "전라남도"
    },
    {
      "lat": 34.977188796738,
      "lng": 127.603361495616,
      "title": "광양푸르지오센터파크아파트",
      "description": "전남 광양시 광양읍 용강6길 31",
      "url": "http://place.map.kakao.com/1589025084",
      "region": "전라남도"
    },
    {
      "lat": 34.941225242494355,
      "lng": 127.67992976959627,
      "title": "광양푸르지오더퍼스트아파트",
      "description": "전남 광양시 성황수동로 22",
      "url": "http://place.map.kakao.com/239096428",
      "region": "전라남도"
    },
    {
      "lat": 35.2254504694729,
      "lng": 126.97678088891,
      "title": "담양고서푸르지오아파트 (예정)",
      "description": "전남 담양군 고서면 동운리 636",
      "url": "http://place.map.kakao.com/752745187",
      "region": "전라남도"
    },
    {
      "lat": 36.08804290394957,
      "lng": 129.37972653192304,
      "title": "장성푸르지오아파트",
      "description": "경북 포항시 북구 침촌지구로 10",
      "url": "http://place.map.kakao.com/153952258",
      "region": "경상북도"
    },
    {
      "lat": 35.9727271127246,
      "lng": 129.548251216016,
      "title": "포항푸르지오마린시티아파트",
      "description": "경북 포항시 남구 구룡포읍 송정로16번길 11",
      "url": "http://place.map.kakao.com/503649465",
      "region": "경상북도"
    },
    {
      "lat": 36.06030096967861,
      "lng": 129.3717188133479,
      "title": "두호SK뷰푸르지오2단지아파트",
      "description": "경북 포항시 북구 두호로 65",
      "url": "http://place.map.kakao.com/564942129",
      "region": "경상북도"
    },
    {
      "lat": 36.061858135350356,
      "lng": 129.37202412375362,
      "title": "두호SK뷰푸르지오1단지아파트",
      "description": "경북 포항시 북구 두호로 66",
      "url": "http://place.map.kakao.com/1227585787",
      "region": "경상북도"
    },
    {
      "lat": 35.89177221121218,
      "lng": 129.1728507114889,
      "title": "경주센트럴푸르지오아파트",
      "description": "경북 경주시 현곡면 용담로 548",
      "url": "http://place.map.kakao.com/142714605",
      "region": "경상북도"
    },
    {
      "lat": 35.89061061761331,
      "lng": 129.17653953703805,
      "title": "경주현곡푸르지오아파트",
      "description": "경북 경주시 현곡면 새안현로 23",
      "url": "http://place.map.kakao.com/27444942",
      "region": "경상북도"
    },
    {
      "lat": 35.85765555967875,
      "lng": 129.2205494673545,
      "title": "경주푸르지오아파트",
      "description": "경북 경주시 백률로 7",
      "url": "http://place.map.kakao.com/11037613",
      "region": "경상북도"
    },
    {
      "lat": 35.858542624624,
      "lng": 129.220330709853,
      "title": "경주푸르지오아파트 상가",
      "description": "경북 경주시 원화로 428",
      "url": "http://place.map.kakao.com/1420804197",
      "region": "경상북도"
    },
    {
      "lat": 36.12706069112733,
      "lng": 128.09971467195632,
      "title": "김천푸르지오더퍼스트아파트",
      "description": "경북 김천시 부곡중앙1길 79",
      "url": "http://place.map.kakao.com/1589028068",
      "region": "경상북도"
    },
    {
      "lat": 36.15851767041467,
      "lng": 128.33460768528846,
      "title": "구미원호푸르지오아파트",
      "description": "경북 구미시 고아읍 들성로 121",
      "url": "http://place.map.kakao.com/11219667",
      "region": "경상북도"
    },
    {
      "lat": 36.15491775670685,
      "lng": 128.3267317431733,
      "title": "구미푸르지오센트럴파크아파트",
      "description": "경북 구미시 고아읍 신원대로 7-60",
      "url": "http://place.map.kakao.com/1427066606",
      "region": "경상북도"
    },
    {
      "lat": 36.09132354773758,
      "lng": 128.43274698296446,
      "title": "구미구평푸르지오아파트",
      "description": "경북 구미시 인동36길 31",
      "url": "http://place.map.kakao.com/8700260",
      "region": "경상북도"
    },
    {
      "lat": 36.14725516901321,
      "lng": 128.40473063601672,
      "title": "구미푸르지오엘리포레시티2단지아파트",
      "description": "경북 구미시 거의로 100",
      "url": "http://place.map.kakao.com/1532450314",
      "region": "경상북도"
    },
    {
      "lat": 36.0983156089989,
      "lng": 128.43461498635193,
      "title": "구미인의푸르지오아파트",
      "description": "경북 구미시 인동35길 33",
      "url": "http://place.map.kakao.com/11004335",
      "region": "경상북도"
    },
    {
      "lat": 36.12326542493735,
      "lng": 128.33975091348967,
      "title": "구미푸르지오캐슬A단지아파트",
      "description": "경북 구미시 박정희로 599",
      "url": "http://place.map.kakao.com/11355193",
      "region": "경상북도"
    },
    {
      "lat": 36.1463014033523,
      "lng": 128.403455920732,
      "title": "구미푸르지오엘리포레시티1단지아파트",
      "description": "경북 구미시 거의로9길 10",
      "url": "http://place.map.kakao.com/2122540014",
      "region": "경상북도"
    },
    {
      "lat": 36.10277971567827,
      "lng": 128.36537839588007,
      "title": "구미광평푸르지오1차아파트",
      "description": "경북 구미시 구미대로 186-20",
      "url": "http://place.map.kakao.com/11371722",
      "region": "경상북도"
    },
    {
      "lat": 36.12505069246842,
      "lng": 128.3370798926981,
      "title": "구미푸르지오캐슬C단지아파트",
      "description": "경북 구미시 박정희로 616",
      "url": "http://place.map.kakao.com/11351345",
      "region": "경상북도"
    },
    {
      "lat": 36.10391315562996,
      "lng": 128.36555347588975,
      "title": "구미광평푸르지오2차아파트",
      "description": "경북 구미시 구미대로 186-19",
      "url": "http://place.map.kakao.com/11346128",
      "region": "경상북도"
    },
    {
      "lat": 36.12387503095962,
      "lng": 128.33616247385206,
      "title": "구미푸르지오캐슬B단지아파트",
      "description": "경북 구미시 산책길 7",
      "url": "http://place.map.kakao.com/11346485",
      "region": "경상북도"
    },
    {
      "lat": 35.831355190335145,
      "lng": 128.7205525626767,
      "title": "펜타힐즈푸르지오2차아파트",
      "description": "경북 경산시 펜타힐즈4로 13",
      "url": "http://place.map.kakao.com/1559851285",
      "region": "경상북도"
    },
    {
      "lat": 35.8392522023917,
      "lng": 128.767637899881,
      "title": "경산푸르지오아파트",
      "description": "경북 경산시 압량읍 압독4로 12",
      "url": "http://place.map.kakao.com/22758749",
      "region": "경상북도"
    },
    {
      "lat": 35.82576678115278,
      "lng": 128.71781612314084,
      "title": "펜타힐즈푸르지오아파트",
      "description": "경북 경산시 펜타힐즈2로 20",
      "url": "http://place.map.kakao.com/1781646403",
      "region": "경상북도"
    },
    {
      "lat": 35.8332165772624,
      "lng": 128.716355548096,
      "title": "펜타힐즈푸르지오3차아파트(경산C5BL) (예정)",
      "description": "경북 경산시 중산동 629",
      "url": "http://place.map.kakao.com/1560363187",
      "region": "경상북도"
    },
    {
      "lat": 35.48023524769076,
      "lng": 128.74562117338698,
      "title": "밀양삼문푸르지오아파트",
      "description": "경남 밀양시 미리벌중앙로3길 47",
      "url": "http://place.map.kakao.com/7919839",
      "region": "경상남도"
    },
    {
      "lat": 35.47164437696994,
      "lng": 128.77109658015237,
      "title": "밀양강푸르지오아파트",
      "description": "경남 밀양시 역앞광장로 15",
      "url": "http://place.map.kakao.com/348853795",
      "region": "경상남도"
    },
    {
      "lat": 35.21145040040339,
      "lng": 128.5694860664142,
      "title": "창원푸르지오더플래티넘아파트",
      "description": "경남 창원시 마산합포구 노산서9길 20",
      "url": "http://place.map.kakao.com/184535512",
      "region": "경상남도"
    },
    {
      "lat": 35.20190031154421,
      "lng": 128.7097300610427,
      "title": "한림푸르지오아파트",
      "description": "경남 창원시 성산구 외리로34번길 13",
      "url": "http://place.map.kakao.com/8598098",
      "region": "경상남도"
    },
    {
      "lat": 35.20924749965266,
      "lng": 128.69122128388767,
      "title": "창원센텀푸르지오아파트",
      "description": "경남 창원시 성산구 가음정로 59",
      "url": "http://place.map.kakao.com/2057709589",
      "region": "경상남도"
    },
    {
      "lat": 35.30050031724904,
      "lng": 128.58543373656525,
      "title": "창원감계푸르지오아파트",
      "description": "경남 창원시 의창구 북면 감계로 221",
      "url": "http://place.map.kakao.com/26437632",
      "region": "경상남도"
    },
    {
      "lat": 35.1603637654669,
      "lng": 128.6964769894413,
      "title": "진해석동푸르지오아파트",
      "description": "경남 창원시 진해구 진해대로 727",
      "url": "http://place.map.kakao.com/10494512",
      "region": "경상남도"
    },
    {
      "lat": 35.133300798559816,
      "lng": 128.70700098656957,
      "title": "창원마린푸르지오1단지아파트",
      "description": "경남 창원시 진해구 천자로 386",
      "url": "http://place.map.kakao.com/19470830",
      "region": "경상남도"
    },
    {
      "lat": 35.09738499821618,
      "lng": 128.80479725165935,
      "title": "창원마린2차푸르지오아파트",
      "description": "경남 창원시 진해구 안골로298번길 26",
      "url": "http://place.map.kakao.com/26157299",
      "region": "경상남도"
    },
    {
      "lat": 35.131199135787526,
      "lng": 128.70700099376054,
      "title": "창원마린푸르지오2단지아파트",
      "description": "경남 창원시 진해구 충장로657번길 35",
      "url": "http://place.map.kakao.com/27172347",
      "region": "경상남도"
    },
    {
      "lat": 35.2069779253589,
      "lng": 128.695945205585,
      "title": "창원푸르지오파크베뉴아파트 (2027년06월예정)",
      "description": "경남 창원시 성산구 가음정로 107-34",
      "url": "http://place.map.kakao.com/2139928499",
      "region": "경상남도"
    },
    {
      "lat": 35.2015582117124,
      "lng": 128.710214778403,
      "title": "한림푸르지오아파트 상가",
      "description": "경남 창원시 성산구 외리로34번길 15",
      "url": "http://place.map.kakao.com/26450098",
      "region": "경상남도"
    },
    {
      "lat": 35.20435809351146,
      "lng": 128.1129798549735,
      "title": "진주초전푸르지오1단지아파트",
      "description": "경남 진주시 초장로14번길 27",
      "url": "http://place.map.kakao.com/11242951",
      "region": "경상남도"
    },
    {
      "lat": 35.21887482089777,
      "lng": 128.14596425240958,
      "title": "진주푸르지오1단지아파트",
      "description": "경남 진주시 금산면 덕의길 15",
      "url": "http://place.map.kakao.com/11375596",
      "region": "경상남도"
    },
    {
      "lat": 35.20679857673081,
      "lng": 128.1118271756828,
      "title": "진주초전푸르지오2단지아파트",
      "description": "경남 진주시 초장로14번길 29",
      "url": "http://place.map.kakao.com/11239943",
      "region": "경상남도"
    },
    {
      "lat": 35.2178241910713,
      "lng": 128.147267415289,
      "title": "진주푸르지오2단지아파트",
      "description": "경남 진주시 금산면 덕의길 11",
      "url": "http://place.map.kakao.com/11152621",
      "region": "경상남도"
    },
    {
      "lat": 35.2179927692024,
      "lng": 128.146597641113,
      "title": "진주푸르지오2단지아파트 상가",
      "description": "경남 진주시 금산면 덕의길 11-1",
      "url": "http://place.map.kakao.com/26447691",
      "region": "경상남도"
    },
    {
      "lat": 35.2181606229867,
      "lng": 128.146384738881,
      "title": "진주푸르지오1단지아파트 상가",
      "description": "경남 진주시 금산면 덕의길 15-1",
      "url": "http://place.map.kakao.com/26439823",
      "region": "경상남도"
    },
    {
      "lat": 34.87916464336808,
      "lng": 128.41880442157515,
      "title": "통영죽림푸르지오1차아파트",
      "description": "경남 통영시 광도면 죽림1로 41-42",
      "url": "http://place.map.kakao.com/10797932",
      "region": "경상남도"
    },
    {
      "lat": 34.8775670722746,
      "lng": 128.4197700342381,
      "title": "통영죽림푸르지오2차아파트",
      "description": "경남 통영시 광도면 죽림2로 76-58",
      "url": "http://place.map.kakao.com/11323948",
      "region": "경상남도"
    },
    {
      "lat": 34.8810049463226,
      "lng": 128.41649983604367,
      "title": "통영죽림3차대우푸르지오아파트",
      "description": "경남 통영시 광도면 죽림2로 31",
      "url": "http://place.map.kakao.com/11155364",
      "region": "경상남도"
    },
    {
      "lat": 34.85852818296347,
      "lng": 128.64207443415395,
      "title": "거제센트럴푸르지오아파트",
      "description": "경남 거제시 문동1길 42",
      "url": "http://place.map.kakao.com/26927969",
      "region": "경상남도"
    },
    {
      "lat": 35.0612456965937,
      "lng": 128.06513896413378,
      "title": "사천푸르지오아파트",
      "description": "경남 사천시 사남면 조동길 61",
      "url": "http://place.map.kakao.com/7910197",
      "region": "경상남도"
    },
    {
      "lat": 35.2476787808005,
      "lng": 128.866064197561,
      "title": "연지공원푸르지오아파트",
      "description": "경남 김해시 금관대로 1407",
      "url": "http://place.map.kakao.com/1205081746",
      "region": "경상남도"
    },
    {
      "lat": 35.237944897448465,
      "lng": 128.91139375503334,
      "title": "김해푸르지오하이엔드2단지아파트",
      "description": "경남 김해시 안동길 11",
      "url": "http://place.map.kakao.com/1559993163",
      "region": "경상남도"
    },
    {
      "lat": 35.25674248498163,
      "lng": 128.87297173365752,
      "title": "김해구산푸르지오파크테르아파트",
      "description": "경남 김해시 가락로 354",
      "url": "http://place.map.kakao.com/673062762",
      "region": "경상남도"
    },
    {
      "lat": 35.224853370258806,
      "lng": 128.88398747691048,
      "title": "부원역푸르지오아파트",
      "description": "경남 김해시 김해대로 2326",
      "url": "http://place.map.kakao.com/15292205",
      "region": "경상남도"
    },
    {
      "lat": 35.238142702953546,
      "lng": 128.91324703568404,
      "title": "김해푸르지오하이엔드1단지아파트",
      "description": "경남 김해시 안동길 31",
      "url": "http://place.map.kakao.com/473123428",
      "region": "경상남도"
    },
    {
      "lat": 35.16759853577826,
      "lng": 128.82493259870537,
      "title": "원메이저푸르지오아파트",
      "description": "경남 김해시 율하로 479",
      "url": "http://place.map.kakao.com/316539858",
      "region": "경상남도"
    },
    {
      "lat": 35.27133591996186,
      "lng": 128.86213652006884,
      "title": "분성마을5단지푸르지오아파트",
      "description": "경남 김해시 가야로 19",
      "url": "http://place.map.kakao.com/10455666",
      "region": "경상남도"
    },
    {
      "lat": 35.17683283511208,
      "lng": 128.7985120231282,
      "title": "팔판마을4단지푸르지오아파트",
      "description": "경남 김해시 팔판로 93",
      "url": "http://place.map.kakao.com/10197381",
      "region": "경상남도"
    },
    {
      "lat": 35.20422705078204,
      "lng": 128.80472888426698,
      "title": "월산마을13단지푸르지오아파트",
      "description": "경남 김해시 월산로 82-15",
      "url": "http://place.map.kakao.com/8241484",
      "region": "경상남도"
    },
    {
      "lat": 35.17456213407579,
      "lng": 128.8108251831722,
      "title": "율상마을4단지푸르지오아파트",
      "description": "경남 김해시 율하1로 64",
      "url": "http://place.map.kakao.com/11180345",
      "region": "경상남도"
    },
    {
      "lat": 35.258688421883775,
      "lng": 128.8692831194854,
      "title": "구지마을3단지푸르지오아파트",
      "description": "경남 김해시 삼계로 35",
      "url": "http://place.map.kakao.com/8192900",
      "region": "경상남도"
    },
    {
      "lat": 35.18750736597069,
      "lng": 128.79895364849338,
      "title": "갑오마을8단지푸르지오아파트",
      "description": "경남 김해시 반룡로 11",
      "url": "http://place.map.kakao.com/8502747",
      "region": "경상남도"
    },
    {
      "lat": 35.173357142299345,
      "lng": 128.80932332600307,
      "title": "율상마을3단지푸르지오아파트",
      "description": "경남 김해시 율하2로 57",
      "url": "http://place.map.kakao.com/11374777",
      "region": "경상남도"
    },
    {
      "lat": 35.18950647697117,
      "lng": 128.80511348820278,
      "title": "갑오마을9단지푸르지오아파트",
      "description": "경남 김해시 반룡로 65",
      "url": "http://place.map.kakao.com/8203075",
      "region": "경상남도"
    },
    {
      "lat": 35.17703072422088,
      "lng": 128.79221604945118,
      "title": "팔판마을6단지푸르지오아파트",
      "description": "경남 김해시 팔판로 27",
      "url": "http://place.map.kakao.com/24008153",
      "region": "경상남도"
    },
    {
      "lat": 35.18752060115388,
      "lng": 128.79441799571038,
      "title": "갑오마을1단지푸르지오아파트",
      "description": "경남 김해시 계동로 138",
      "url": "http://place.map.kakao.com/11016157",
      "region": "경상남도"
    },
    {
      "lat": 35.2753222162343,
      "lng": 128.861586009306,
      "title": "김해삼계푸르지오센트럴파크아파트 (2027년04월예정)",
      "description": "경남 김해시 삼계동 1027-3",
      "url": "http://place.map.kakao.com/613495548",
      "region": "경상남도"
    },
    {
      "lat": 35.19525841705701,
      "lng": 128.79526447406087,
      "title": "젤미마을5단지푸르지오아파트",
      "description": "경남 김해시 능동로 10",
      "url": "http://place.map.kakao.com/8208464",
      "region": "경상남도"
    },
    {
      "lat": 35.176827381838706,
      "lng": 128.79474927495835,
      "title": "팔판마을5단지푸르지오아파트",
      "description": "경남 김해시 팔판로 71",
      "url": "http://place.map.kakao.com/23835128",
      "region": "경상남도"
    },
    {
      "lat": 34.871475315833706,
      "lng": 128.6892763650964,
      "title": "거제마린푸르지오1단지아파트",
      "description": "경남 거제시 용소1길 17-17",
      "url": "http://place.map.kakao.com/19148050",
      "region": "경상남도"
    },
    {
      "lat": 34.873033889468566,
      "lng": 128.6899042544532,
      "title": "거제마린푸르지오2단지아파트",
      "description": "경남 거제시 용소1길 17-7",
      "url": "http://place.map.kakao.com/19148027",
      "region": "경상남도"
    },
    {
      "lat": 34.8713952181314,
      "lng": 128.690175817879,
      "title": "거제마린푸르지오1단지아파트 상가",
      "description": "경남 거제시 용소1길 17-17",
      "url": "http://place.map.kakao.com/1936198195",
      "region": "경상남도"
    },
    {
      "lat": 35.40566529892626,
      "lng": 129.17276119700497,
      "title": "웅상신도시푸르지오아파트",
      "description": "경남 양산시 삼호로 74",
      "url": "http://place.map.kakao.com/11176838",
      "region": "경상남도"
    },
    {
      "lat": 35.681628669952126,
      "lng": 127.90038766668494,
      "title": "거창푸르지오아파트",
      "description": "경남 거창군 거창읍 송정2길 33",
      "url": "http://place.map.kakao.com/27485077",
      "region": "경상남도"
    },
    {
      "lat": 33.27805216261485,
      "lng": 126.30180051383628,
      "title": "제주푸르지오더퍼스트",
      "description": "제주특별자치도 서귀포시 대정읍 서광남로 47",
      "url": "http://place.map.kakao.com/1615412786",
      "region": "제주특별자치도"
    }
  ]
}