{
  "pins": [
    {
      "lat": 37.49877740616262,
      "lng": 127.04987623178826,
      "title": "역삼e편한세상아파트",
      "description": "서울 강남구 선릉로69길 20",
      "url": "http://place.map.kakao.com/11003122",
      "region": "서울특별시"
    },
    {
      "lat": 37.520503271942566,
      "lng": 127.04783642052683,
      "title": "청담1차e편한세상아파트",
      "description": "서울 강남구 학동로77길 27",
      "url": "http://place.map.kakao.com/7818260",
      "region": "서울특별시"
    },
    {
      "lat": 37.52140163664867,
      "lng": 127.04538903603199,
      "title": "청담2차e편한세상아파트",
      "description": "서울 강남구 도산대로70길 25",
      "url": "http://place.map.kakao.com/8091162",
      "region": "서울특별시"
    },
    {
      "lat": 37.50686105140391,
      "lng": 127.02875001221048,
      "title": "논현e편한세상아파트",
      "description": "서울 강남구 봉은사로11길 12",
      "url": "http://place.map.kakao.com/11020140",
      "region": "서울특별시"
    },
    {
      "lat": 37.52055768796693,
      "lng": 127.04694958951949,
      "title": "청담4차e편한세상아파트",
      "description": "서울 강남구 학동로73길 33",
      "url": "http://place.map.kakao.com/12128593",
      "region": "서울특별시"
    },
    {
      "lat": 37.51858680805725,
      "lng": 127.04563618985787,
      "title": "청담3차e편한세상아파트",
      "description": "서울 강남구 선릉로132길 54",
      "url": "http://place.map.kakao.com/11241989",
      "region": "서울특별시"
    },
    {
      "lat": 37.520770627862404,
      "lng": 127.04618050046425,
      "title": "청담2차e편한세상아파트",
      "description": "서울 강남구 도산대로78길 51",
      "url": "http://place.map.kakao.com/12804396",
      "region": "서울특별시"
    },
    {
      "lat": 37.520623334785114,
      "lng": 127.04495870579146,
      "title": "청담2차e편한세상아파트(204동)",
      "description": "서울 강남구 도산대로70길 43",
      "url": "http://place.map.kakao.com/19146374",
      "region": "서울특별시"
    },
    {
      "lat": 37.49644775198734,
      "lng": 127.0166279102018,
      "title": "서초교대e편한세상아파트",
      "description": "서울 서초구 서초중앙로24길 33",
      "url": "http://place.map.kakao.com/11289981",
      "region": "서울특별시"
    },
    {
      "lat": 37.483906884097756,
      "lng": 126.99832211005214,
      "title": "방배서리풀e편한세상아파트",
      "description": "서울 서초구 효령로33길 50",
      "url": "http://place.map.kakao.com/11350050",
      "region": "서울특별시"
    },
    {
      "lat": 37.48770554228812,
      "lng": 126.99894617748542,
      "title": "방배e편한세상1차아파트",
      "description": "서울 서초구 서초대로34길 34",
      "url": "http://place.map.kakao.com/10242713",
      "region": "서울특별시"
    },
    {
      "lat": 37.48622754706084,
      "lng": 127.00905003135817,
      "title": "서초2차이편한세상아파트",
      "description": "서울 서초구 효령로49길 57",
      "url": "http://place.map.kakao.com/11387774",
      "region": "서울특별시"
    },
    {
      "lat": 37.48119286588855,
      "lng": 127.00672940683323,
      "title": "서초1차e편한세상아파트",
      "description": "서울 서초구 명달로6길 31",
      "url": "http://place.map.kakao.com/11387754",
      "region": "서울특별시"
    },
    {
      "lat": 37.479722386314364,
      "lng": 127.00728100315256,
      "title": "서초5차이편한세상아파트",
      "description": "서울 서초구 명달로4길 30",
      "url": "http://place.map.kakao.com/11373800",
      "region": "서울특별시"
    },
    {
      "lat": 37.544255591275835,
      "lng": 127.08070769118955,
      "title": "e편한세상광진그랜드파크아파트",
      "description": "서울 광진구 광나루로 458",
      "url": "http://place.map.kakao.com/1902425032",
      "region": "서울특별시"
    },
    {
      "lat": 37.5557227218143,
      "lng": 127.18070448939946,
      "title": "e편한세상고덕어반브릿지아파트",
      "description": "서울 강동구 고덕로98길 75",
      "url": "http://place.map.kakao.com/1784501644",
      "region": "서울특별시"
    },
    {
      "lat": 37.5425574548228,
      "lng": 127.126613498116,
      "title": "e편한세상강동프레스티지원아파트 (2026년01월예정)",
      "description": "서울 강동구 천호동 423-76",
      "url": "http://place.map.kakao.com/2135422480",
      "region": "서울특별시"
    },
    {
      "lat": 37.5512815429311,
      "lng": 127.1388831069819,
      "title": "암사e편한세상아파트",
      "description": "서울 강동구 구천면로 365-13",
      "url": "http://place.map.kakao.com/10583212",
      "region": "서울특별시"
    },
    {
      "lat": 37.54124847749881,
      "lng": 127.14814859986971,
      "title": "e편한세상강동에코포레아파트",
      "description": "서울 강동구 천중로 253",
      "url": "http://place.map.kakao.com/1107976886",
      "region": "서울특별시"
    },
    {
      "lat": 37.53323462886736,
      "lng": 127.1309117530755,
      "title": "성내1차e편한세상아파트",
      "description": "서울 강동구 천호대로168길 58",
      "url": "http://place.map.kakao.com/10242711",
      "region": "서울특별시"
    },
    {
      "lat": 37.54436727818855,
      "lng": 127.12433645463754,
      "title": "천호e편한세상아파트",
      "description": "서울 강동구 올림픽로81길 15",
      "url": "http://place.map.kakao.com/8596700",
      "region": "서울특별시"
    },
    {
      "lat": 37.535273608841806,
      "lng": 127.12843522727401,
      "title": "e편한세상3차아파트",
      "description": "서울 강동구 천호대로162길 35",
      "url": "http://place.map.kakao.com/11004212",
      "region": "서울특별시"
    },
    {
      "lat": 37.53443246180656,
      "lng": 127.12640628867825,
      "title": "성내2차e편한세상아파트",
      "description": "서울 강동구 풍성로37길 55",
      "url": "http://place.map.kakao.com/10249011",
      "region": "서울특별시"
    },
    {
      "lat": 37.649791506516905,
      "lng": 127.02726391822797,
      "title": "쌍문e편한세상아파트",
      "description": "서울 도봉구 노해로41가길 16",
      "url": "http://place.map.kakao.com/8289283",
      "region": "서울특별시"
    },
    {
      "lat": 37.61519635910985,
      "lng": 127.01020280769085,
      "title": "정릉이편한세상1차아파트",
      "description": "서울 성북구 솔샘로24길 15",
      "url": "http://place.map.kakao.com/11324486",
      "region": "서울특별시"
    },
    {
      "lat": 37.6126941142614,
      "lng": 127.019072993331,
      "title": "e편한세상길음뉴타운4단지아파트",
      "description": "서울 성북구 길음로 118",
      "url": "http://place.map.kakao.com/11506153",
      "region": "서울특별시"
    },
    {
      "lat": 37.6127988203225,
      "lng": 127.017849809769,
      "title": "e편한세상길음뉴타운4단지아파트(1281-1) 426동",
      "description": "서울 성북구 길음동 1281-1",
      "url": "http://place.map.kakao.com/1853557220",
      "region": "서울특별시"
    },
    {
      "lat": 37.54942822036064,
      "lng": 126.83781756883711,
      "title": "우장산아이파크이편한세상아파트",
      "description": "서울 강서구 강서로 266",
      "url": "http://place.map.kakao.com/11333974",
      "region": "서울특별시"
    },
    {
      "lat": 37.54886600701802,
      "lng": 126.87067122811287,
      "title": "e편한세상염창아파트",
      "description": "서울 강서구 공항대로 583",
      "url": "http://place.map.kakao.com/1168746222",
      "region": "서울특별시"
    },
    {
      "lat": 37.5700994916236,
      "lng": 126.80818348339636,
      "title": "방화동e편한세상아파트",
      "description": "서울 강서구 양천로6길 57",
      "url": "http://place.map.kakao.com/10250464",
      "region": "서울특별시"
    },
    {
      "lat": 37.542136375203754,
      "lng": 126.86262748023363,
      "title": "등촌e편한세상아파트",
      "description": "서울 강서구 등촌로 137",
      "url": "http://place.map.kakao.com/11334586",
      "region": "서울특별시"
    },
    {
      "lat": 37.5702031371978,
      "lng": 126.80764893475,
      "title": "e편한세상방화아파트 상가",
      "description": "서울 강서구 양천로6길 57",
      "url": "http://place.map.kakao.com/26444386",
      "region": "서울특별시"
    },
    {
      "lat": 37.477482634550306,
      "lng": 126.94334667013433,
      "title": "e편한세상서울대입구1차아파트",
      "description": "서울 관악구 청룡10길 45",
      "url": "http://place.map.kakao.com/1765756778",
      "region": "서울특별시"
    },
    {
      "lat": 37.478053894698384,
      "lng": 126.9415384650226,
      "title": "e편한세상서울대입구2차아파트",
      "description": "서울 관악구 참숯1길 19",
      "url": "http://place.map.kakao.com/1059746314",
      "region": "서울특별시"
    },
    {
      "lat": 37.505118643901525,
      "lng": 126.94794129534088,
      "title": "e편한세상상도노빌리티아파트",
      "description": "서울 동작구 만양로 6",
      "url": "http://place.map.kakao.com/1651246571",
      "region": "서울특별시"
    },
    {
      "lat": 37.495425401482,
      "lng": 126.92855886373948,
      "title": "보라매e편한세상아파트",
      "description": "서울 동작구 보라매로 70",
      "url": "http://place.map.kakao.com/7892910",
      "region": "서울특별시"
    },
    {
      "lat": 37.56660587267071,
      "lng": 127.06095180859906,
      "title": "e편한세상답십리아르테포레아파트",
      "description": "서울 동대문구 전농로4나길 19",
      "url": "http://place.map.kakao.com/293676790",
      "region": "서울특별시"
    },
    {
      "lat": 37.51060177904079,
      "lng": 126.8868446381492,
      "title": "신도림4차e편한세상아파트",
      "description": "서울 구로구 경인로65길 16-15",
      "url": "http://place.map.kakao.com/7974448",
      "region": "서울특별시"
    },
    {
      "lat": 37.5056819763221,
      "lng": 126.88282124675224,
      "title": "신도림6차e편한세상아파트",
      "description": "서울 구로구 경인로59길 7",
      "url": "http://place.map.kakao.com/7970033",
      "region": "서울특별시"
    },
    {
      "lat": 37.50848585324552,
      "lng": 126.88277162304932,
      "title": "신도림7차e편한세상아파트",
      "description": "서울 구로구 신도림로 56-13",
      "url": "http://place.map.kakao.com/10520949",
      "region": "서울특별시"
    },
    {
      "lat": 37.50703859280142,
      "lng": 126.880724511041,
      "title": "신도림5차e편한세상아파트",
      "description": "서울 구로구 신도림로 32",
      "url": "http://place.map.kakao.com/7972526",
      "region": "서울특별시"
    },
    {
      "lat": 37.51254466120942,
      "lng": 126.84300086452805,
      "title": "신정동이편한세상아파트",
      "description": "서울 양천구 신정로13길 38",
      "url": "http://place.map.kakao.com/8300020",
      "region": "서울특별시"
    },
    {
      "lat": 37.46582938143008,
      "lng": 126.89618466513538,
      "title": "e편한세상독산더타워아파트",
      "description": "서울 금천구 범안로 1212",
      "url": "http://place.map.kakao.com/1633055402",
      "region": "서울특별시"
    },
    {
      "lat": 37.46843912709118,
      "lng": 126.86773968982003,
      "title": "e편한세상센트레빌아파트",
      "description": "경기 광명시 오리로 801",
      "url": "http://place.map.kakao.com/11003387",
      "region": "경기도"
    },
    {
      "lat": 37.43155568439391,
      "lng": 126.90469357787251,
      "title": "석수2차e편한세상아파트",
      "description": "경기 안양시 만안구 경수대로1394번길 11",
      "url": "http://place.map.kakao.com/10489274",
      "region": "경기도"
    },
    {
      "lat": 37.4695469023682,
      "lng": 126.868127738696,
      "title": "e편한세상센트레빌아파트 커뮤니티센터",
      "description": "경기 광명시 오리로 801",
      "url": "http://place.map.kakao.com/1345231180",
      "region": "경기도"
    },
    {
      "lat": 37.6748165258683,
      "lng": 127.05092787021412,
      "title": "상계대림e편한세상아파트",
      "description": "서울 노원구 동일로239길 68",
      "url": "http://place.map.kakao.com/11139941",
      "region": "서울특별시"
    },
    {
      "lat": 37.61647306759768,
      "lng": 127.08310763150651,
      "title": "e편한세상화랑대아파트",
      "description": "서울 중랑구 숙선옹주로 45",
      "url": "http://place.map.kakao.com/26805262",
      "region": "서울특별시"
    },
    {
      "lat": 37.60452201412,
      "lng": 127.06497244659619,
      "title": "이문e편한세상아파트",
      "description": "서울 동대문구 한천로63길 10",
      "url": "http://place.map.kakao.com/7818713",
      "region": "서울특별시"
    },
    {
      "lat": 37.73112625807582,
      "lng": 127.06276532408269,
      "title": "e편한세상신곡파크프라임아파트",
      "description": "경기 의정부시 금신로 111",
      "url": "http://place.map.kakao.com/1783813704",
      "region": "경기도"
    },
    {
      "lat": 37.73823270161781,
      "lng": 127.06678748962835,
      "title": "e편한세상신곡파크비스타아파트",
      "description": "경기 의정부시 시민로 287",
      "url": "http://place.map.kakao.com/1338591917",
      "region": "경기도"
    },
    {
      "lat": 37.6046933483433,
      "lng": 127.063041718814,
      "title": "이문e편한세상아파트(225-1)",
      "description": "서울 동대문구 이문로54길 16",
      "url": "http://place.map.kakao.com/1306539571",
      "region": "서울특별시"
    },
    {
      "lat": 37.7352118704429,
      "lng": 127.059854334538,
      "title": "e편한세상신곡시그니처뷰아파트 (2026년09월예정)",
      "description": "경기 의정부시 신곡동 435-3",
      "url": "http://place.map.kakao.com/1919270011",
      "region": "경기도"
    },
    {
      "lat": 37.571714921804386,
      "lng": 127.02922205568832,
      "title": "e편한세상청계센트럴포레아파트",
      "description": "서울 동대문구 무학로 91",
      "url": "http://place.map.kakao.com/1492715675",
      "region": "서울특별시"
    },
    {
      "lat": 37.512043859454984,
      "lng": 126.92908141997638,
      "title": "대방1차e편한세상아파트",
      "description": "서울 동작구 알마타길 37",
      "url": "http://place.map.kakao.com/7818717",
      "region": "서울특별시"
    },
    {
      "lat": 37.512037790236064,
      "lng": 126.93100425763042,
      "title": "대방2차e편한세상아파트",
      "description": "서울 동작구 알마타길 53",
      "url": "http://place.map.kakao.com/11003119",
      "region": "서울특별시"
    },
    {
      "lat": 37.536187439882006,
      "lng": 126.96649685775661,
      "title": "용산e편한세상아파트",
      "description": "서울 용산구 원효로 216",
      "url": "http://place.map.kakao.com/12683598",
      "region": "서울특별시"
    },
    {
      "lat": 37.49434448482734,
      "lng": 126.90697271850476,
      "title": "e편한세상영등포아델포레아파트",
      "description": "서울 영등포구 신길로 29",
      "url": "http://place.map.kakao.com/1863755563",
      "region": "서울특별시"
    },
    {
      "lat": 37.49430784155023,
      "lng": 126.99174508423174,
      "title": "방배3차e편한세상아파트",
      "description": "서울 서초구 동광로 89-5",
      "url": "http://place.map.kakao.com/11839609",
      "region": "서울특별시"
    },
    {
      "lat": 37.5339667470082,
      "lng": 126.97093184254668,
      "title": "용산파크e편한세상아파트",
      "description": "서울 용산구 한강대로53길 16",
      "url": "http://place.map.kakao.com/11505985",
      "region": "서울특별시"
    },
    {
      "lat": 37.541358597264626,
      "lng": 126.94364914494085,
      "title": "e편한세상마포리버파크아파트",
      "description": "서울 마포구 토정로31길 24",
      "url": "http://place.map.kakao.com/18501711",
      "region": "서울특별시"
    },
    {
      "lat": 37.569763282838444,
      "lng": 126.90535539392067,
      "title": "성산2차e편한세상아파트",
      "description": "서울 마포구 월드컵북로 216",
      "url": "http://place.map.kakao.com/11251210",
      "region": "서울특별시"
    },
    {
      "lat": 37.54194539356191,
      "lng": 126.95709692971701,
      "title": "신공덕e편한세상아파트",
      "description": "서울 마포구 백범로 239",
      "url": "http://place.map.kakao.com/8659883",
      "region": "서울특별시"
    },
    {
      "lat": 37.540954417410205,
      "lng": 126.94072222152435,
      "title": "마포대림2차e편한세상아파트",
      "description": "서울 마포구 토정로32길 6",
      "url": "http://place.map.kakao.com/7864540",
      "region": "서울특별시"
    },
    {
      "lat": 37.573666935484006,
      "lng": 126.91067768766229,
      "title": "DMC래미안e편한세상아파트",
      "description": "서울 서대문구 수색로 100",
      "url": "http://place.map.kakao.com/11581949",
      "region": "서울특별시"
    },
    {
      "lat": 37.55802255064332,
      "lng": 126.95175819710762,
      "title": "e편한세상신촌아파트",
      "description": "서울 서대문구 북아현로1가길 20",
      "url": "http://place.map.kakao.com/193877011",
      "region": "서울특별시"
    },
    {
      "lat": 37.594845195422856,
      "lng": 126.93978835599052,
      "title": "e편한세상서대문아파트",
      "description": "서울 서대문구 통일로 505",
      "url": "http://place.map.kakao.com/1250791154",
      "region": "서울특별시"
    },
    {
      "lat": 37.4786591686755,
      "lng": 127.007701473721,
      "title": "서초3차대림이편한세상아파트",
      "description": "서울 서초구 남부순환로 2343-10",
      "url": "http://place.map.kakao.com/2123843565",
      "region": "서울특별시"
    },
    {
      "lat": 37.48988684384297,
      "lng": 126.9968079104466,
      "title": "방배2차e편한세상아파트",
      "description": "서울 서초구 서초대로33길 22",
      "url": "http://place.map.kakao.com/7818313",
      "region": "서울특별시"
    },
    {
      "lat": 37.4752857251933,
      "lng": 126.991380887199,
      "title": "방배아트e편한세상아파트",
      "description": "서울 서초구 효령로2길 73",
      "url": "http://place.map.kakao.com/8319681",
      "region": "서울특별시"
    },
    {
      "lat": 37.547390888751856,
      "lng": 127.0131323546349,
      "title": "e편한세상옥수파크힐스아파트",
      "description": "서울 성동구 매봉길 50",
      "url": "http://place.map.kakao.com/27120844",
      "region": "서울특별시"
    },
    {
      "lat": 37.55460192482107,
      "lng": 127.0227192949941,
      "title": "e편한세상금호파크힐스아파트",
      "description": "서울 성동구 금호로 140",
      "url": "http://place.map.kakao.com/27037412",
      "region": "서울특별시"
    },
    {
      "lat": 37.599993702835924,
      "lng": 127.01943212129275,
      "title": "정릉2차e편한세상아파트",
      "description": "서울 성북구 북악산로 851",
      "url": "http://place.map.kakao.com/11166874",
      "region": "서울특별시"
    },
    {
      "lat": 37.58294388234168,
      "lng": 127.015707444911,
      "title": "e편한세상보문1단지아파트",
      "description": "서울 성북구 낙산길 255",
      "url": "http://place.map.kakao.com/18501710",
      "region": "서울특별시"
    },
    {
      "lat": 37.5835851550841,
      "lng": 127.01738091124,
      "title": "e편한세상보문2단지아파트",
      "description": "서울 성북구 보문사길 40",
      "url": "http://place.map.kakao.com/26785989",
      "region": "서울특별시"
    },
    {
      "lat": 37.5990855712067,
      "lng": 127.019019693609,
      "title": "정릉2차 e편한세상아파트 상가",
      "description": "서울 성북구 북악산로 851",
      "url": "http://place.map.kakao.com/26440223",
      "region": "서울특별시"
    },
    {
      "lat": 37.4893367001114,
      "lng": 127.133438057542,
      "title": "힐스테이트e편한세상문정아파트",
      "description": "서울 송파구 송이로31길 20",
      "url": "http://place.map.kakao.com/808091645",
      "region": "서울특별시"
    },
    {
      "lat": 37.49378052144603,
      "lng": 127.15062849226092,
      "title": "e편한세상송파파크센트럴아파트",
      "description": "서울 송파구 오금로 551",
      "url": "http://place.map.kakao.com/1373790204",
      "region": "서울특별시"
    },
    {
      "lat": 37.539140855323375,
      "lng": 126.87170749602872,
      "title": "목동이편한세상아파트",
      "description": "서울 양천구 목동중앙로7길 32",
      "url": "http://place.map.kakao.com/11341462",
      "region": "서울특별시"
    },
    {
      "lat": 37.520022225703826,
      "lng": 126.88544922126675,
      "title": "e편한세상문래에듀플라츠아파트",
      "description": "서울 영등포구 선유서로 50",
      "url": "http://place.map.kakao.com/620604105",
      "region": "서울특별시"
    },
    {
      "lat": 37.5297765230723,
      "lng": 126.896227337973,
      "title": "e편한세상당산리버파크아파트 (2028년03월예정)",
      "description": "서울 영등포구 국회대로29길 13",
      "url": "http://place.map.kakao.com/782233102",
      "region": "서울특별시"
    },
    {
      "lat": 37.59919280698651,
      "lng": 126.93209475348951,
      "title": "녹번역e편한세상캐슬아파트",
      "description": "서울 은평구 은평로 220",
      "url": "http://place.map.kakao.com/1186820347",
      "region": "서울특별시"
    },
    {
      "lat": 37.5868453324905,
      "lng": 126.90002144817922,
      "title": "e편한세상수색에코포레아파트",
      "description": "서울 은평구 은평터널로 65",
      "url": "http://place.map.kakao.com/8305530",
      "region": "서울특별시"
    },
    {
      "lat": 37.59549825013299,
      "lng": 126.92390110420484,
      "title": "e편한세상백련산아파트",
      "description": "서울 은평구 백련산로 112",
      "url": "http://place.map.kakao.com/949709883",
      "region": "서울특별시"
    },
    {
      "lat": 37.612438224588075,
      "lng": 126.90580874074647,
      "title": "e편한세상2단지아파트",
      "description": "서울 은평구 서오릉로21길 48",
      "url": "http://place.map.kakao.com/11010477",
      "region": "서울특별시"
    },
    {
      "lat": 37.61175734494262,
      "lng": 126.90614484493271,
      "title": "갈현1단지e편한세상아파트",
      "description": "서울 은평구 서오릉로21길 47",
      "url": "http://place.map.kakao.com/11305944",
      "region": "서울특별시"
    },
    {
      "lat": 37.56044769457753,
      "lng": 127.01673266742893,
      "title": "청구e편한세상아파트",
      "description": "서울 중구 청구로 64",
      "url": "http://place.map.kakao.com/11045965",
      "region": "서울특별시"
    },
    {
      "lat": 37.610440946640146,
      "lng": 127.13561346689643,
      "title": "인창2차이편한세상아파트",
      "description": "경기 구리시 동구릉로129번길 23",
      "url": "http://place.map.kakao.com/7818312",
      "region": "경기도"
    },
    {
      "lat": 37.296012056084024,
      "lng": 126.99777478097329,
      "title": "정자KTe편한세상아파트",
      "description": "경기 수원시 장안구 정자천로188번길 21",
      "url": "http://place.map.kakao.com/10717169",
      "region": "경기도"
    },
    {
      "lat": 37.29180331937235,
      "lng": 127.05466989560647,
      "title": "e편한세상광교아파트",
      "description": "경기 수원시 영통구 센트럴타운로 76",
      "url": "http://place.map.kakao.com/12274297",
      "region": "경기도"
    },
    {
      "lat": 37.245900870757794,
      "lng": 127.06817980742099,
      "title": "영통이편한세상아파트",
      "description": "경기 수원시 영통구 영통로200번길 239",
      "url": "http://place.map.kakao.com/11680200",
      "region": "경기도"
    },
    {
      "lat": 37.2525276518556,
      "lng": 127.026245416749,
      "title": "권선자이e편한세상아파트",
      "description": "경기 수원시 권선구 권광로 55",
      "url": "http://place.map.kakao.com/11344061",
      "region": "경기도"
    },
    {
      "lat": 37.26967793610863,
      "lng": 127.05348135494154,
      "title": "매탄e편한세상아파트",
      "description": "경기 수원시 영통구 매봉로 20",
      "url": "http://place.map.kakao.com/11125109",
      "region": "경기도"
    },
    {
      "lat": 37.30919192049378,
      "lng": 127.04518106946132,
      "title": "e편한세상테라스광교웨스트힐",
      "description": "경기 수원시 영통구 웰빙타운로56번길 76",
      "url": "http://place.map.kakao.com/26945751",
      "region": "경기도"
    },
    {
      "lat": 37.30664150408612,
      "lng": 127.04643725669774,
      "title": "광교2차e편한세상아파트",
      "description": "경기 수원시 영통구 웰빙타운로 50",
      "url": "http://place.map.kakao.com/14499177",
      "region": "경기도"
    },
    {
      "lat": 37.30809822064351,
      "lng": 127.04930218435072,
      "title": "e편한세상테라스광교이스트힐",
      "description": "경기 수원시 영통구 웰빙타운로36번길 46-23",
      "url": "http://place.map.kakao.com/26945750",
      "region": "경기도"
    },
    {
      "lat": 37.240624522434445,
      "lng": 127.0662895680979,
      "title": "e편한세상영통2차아파트",
      "description": "경기 수원시 영통구 봉영로 1432-36",
      "url": "http://place.map.kakao.com/26313414",
      "region": "경기도"
    },
    {
      "lat": 37.24052644545439,
      "lng": 127.06440850611135,
      "title": "e편한세상영통2차1단지아파트",
      "description": "경기 수원시 영통구 봉영로 1410-17",
      "url": "http://place.map.kakao.com/26313406",
      "region": "경기도"
    },
    {
      "lat": 37.270564730829,
      "lng": 127.053103157128,
      "title": "매탄e편한세상아파트 상가",
      "description": "경기 수원시 영통구 매봉로 20",
      "url": "http://place.map.kakao.com/26444854",
      "region": "경기도"
    },
    {
      "lat": 37.467300286218034,
      "lng": 127.14600399921123,
      "title": "위례래미안이편한세상아파트",
      "description": "경기 성남시 수정구 위례동로 61",
      "url": "http://place.map.kakao.com/22728087",
      "region": "경기도"
    },
    {
      "lat": 37.443540520807396,
      "lng": 127.16064727191416,
      "title": "e편한세상금빛그랑메종아파트",
      "description": "경기 성남시 중원구 금광로 11",
      "url": "http://place.map.kakao.com/1187837657",
      "region": "경기도"
    },
    {
      "lat": 37.46636743888584,
      "lng": 127.1519604623599,
      "title": "e편한세상테라스위례아파트",
      "description": "경기 성남시 수정구 위례동이로 24",
      "url": "http://place.map.kakao.com/2120962854",
      "region": "경기도"
    },
    {
      "lat": 37.66105970288941,
      "lng": 126.8396739581855,
      "title": "원당e편한세상아파트",
      "description": "경기 고양시 덕양구 호국로 859",
      "url": "http://place.map.kakao.com/25979765",
      "region": "경기도"
    },
    {
      "lat": 37.68363536670384,
      "lng": 126.76990313234435,
      "title": "e편한세상일산어반스카이아파트",
      "description": "경기 고양시 일산서구 고양대로 666",
      "url": "http://place.map.kakao.com/1415312915",
      "region": "경기도"
    },
    {
      "lat": 37.654425189124986,
      "lng": 126.84123622023685,
      "title": "e편한세상시티원당아파트",
      "description": "경기 고양시 덕양구 호국로790번길 101",
      "url": "http://place.map.kakao.com/1784424550",
      "region": "경기도"
    },
    {
      "lat": 37.64989630315867,
      "lng": 126.91858208116494,
      "title": "e편한세상지축센텀가든아파트",
      "description": "경기 고양시 덕양구 지정로 60",
      "url": "http://place.map.kakao.com/564159031",
      "region": "경기도"
    },
    {
      "lat": 37.68160465469242,
      "lng": 126.77698448450448,
      "title": "산들마을3단지e편한세상아파트",
      "description": "경기 고양시 일산서구 고양대로 724-17",
      "url": "http://place.map.kakao.com/8397764",
      "region": "경기도"
    },
    {
      "lat": 37.683841242199414,
      "lng": 126.78005686140621,
      "title": "산들마을2단지e편한세상아파트",
      "description": "경기 고양시 일산동구 고봉로278번길 17",
      "url": "http://place.map.kakao.com/11365348",
      "region": "경기도"
    },
    {
      "lat": 37.6644359364942,
      "lng": 126.800823331152,
      "title": "일산e편한세상메이포레1단지아파트 (2027년03월예정)",
      "description": "경기 고양시 일산동구 풍동 822",
      "url": "http://place.map.kakao.com/454664753",
      "region": "경기도"
    },
    {
      "lat": 37.68591640861299,
      "lng": 126.78162885932096,
      "title": "산들마을1단지e편한세상아파트",
      "description": "경기 고양시 일산동구 중산로 160-10",
      "url": "http://place.map.kakao.com/11270843",
      "region": "경기도"
    },
    {
      "lat": 37.6634078184068,
      "lng": 126.801833643235,
      "title": "일산e편한세상메이포레2단지아파트 (2027년03월예정)",
      "description": "경기 고양시 일산동구 풍동 870",
      "url": "http://place.map.kakao.com/1393019165",
      "region": "경기도"
    },
    {
      "lat": 37.6659903196149,
      "lng": 126.803625496259,
      "title": "일산e편한세상메이포레3단지아파트 (2027년03월예정)",
      "description": "경기 고양시 일산동구 은행마을로 31",
      "url": "http://place.map.kakao.com/1360640131",
      "region": "경기도"
    },
    {
      "lat": 37.315547348151824,
      "lng": 127.0852694774291,
      "title": "e편한세상수지아파트",
      "description": "경기 용인시 수지구 포은대로313번길 7-10",
      "url": "http://place.map.kakao.com/26580017",
      "region": "경기도"
    },
    {
      "lat": 37.3284414745218,
      "lng": 127.130376199127,
      "title": "e편한세상죽전프리미어포레아파트",
      "description": "경기 용인시 수지구 대지로 187",
      "url": "http://place.map.kakao.com/1469999645",
      "region": "경기도"
    },
    {
      "lat": 37.15632220735002,
      "lng": 127.17071534612307,
      "title": "e편한세상용인한숲시티5단지아파트",
      "description": "경기 용인시 처인구 남사읍 한숲로 83",
      "url": "http://place.map.kakao.com/27586216",
      "region": "경기도"
    },
    {
      "lat": 37.16112812962898,
      "lng": 127.174030454826,
      "title": "e편한세상용인한숲시티2단지아파트",
      "description": "경기 용인시 처인구 남사읍 한숲로 137",
      "url": "http://place.map.kakao.com/27586219",
      "region": "경기도"
    },
    {
      "lat": 37.154510663859504,
      "lng": 127.17348506879702,
      "title": "e편한세상용인한숲시티6단지아파트",
      "description": "경기 용인시 처인구 남사읍 한숲로 84",
      "url": "http://place.map.kakao.com/27586215",
      "region": "경기도"
    },
    {
      "lat": 37.15907060642417,
      "lng": 127.1730800693699,
      "title": "e편한세상용인한숲시티3단지아파트",
      "description": "경기 용인시 처인구 남사읍 한숲로 123",
      "url": "http://place.map.kakao.com/27586218",
      "region": "경기도"
    },
    {
      "lat": 37.2962263003814,
      "lng": 127.11146200327,
      "title": "e편한세상구성역플랫폼시티아파트",
      "description": "경기 용인시 기흥구 구성로 15",
      "url": "http://place.map.kakao.com/442007781",
      "region": "경기도"
    },
    {
      "lat": 37.30653825781473,
      "lng": 127.1287264732144,
      "title": "교동마북e편한세상1차아파트",
      "description": "경기 용인시 기흥구 마북로 210",
      "url": "http://place.map.kakao.com/10998045",
      "region": "경기도"
    },
    {
      "lat": 37.30031810386376,
      "lng": 127.0990848373633,
      "title": "보정1차대림e편한세상아파트",
      "description": "경기 용인시 기흥구 이현로29번길 86-1",
      "url": "http://place.map.kakao.com/11052863",
      "region": "경기도"
    },
    {
      "lat": 37.32885719402013,
      "lng": 127.12589859432597,
      "title": "내대지마을죽전e편한세상아파트",
      "description": "경기 용인시 수지구 대지로 148",
      "url": "http://place.map.kakao.com/11004216",
      "region": "경기도"
    },
    {
      "lat": 37.15491633095905,
      "lng": 127.16708056483873,
      "title": "e편한세상용인파크카운티",
      "description": "경기 용인시 처인구 남사읍 한숲로33번길 36",
      "url": "http://place.map.kakao.com/1706645316",
      "region": "경기도"
    },
    {
      "lat": 37.33441505098246,
      "lng": 127.11121599016242,
      "title": "현인마을e편한세상2차아파트",
      "description": "경기 용인시 수지구 탄천상로 29",
      "url": "http://place.map.kakao.com/12583222",
      "region": "경기도"
    },
    {
      "lat": 37.1580209056821,
      "lng": 127.17611728431169,
      "title": "e편한세상용인한숲시티4단지아파트",
      "description": "경기 용인시 처인구 남사읍 한숲로 124",
      "url": "http://place.map.kakao.com/27586217",
      "region": "경기도"
    },
    {
      "lat": 37.334078926067264,
      "lng": 127.11221300339062,
      "title": "현인마을e편한세상3차아파트",
      "description": "경기 용인시 수지구 탄천상로 30",
      "url": "http://place.map.kakao.com/7818265",
      "region": "경기도"
    },
    {
      "lat": 37.30736579118179,
      "lng": 127.1292016456255,
      "title": "교동마을마북2차e편한세상아파트",
      "description": "경기 용인시 기흥구 마북로 218",
      "url": "http://place.map.kakao.com/17117835",
      "region": "경기도"
    },
    {
      "lat": 37.48932704993085,
      "lng": 126.82168764255825,
      "title": "e편한세상온수역아파트",
      "description": "경기 부천시 소사구 경인로 605",
      "url": "http://place.map.kakao.com/619021825",
      "region": "경기도"
    },
    {
      "lat": 37.4783967225438,
      "lng": 126.77368253555717,
      "title": "e편한세상부천심곡아파트",
      "description": "경기 부천시 소사구 성주로 158",
      "url": "http://place.map.kakao.com/653153013",
      "region": "경기도"
    },
    {
      "lat": 37.47866863339369,
      "lng": 126.76754949136843,
      "title": "송내e편한세상아파트",
      "description": "경기 부천시 소사구 성주로 100-10",
      "url": "http://place.map.kakao.com/8444832",
      "region": "경기도"
    },
    {
      "lat": 37.48700771256848,
      "lng": 126.80947256273826,
      "title": "역곡역e편한세상아파트",
      "description": "경기 부천시 원미구 역곡로19번길 26",
      "url": "http://place.map.kakao.com/15267613",
      "region": "경기도"
    },
    {
      "lat": 37.51891837902837,
      "lng": 126.80330118361869,
      "title": "원종e편한세상아파트",
      "description": "경기 부천시 오정구 삼작로368번길 15-12",
      "url": "http://place.map.kakao.com/7818709",
      "region": "경기도"
    },
    {
      "lat": 37.48882694740558,
      "lng": 126.81578644015495,
      "title": "역곡e편한세상4차아파트",
      "description": "경기 부천시 원미구 역곡로20번길 91",
      "url": "http://place.map.kakao.com/11301127",
      "region": "경기도"
    },
    {
      "lat": 37.51093219324584,
      "lng": 126.75786827642813,
      "title": "진달래마을대림e편한세상아파트",
      "description": "경기 부천시 원미구 도약로 82",
      "url": "http://place.map.kakao.com/11354287",
      "region": "경기도"
    },
    {
      "lat": 37.48985855668572,
      "lng": 126.81403351857274,
      "title": "대림e편한세상1차아파트",
      "description": "경기 부천시 원미구 지봉로143번길 7",
      "url": "http://place.map.kakao.com/11289496",
      "region": "경기도"
    },
    {
      "lat": 37.5359161561097,
      "lng": 126.791968204303,
      "title": "e편한세상대장퍼스티움아파트(A5) (2027년11월예정)",
      "description": "경기 부천시 오정구 오정동 42-3",
      "url": "http://place.map.kakao.com/1332966318",
      "region": "경기도"
    },
    {
      "lat": 37.48567173074176,
      "lng": 126.80793371001279,
      "title": "역곡e편한세상5차아파트",
      "description": "경기 부천시 원미구 지봉로34번길 58",
      "url": "http://place.map.kakao.com/11368935",
      "region": "경기도"
    },
    {
      "lat": 37.49154889487056,
      "lng": 126.81406551241173,
      "title": "역곡e편한세상2차아파트",
      "description": "경기 부천시 원미구 지봉로143번길 38",
      "url": "http://place.map.kakao.com/11010478",
      "region": "경기도"
    },
    {
      "lat": 37.49033155659363,
      "lng": 126.81458867438863,
      "title": "역곡e편한세상3차아파트",
      "description": "경기 부천시 원미구 지봉로 143",
      "url": "http://place.map.kakao.com/11252004",
      "region": "경기도"
    },
    {
      "lat": 37.53473141071946,
      "lng": 126.79047802287879,
      "title": "e편한세상대장퍼스티움아파트(A6) (2027년11월예정)",
      "description": "경기 부천시 오정구 오정동 44-1",
      "url": "http://place.map.kakao.com/1332961867",
      "region": "경기도"
    },
    {
      "lat": 37.4895313168895,
      "lng": 126.814495670451,
      "title": "대림e편한세상1차아파트 상가",
      "description": "경기 부천시 원미구 지봉로143번길 5",
      "url": "http://place.map.kakao.com/26443232",
      "region": "경기도"
    },
    {
      "lat": 37.31081941297629,
      "lng": 126.90612315430451,
      "title": "건건e편한세상아파트",
      "description": "경기 안산시 상록구 건건8길 10",
      "url": "http://place.map.kakao.com/10122397",
      "region": "경기도"
    },
    {
      "lat": 37.28432697795162,
      "lng": 126.84787746687705,
      "title": "e편한세상상록아파트",
      "description": "경기 안산시 상록구 항가울로 28",
      "url": "http://place.map.kakao.com/1712526699",
      "region": "경기도"
    },
    {
      "lat": 37.32533408330908,
      "lng": 126.80009150330507,
      "title": "e편한세상초지역센트럴포레아파트",
      "description": "경기 안산시 단원구 라성로 16",
      "url": "http://place.map.kakao.com/1202687359",
      "region": "경기도"
    },
    {
      "lat": 37.32823144922478,
      "lng": 126.80859809184766,
      "title": "e편한세상선부파크플레이스아파트",
      "description": "경기 안산시 단원구 선부광장남로 63",
      "url": "http://place.map.kakao.com/327349312",
      "region": "경기도"
    },
    {
      "lat": 37.333659664034506,
      "lng": 126.80553200885504,
      "title": "e편한세상선부역어반스퀘어아파트",
      "description": "경기 안산시 단원구 선부광장서로 42",
      "url": "http://place.map.kakao.com/1730754386",
      "region": "경기도"
    },
    {
      "lat": 37.41498782675103,
      "lng": 126.91417172341772,
      "title": "석수e편한세상아파트",
      "description": "경기 안양시 만안구 경수대로 1193",
      "url": "http://place.map.kakao.com/12453591",
      "region": "경기도"
    },
    {
      "lat": 37.391392470487666,
      "lng": 126.92284765196376,
      "title": "안양어반포레자연앤e편한세상아파트",
      "description": "경기 안양시 만안구 삼덕로 43",
      "url": "http://place.map.kakao.com/505948742",
      "region": "경기도"
    },
    {
      "lat": 37.3638348381564,
      "lng": 126.96221514804769,
      "title": "호계e편한세상아파트",
      "description": "경기 안양시 동안구 경수대로 430",
      "url": "http://place.map.kakao.com/7818663",
      "region": "경기도"
    },
    {
      "lat": 37.399904820463036,
      "lng": 126.94253887898951,
      "title": "비산e편한세상아파트",
      "description": "경기 안양시 동안구 관악대로 171",
      "url": "http://place.map.kakao.com/7919377",
      "region": "경기도"
    },
    {
      "lat": 37.39568085676368,
      "lng": 126.97707466216667,
      "title": "평촌e편한세상아파트",
      "description": "경기 안양시 동안구 흥안대로456번길 17",
      "url": "http://place.map.kakao.com/12389882",
      "region": "경기도"
    },
    {
      "lat": 37.3739780705817,
      "lng": 126.953202887152,
      "title": "e편한세상평촌어반밸리아파트 (2026년10월예정)",
      "description": "경기 안양시 동안구 호계동 533-3",
      "url": "http://place.map.kakao.com/1306450726",
      "region": "경기도"
    },
    {
      "lat": 37.62253118193185,
      "lng": 127.15543474359355,
      "title": "e편한세상다산아파트",
      "description": "경기 남양주시 다산중앙로82번길 15",
      "url": "http://place.map.kakao.com/26824395",
      "region": "경기도"
    },
    {
      "lat": 37.61950399214925,
      "lng": 127.15187855063047,
      "title": "다산e편한세상자이아파트",
      "description": "경기 남양주시 다산중앙로81번길 25",
      "url": "http://place.map.kakao.com/27609844",
      "region": "경기도"
    },
    {
      "lat": 37.6480523514684,
      "lng": 127.240808485365,
      "title": "e편한세상평내메트로원아파트",
      "description": "경기 남양주시 평내로 145",
      "url": "http://place.map.kakao.com/1915509510",
      "region": "경기도"
    },
    {
      "lat": 37.69941343821355,
      "lng": 127.19554189342537,
      "title": "남양주양지e편한세상1단지아파트",
      "description": "경기 남양주시 오남읍 양지로240번길 37",
      "url": "http://place.map.kakao.com/11104283",
      "region": "경기도"
    },
    {
      "lat": 37.6193447952159,
      "lng": 127.15649284815515,
      "title": "다산자연앤e편한세상3차아파트",
      "description": "경기 남양주시 다산중앙로82번길 12",
      "url": "http://place.map.kakao.com/2059166670",
      "region": "경기도"
    },
    {
      "lat": 37.61614591293496,
      "lng": 127.15609764422653,
      "title": "다산e편한세상더퍼스트아파트",
      "description": "경기 남양주시 다산중앙로20번길 7",
      "url": "http://place.map.kakao.com/1000592875",
      "region": "경기도"
    },
    {
      "lat": 37.7007121445706,
      "lng": 127.1969241717263,
      "title": "남양주양지e편한세상2단지아파트",
      "description": "경기 남양주시 오남읍 양지로240번길 38",
      "url": "http://place.map.kakao.com/11328881",
      "region": "경기도"
    },
    {
      "lat": 37.228965902166784,
      "lng": 126.94053686859108,
      "title": "e편한세상신봉담아파트",
      "description": "경기 화성시 봉담읍 상리1길 127",
      "url": "http://place.map.kakao.com/507393886",
      "region": "경기도"
    },
    {
      "lat": 37.1752334850787,
      "lng": 127.14799956652332,
      "title": "e편한세상동탄파크아너스아파트",
      "description": "경기 화성시 동탄신리천로7길 47",
      "url": "http://place.map.kakao.com/253313703",
      "region": "경기도"
    },
    {
      "lat": 37.22597174802529,
      "lng": 127.06117913715632,
      "title": "e편한세상반월나노시티역아파트",
      "description": "경기 화성시 효행로 1337-23",
      "url": "http://place.map.kakao.com/26338463",
      "region": "경기도"
    },
    {
      "lat": 37.1627170600636,
      "lng": 127.112635823093,
      "title": "동탄레이크파크자연앤e편한세상아파트",
      "description": "경기 화성시 동탄순환대로8길 27",
      "url": "http://place.map.kakao.com/675150790",
      "region": "경기도"
    },
    {
      "lat": 37.2109868416033,
      "lng": 126.837930778897,
      "title": "e편한세상남양뉴타운아파트",
      "description": "경기 화성시 남양읍 남양로862번길 42",
      "url": "http://place.map.kakao.com/1249346991",
      "region": "경기도"
    },
    {
      "lat": 37.192224990780836,
      "lng": 127.1267244642119,
      "title": "e편한세상동탄아파트",
      "description": "경기 화성시 동탄순환대로20길 31",
      "url": "http://place.map.kakao.com/27409187",
      "region": "경기도"
    },
    {
      "lat": 37.1948053425969,
      "lng": 127.097481430603,
      "title": "e편한세상동탄역어반원아파트 (2028년07월예정)",
      "description": "경기 화성시 오산동 1021",
      "url": "http://place.map.kakao.com/1210105950",
      "region": "경기도"
    },
    {
      "lat": 37.01534952948719,
      "lng": 127.0875960039476,
      "title": "e편한세상지제역아파트",
      "description": "경기 평택시 지제동삭1로 220",
      "url": "http://place.map.kakao.com/2005101820",
      "region": "경기도"
    },
    {
      "lat": 37.000678705625226,
      "lng": 127.128533694477,
      "title": "e편한세상평택아파트",
      "description": "경기 평택시 현촌1로 7",
      "url": "http://place.map.kakao.com/20459816",
      "region": "경기도"
    },
    {
      "lat": 36.98743585353059,
      "lng": 126.90317358600208,
      "title": "e편한세상평택라씨엘로아파트(2-1BL)",
      "description": "경기 평택시 현덕면 화양현화2로 45",
      "url": "http://place.map.kakao.com/999927553",
      "region": "경기도"
    },
    {
      "lat": 36.9873192581181,
      "lng": 126.907242185988,
      "title": "e편한세상평택하이센트아파트(4BL)",
      "description": "경기 평택시 안중읍 현화리 757",
      "url": "http://place.map.kakao.com/253221519",
      "region": "경기도"
    },
    {
      "lat": 37.06034446618079,
      "lng": 127.06737928201731,
      "title": "이충e편한세상아파트",
      "description": "경기 평택시 이충로 49-13",
      "url": "http://place.map.kakao.com/12580260",
      "region": "경기도"
    },
    {
      "lat": 37.002476571422,
      "lng": 127.14404753725327,
      "title": "e편한세상평택용이1단지아파트",
      "description": "경기 평택시 신흥1로 67",
      "url": "http://place.map.kakao.com/177280726",
      "region": "경기도"
    },
    {
      "lat": 36.99962479306,
      "lng": 127.126527700178,
      "title": "e편한세상비전센터포레아파트",
      "description": "경기 평택시 용죽1로 83",
      "url": "http://place.map.kakao.com/185294407",
      "region": "경기도"
    },
    {
      "lat": 37.00326638605715,
      "lng": 127.1466094729534,
      "title": "e편한세상평택용이2단지아파트",
      "description": "경기 평택시 신흥1로 43",
      "url": "http://place.map.kakao.com/1804969395",
      "region": "경기도"
    },
    {
      "lat": 37.74425958792637,
      "lng": 127.06783220050566,
      "title": "e편한세상신곡포레스타뷰아파트",
      "description": "경기 의정부시 금신로 276",
      "url": "http://place.map.kakao.com/751600764",
      "region": "경기도"
    },
    {
      "lat": 37.7545221634964,
      "lng": 127.03585157845902,
      "title": "e편한세상녹양역아파트",
      "description": "경기 의정부시 녹양로34번길 47",
      "url": "http://place.map.kakao.com/1410211478",
      "region": "경기도"
    },
    {
      "lat": 37.738511801883604,
      "lng": 127.09243116916403,
      "title": "민락e편한세상아파트",
      "description": "경기 의정부시 오목로 117",
      "url": "http://place.map.kakao.com/7882931",
      "region": "경기도"
    },
    {
      "lat": 37.7375007381125,
      "lng": 127.067448245,
      "title": "e편한세상신곡파크비스타아파트 상가",
      "description": "경기 의정부시 시민로 287",
      "url": "http://place.map.kakao.com/1423006954",
      "region": "경기도"
    },
    {
      "lat": 37.36605003985283,
      "lng": 126.80349209525298,
      "title": "e편한세상시흥장현퍼스트베뉴아파트",
      "description": "경기 시흥시 장현천로 155",
      "url": "http://place.map.kakao.com/647048738",
      "region": "경기도"
    },
    {
      "lat": 37.44519378105116,
      "lng": 126.79243549904082,
      "title": "e편한세상시흥센텀하임아파트",
      "description": "경기 시흥시 비둘기공원7길 10",
      "url": "http://place.map.kakao.com/1764078780",
      "region": "경기도"
    },
    {
      "lat": 37.4491461418411,
      "lng": 126.793761521114,
      "title": "e편한세상시흥더블스퀘어아파트 (예정)",
      "description": "경기 시흥시 대야동 284",
      "url": "http://place.map.kakao.com/952698744",
      "region": "경기도"
    },
    {
      "lat": 37.42621225125361,
      "lng": 126.75013008619591,
      "title": "이편한세상서창아파트",
      "description": "인천 남동구 서창남순환로 9",
      "url": "http://place.map.kakao.com/26646816",
      "region": "인천광역시"
    },
    {
      "lat": 37.80600611224574,
      "lng": 126.71493158564476,
      "title": "e편한세상헤이리아파트",
      "description": "경기 파주시 탄현면 헤이리로 372",
      "url": "http://place.map.kakao.com/1147929317",
      "region": "경기도"
    },
    {
      "lat": 37.70834989477842,
      "lng": 126.72409042878996,
      "title": "초롱꽃마을12단지e편한세상운정어반프라임아파트",
      "description": "경기 파주시 양지로 120",
      "url": "http://place.map.kakao.com/582573612",
      "region": "경기도"
    },
    {
      "lat": 37.6404990252412,
      "lng": 126.67750596605,
      "title": "e편한세상캐널시티아파트",
      "description": "경기 김포시 김포한강2로 41",
      "url": "http://place.map.kakao.com/26466069",
      "region": "경기도"
    },
    {
      "lat": 37.65741990114484,
      "lng": 126.68166217386363,
      "title": "한강신도시e편한세상아파트",
      "description": "경기 김포시 김포한강11로 287",
      "url": "http://place.map.kakao.com/11981476",
      "region": "경기도"
    },
    {
      "lat": 37.6894332705556,
      "lng": 126.595754106819,
      "title": "e편한세상김포로얄하임아파트",
      "description": "경기 김포시 통진읍 마송1로 122",
      "url": "http://place.map.kakao.com/1990870412",
      "region": "경기도"
    },
    {
      "lat": 37.64990727720976,
      "lng": 126.629138274343,
      "title": "호수마을e편한세상2단지아파트",
      "description": "경기 김포시 김포한강5로 385",
      "url": "http://place.map.kakao.com/12274310",
      "region": "경기도"
    },
    {
      "lat": 37.68707262616203,
      "lng": 126.60583892085035,
      "title": "e편한세상김포어반베뉴아파트",
      "description": "경기 김포시 통진읍 율마로438번길 52",
      "url": "http://place.map.kakao.com/1627046652",
      "region": "경기도"
    },
    {
      "lat": 37.63638311722116,
      "lng": 126.63915963873664,
      "title": "e편한세상한강신도시2차아파트",
      "description": "경기 김포시 김포한강8로 173-59",
      "url": "http://place.map.kakao.com/1777797146",
      "region": "경기도"
    },
    {
      "lat": 37.64790498474081,
      "lng": 126.62961054734855,
      "title": "호수마을e편한세상3단지아파트",
      "description": "경기 김포시 김포한강4로420번길 164",
      "url": "http://place.map.kakao.com/22875281",
      "region": "경기도"
    },
    {
      "lat": 37.325272385140984,
      "lng": 126.91625060024477,
      "title": "군포대야미이편한세상아파트",
      "description": "경기 군포시 군포로 109",
      "url": "http://place.map.kakao.com/11032895",
      "region": "경기도"
    },
    {
      "lat": 37.364216183351935,
      "lng": 126.92927947927035,
      "title": "산본이편한세상센트럴파크아파트",
      "description": "경기 군포시 고산로 596-15",
      "url": "http://place.map.kakao.com/11155362",
      "region": "경기도"
    },
    {
      "lat": 37.34351113686658,
      "lng": 126.93667055698866,
      "title": "용호마을e편한세상아파트",
      "description": "경기 군포시 용호1로21번길 15",
      "url": "http://place.map.kakao.com/8462998",
      "region": "경기도"
    },
    {
      "lat": 37.36627896688576,
      "lng": 126.93789771662405,
      "title": "e편한세상금정역에코센트럴아파트",
      "description": "경기 군포시 금산로 47",
      "url": "http://place.map.kakao.com/8350132",
      "region": "경기도"
    },
    {
      "lat": 37.35924639755375,
      "lng": 127.14971467249482,
      "title": "e편한세상오포3차아파트",
      "description": "경기 광주시 신현로 20",
      "url": "http://place.map.kakao.com/26414162",
      "region": "경기도"
    },
    {
      "lat": 37.36766469451801,
      "lng": 127.16846446069461,
      "title": "e편한세상테라스오포2단지아파트",
      "description": "경기 광주시 문형산길 131",
      "url": "http://place.map.kakao.com/1654208735",
      "region": "경기도"
    },
    {
      "lat": 37.36779982159294,
      "lng": 127.17099464486411,
      "title": "e편한세상테라스오포4단지아파트",
      "description": "경기 광주시 문형산안길1번길 25",
      "url": "http://place.map.kakao.com/291085570",
      "region": "경기도"
    },
    {
      "lat": 37.37871201907806,
      "lng": 127.25964127790468,
      "title": "e편한세상광주양벌아파트",
      "description": "경기 광주시 마루들길 251",
      "url": "http://place.map.kakao.com/27586205",
      "region": "경기도"
    },
    {
      "lat": 37.35805431544611,
      "lng": 127.15532338012133,
      "title": "e편한세상태재1단지아파트",
      "description": "경기 광주시 태재로 20-15",
      "url": "http://place.map.kakao.com/1810108646",
      "region": "경기도"
    },
    {
      "lat": 37.3762761924675,
      "lng": 127.2900399856341,
      "title": "초월e편한세상1단지아파트",
      "description": "경기 광주시 초월읍 경충대로1127번길 55",
      "url": "http://place.map.kakao.com/11290479",
      "region": "경기도"
    },
    {
      "lat": 37.399729752746204,
      "lng": 127.24849333313615,
      "title": "e편한세상광주역2단지아파트",
      "description": "경기 광주시 순암로36번길 70",
      "url": "http://place.map.kakao.com/25720379",
      "region": "경기도"
    },
    {
      "lat": 37.38063932768004,
      "lng": 127.2318811285635,
      "title": "광주태전1차e편한세상아파트",
      "description": "경기 광주시 태전중앙로 42-1",
      "url": "http://place.map.kakao.com/8089554",
      "region": "경기도"
    },
    {
      "lat": 37.400069841709694,
      "lng": 127.24571276832508,
      "title": "e편한세상광주역1단지아파트",
      "description": "경기 광주시 순암로36번길 88",
      "url": "http://place.map.kakao.com/25720380",
      "region": "경기도"
    },
    {
      "lat": 37.3958403570702,
      "lng": 127.247057540662,
      "title": "e편한세상광주역6단지아파트",
      "description": "경기 광주시 순암로36번길 30",
      "url": "http://place.map.kakao.com/371398618",
      "region": "경기도"
    },
    {
      "lat": 37.3988630891622,
      "lng": 127.245417450487,
      "title": "e편한세상광주역3단지아파트",
      "description": "경기 광주시 순암로36번길 87",
      "url": "http://place.map.kakao.com/207390522",
      "region": "경기도"
    },
    {
      "lat": 37.3582316751714,
      "lng": 127.14984585112228,
      "title": "오포e편한세상2차아파트",
      "description": "경기 광주시 태재로 20-20",
      "url": "http://place.map.kakao.com/12824735",
      "region": "경기도"
    },
    {
      "lat": 37.38709287249592,
      "lng": 127.23258190710042,
      "title": "e편한세상태전2차2단지아파트",
      "description": "경기 광주시 태전동로 16",
      "url": "http://place.map.kakao.com/26886434",
      "region": "경기도"
    },
    {
      "lat": 37.35770574441772,
      "lng": 127.14675652705391,
      "title": "오포e편한세상1차아파트",
      "description": "경기 광주시 신현로 12-37",
      "url": "http://place.map.kakao.com/11345494",
      "region": "경기도"
    },
    {
      "lat": 37.39901125208712,
      "lng": 127.2469584000459,
      "title": "e편한세상광주역4단지아파트",
      "description": "경기 광주시 순암로36번길 61",
      "url": "http://place.map.kakao.com/25720375",
      "region": "경기도"
    },
    {
      "lat": 37.35882600622741,
      "lng": 127.15432036203127,
      "title": "e편한세상태재2단지아파트",
      "description": "경기 광주시 태재로 20-11",
      "url": "http://place.map.kakao.com/1361094701",
      "region": "경기도"
    },
    {
      "lat": 37.39749500129801,
      "lng": 127.24644747540593,
      "title": "e편한세상광주역5단지아파트",
      "description": "경기 광주시 순암로36번길 41",
      "url": "http://place.map.kakao.com/25720376",
      "region": "경기도"
    },
    {
      "lat": 37.374999097182815,
      "lng": 127.28907766512216,
      "title": "초월e편한세상2단지아파트",
      "description": "경기 광주시 초월읍 경충대로1127번길 65",
      "url": "http://place.map.kakao.com/11236334",
      "region": "경기도"
    },
    {
      "lat": 37.388265373866446,
      "lng": 127.23244324819974,
      "title": "e편한세상태전2차1단지아파트",
      "description": "경기 광주시 태전동로 12",
      "url": "http://place.map.kakao.com/26886440",
      "region": "경기도"
    },
    {
      "lat": 37.38819158320077,
      "lng": 127.23422265875915,
      "title": "e편한세상태전2차3단지아파트",
      "description": "경기 광주시 태전동로 11",
      "url": "http://place.map.kakao.com/26886480",
      "region": "경기도"
    },
    {
      "lat": 37.37034063864698,
      "lng": 127.17104556931378,
      "title": "e편한세상테라스오포3단지아파트",
      "description": "경기 광주시 문형산길 138",
      "url": "http://place.map.kakao.com/1681897108",
      "region": "경기도"
    },
    {
      "lat": 37.31311541617967,
      "lng": 127.6393982806802,
      "title": "e편한세상여주아파트",
      "description": "경기 여주시 도예로 83-60",
      "url": "http://place.map.kakao.com/19148023",
      "region": "경기도"
    },
    {
      "lat": 37.81170877145763,
      "lng": 127.08895304747745,
      "title": "e편한세상옥정메트로포레아파트",
      "description": "경기 양주시 옥정동로 10",
      "url": "http://place.map.kakao.com/1689185246",
      "region": "경기도"
    },
    {
      "lat": 37.8287431246758,
      "lng": 127.077532763518,
      "title": "e편한세상옥정리더스가든아파트",
      "description": "경기 양주시 회천로 234",
      "url": "http://place.map.kakao.com/457579269",
      "region": "경기도"
    },
    {
      "lat": 37.816612197358936,
      "lng": 127.09308155283374,
      "title": "e편한세상옥정에듀써밋아파트",
      "description": "경기 양주시 옥정동로1길 63",
      "url": "http://place.map.kakao.com/1934602264",
      "region": "경기도"
    },
    {
      "lat": 37.821087732427515,
      "lng": 127.09014551043325,
      "title": "e편한세상옥정어반센트럴아파트",
      "description": "경기 양주시 옥정로5길 35",
      "url": "http://place.map.kakao.com/1630422155",
      "region": "경기도"
    },
    {
      "lat": 37.84289479914123,
      "lng": 127.0543175024019,
      "title": "e편한세상덕정역더스카이아파트",
      "description": "경기 양주시 평화로 1723",
      "url": "http://place.map.kakao.com/1115559536",
      "region": "경기도"
    },
    {
      "lat": 37.815549833007715,
      "lng": 127.08491345597332,
      "title": "e편한세상옥정더퍼스트아파트",
      "description": "경기 양주시 옥정서로1길 60",
      "url": "http://place.map.kakao.com/1918228394",
      "region": "경기도"
    },
    {
      "lat": 37.16842497728662,
      "lng": 127.02816530033722,
      "title": "e편한세상오산세교아파트",
      "description": "경기 오산시 세마문학로 50",
      "url": "http://place.map.kakao.com/23679933",
      "region": "경기도"
    },
    {
      "lat": 37.19572712430152,
      "lng": 127.03427683254431,
      "title": "세마e편한세상아파트",
      "description": "경기 오산시 양산로 460",
      "url": "http://place.map.kakao.com/11832770",
      "region": "경기도"
    },
    {
      "lat": 37.1370952651332,
      "lng": 127.07098576687545,
      "title": "오산역e편한세상2단지아파트",
      "description": "경기 오산시 오산로132번길 10",
      "url": "http://place.map.kakao.com/11193430",
      "region": "경기도"
    },
    {
      "lat": 37.14021340199203,
      "lng": 127.07020419421403,
      "title": "오산역e편한세상1단지아파트",
      "description": "경기 오산시 오산로160번길 14",
      "url": "http://place.map.kakao.com/11357849",
      "region": "경기도"
    },
    {
      "lat": 37.59609397046149,
      "lng": 127.13915432175229,
      "title": "e편한세상수택센트럴파크아파트",
      "description": "경기 구리시 안골로64번길 10",
      "url": "http://place.map.kakao.com/632485709",
      "region": "경기도"
    },
    {
      "lat": 37.60317197370892,
      "lng": 127.13853785965331,
      "title": "e편한세상인창어반포레아파트",
      "description": "경기 구리시 건원대로33번길 9",
      "url": "http://place.map.kakao.com/838370127",
      "region": "경기도"
    },
    {
      "lat": 37.58604763609134,
      "lng": 127.14315491315968,
      "title": "토평마을e편한세상아파트",
      "description": "경기 구리시 장자호수길 125",
      "url": "http://place.map.kakao.com/11250056",
      "region": "경기도"
    },
    {
      "lat": 37.605598096606336,
      "lng": 127.1348572296305,
      "title": "인창e편한세상1차아파트",
      "description": "경기 구리시 동구릉로 64",
      "url": "http://place.map.kakao.com/7818264",
      "region": "경기도"
    },
    {
      "lat": 37.02056641523456,
      "lng": 127.27016629645495,
      "title": "e편한세상안성그랑루체아파트",
      "description": "경기 안성시 안성맞춤대로 1196-23",
      "url": "http://place.map.kakao.com/1774551107",
      "region": "경기도"
    },
    {
      "lat": 36.901723953121326,
      "lng": 127.13249090131666,
      "title": "천안성환e편한세상아파트",
      "description": "충남 천안시 서북구 성환읍 성환1로 54-45",
      "url": "http://place.map.kakao.com/11045967",
      "region": "충청남도"
    },
    {
      "lat": 37.38759550568254,
      "lng": 126.97939086671155,
      "title": "e편한세상인덕원더퍼스트아파트",
      "description": "경기 의왕시 내손중앙로 11",
      "url": "http://place.map.kakao.com/13318409",
      "region": "경기도"
    },
    {
      "lat": 37.3471956705733,
      "lng": 126.968805484939,
      "title": "e편한세상고천파크루체아파트",
      "description": "경기 의왕시 시청1로 10",
      "url": "http://place.map.kakao.com/269272676",
      "region": "경기도"
    },
    {
      "lat": 37.504391455585406,
      "lng": 127.15289363530724,
      "title": "e편한세상감일아파트",
      "description": "경기 하남시 감일중앙로 20",
      "url": "http://place.map.kakao.com/949267785",
      "region": "경기도"
    },
    {
      "lat": 37.55495852724404,
      "lng": 127.19386346980282,
      "title": "e편한세상미사아파트",
      "description": "경기 하남시 미사강변중앙로 90",
      "url": "http://place.map.kakao.com/27583813",
      "region": "경기도"
    },
    {
      "lat": 37.8274811043599,
      "lng": 127.50614444177904,
      "title": "e편한세상가평퍼스트원아파트",
      "description": "경기 가평군 가평읍 문화로 167",
      "url": "http://place.map.kakao.com/1216810752",
      "region": "경기도"
    },
    {
      "lat": 37.85478076211857,
      "lng": 127.73067652757344,
      "title": "e편한세상춘천한숲시티아파트",
      "description": "강원특별자치도 춘천시 안마산로 133",
      "url": "http://place.map.kakao.com/74324534",
      "region": "강원특별자치도"
    },
    {
      "lat": 37.8853955035501,
      "lng": 127.725546455868,
      "title": "e편한세상춘천아파트",
      "description": "강원특별자치도 춘천시 서부대성로 33",
      "url": "http://place.map.kakao.com/1364979152",
      "region": "강원특별자치도"
    },
    {
      "lat": 37.8547698216434,
      "lng": 127.728516368365,
      "title": "e편한세상춘천한숲시티아파트 상가",
      "description": "강원특별자치도 춘천시 안마산로 113",
      "url": "http://place.map.kakao.com/2103081654",
      "region": "강원특별자치도"
    },
    {
      "lat": 38.1045916892624,
      "lng": 127.079530188536,
      "title": "e편한세상연천웰스하임아파트",
      "description": "경기 연천군 연천읍 차옥로 149",
      "url": "http://place.map.kakao.com/1783915155",
      "region": "경기도"
    },
    {
      "lat": 37.487687529247026,
      "lng": 126.55169706680046,
      "title": "e편한세상영종국제도시센텀베뉴아파트",
      "description": "인천 중구 하늘달빛로 139",
      "url": "http://place.map.kakao.com/281874626",
      "region": "인천광역시"
    },
    {
      "lat": 37.49319491368614,
      "lng": 126.56778009637443,
      "title": "e편한세상영종국제도시오션하임아파트",
      "description": "인천 중구 두미포로 112",
      "url": "http://place.map.kakao.com/1103921211",
      "region": "인천광역시"
    },
    {
      "lat": 37.477760218403446,
      "lng": 126.51385465056973,
      "title": "e편한세상영종하늘도시아파트",
      "description": "인천 중구 숲쟁이로 12",
      "url": "http://place.map.kakao.com/1256610822",
      "region": "인천광역시"
    },
    {
      "lat": 37.468035762090715,
      "lng": 126.62658521043646,
      "title": "e편한세상동인천베이프런트아파트 (2028년04월예정)",
      "description": "인천 중구 사동 23-4",
      "url": "http://place.map.kakao.com/442000068",
      "region": "인천광역시"
    },
    {
      "lat": 37.493332104394085,
      "lng": 126.56735299899684,
      "title": "e편한세상 영종국제도시 오션하임 커뮤니티센터",
      "description": "인천 중구 두미포로 112",
      "url": "http://place.map.kakao.com/852133519",
      "region": "인천광역시"
    },
    {
      "lat": 37.4689529356951,
      "lng": 126.644985054392,
      "title": "e편한세상도원역퍼스트하임아파트 (2027년03월예정)",
      "description": "인천 미추홀구 숭의동 109-119",
      "url": "http://place.map.kakao.com/751520176",
      "region": "인천광역시"
    },
    {
      "lat": 37.47346035244669,
      "lng": 126.66271583290903,
      "title": "e편한세상도화5단지아파트",
      "description": "인천 미추홀구 숙골로112번길 11",
      "url": "http://place.map.kakao.com/373187892",
      "region": "인천광역시"
    },
    {
      "lat": 37.4612135223526,
      "lng": 126.65727303834,
      "title": "e편한세상제물포역파크메종아파트 (2026년07월예정)",
      "description": "인천 미추홀구 숭의동 18-1",
      "url": "http://place.map.kakao.com/1515027647",
      "region": "인천광역시"
    },
    {
      "lat": 37.47483932578901,
      "lng": 126.66445062431973,
      "title": "e편한세상도화6-2단지아파트",
      "description": "인천 미추홀구 숙골로88번길 56",
      "url": "http://place.map.kakao.com/555186706",
      "region": "인천광역시"
    },
    {
      "lat": 37.4733859890232,
      "lng": 126.66667401264188,
      "title": "e편한세상도화6-1단지아파트",
      "description": "인천 미추홀구 숙골로88번길 46",
      "url": "http://place.map.kakao.com/593495605",
      "region": "인천광역시"
    },
    {
      "lat": 37.44466011363012,
      "lng": 126.67609847764585,
      "title": "e편한세상주안에듀서밋아파트",
      "description": "인천 미추홀구 주승로 51",
      "url": "http://place.map.kakao.com/451131357",
      "region": "인천광역시"
    },
    {
      "lat": 37.411462722347345,
      "lng": 126.61744005941496,
      "title": "e편한세상송도아파트",
      "description": "인천 연수구 랜드마크로 113",
      "url": "http://place.map.kakao.com/27377253",
      "region": "인천광역시"
    },
    {
      "lat": 37.48581545307377,
      "lng": 126.73423335951965,
      "title": "e편한세상부평역어반루체아파트",
      "description": "인천 부평구 경인로1024번길 21",
      "url": "http://place.map.kakao.com/1865595158",
      "region": "인천광역시"
    },
    {
      "lat": 37.487363090237196,
      "lng": 126.71591049999022,
      "title": "e편한세상부평역센트럴파크아파트",
      "description": "인천 부평구 부영로 35",
      "url": "http://place.map.kakao.com/1561678602",
      "region": "인천광역시"
    },
    {
      "lat": 37.51584857238497,
      "lng": 126.69963302863817,
      "title": "e편한세상부평그랑힐스아파트",
      "description": "인천 부평구 산청로 97",
      "url": "http://place.map.kakao.com/1273544409",
      "region": "인천광역시"
    },
    {
      "lat": 37.52871795930461,
      "lng": 126.71358045698528,
      "title": "e편한세상계양더프리미어아파트",
      "description": "인천 계양구 효서로 145",
      "url": "http://place.map.kakao.com/306937954",
      "region": "인천광역시"
    },
    {
      "lat": 37.5281134111457,
      "lng": 126.713589556431,
      "title": "e편한세상계양더프리미어아파트 상가",
      "description": "인천 계양구 효서로 145",
      "url": "http://place.map.kakao.com/1277700825",
      "region": "인천광역시"
    },
    {
      "lat": 37.520112320448845,
      "lng": 126.67097068091073,
      "title": "루원e편한세상하늘채아파트",
      "description": "인천 서구 가정로 387",
      "url": "http://place.map.kakao.com/11123710",
      "region": "인천광역시"
    },
    {
      "lat": 37.596087693083746,
      "lng": 126.70218807958842,
      "title": "원당e편한세상아파트",
      "description": "인천 서구 고산로40번길 12",
      "url": "http://place.map.kakao.com/17514557",
      "region": "인천광역시"
    },
    {
      "lat": 37.6183688990996,
      "lng": 126.69436074236008,
      "title": "불로e편한세상아파트",
      "description": "인천 서구 고산후로 398",
      "url": "http://place.map.kakao.com/11003386",
      "region": "인천광역시"
    },
    {
      "lat": 37.5884222092892,
      "lng": 126.702596788596,
      "title": "e편한세상검단어반센트로아파트",
      "description": "인천 서구 이음3로 101",
      "url": "http://place.map.kakao.com/1784140280",
      "region": "인천광역시"
    },
    {
      "lat": 37.60010598306758,
      "lng": 126.65577063139969,
      "title": "검단e편한세상아파트",
      "description": "인천 서구 검단로 446",
      "url": "http://place.map.kakao.com/23916301",
      "region": "인천광역시"
    },
    {
      "lat": 37.5963291814466,
      "lng": 126.717969793688,
      "title": "e편한세상검단웰카운티아파트 (2026년07월예정)",
      "description": "인천 서구 원당동 1026-1",
      "url": "http://place.map.kakao.com/2060829444",
      "region": "인천광역시"
    },
    {
      "lat": 37.6014329549545,
      "lng": 126.674440467682,
      "title": "e편한세상검단에코비스타아파트 (2026년07월예정)",
      "description": "인천 서구 마전동 431-4",
      "url": "http://place.map.kakao.com/354766857",
      "region": "인천광역시"
    },
    {
      "lat": 37.6190977872002,
      "lng": 126.693315680552,
      "title": "불로e편한세상아파트 상가",
      "description": "인천 서구 검단로 868",
      "url": "http://place.map.kakao.com/23919827",
      "region": "인천광역시"
    },
    {
      "lat": 35.10404165912836,
      "lng": 129.0159698241315,
      "title": "부민이편한세상아파트",
      "description": "부산 서구 해돋이로 313",
      "url": "http://place.map.kakao.com/10246010",
      "region": "부산광역시"
    },
    {
      "lat": 35.12310308429279,
      "lng": 129.0402114478758,
      "title": "e편한세상부산항아파트",
      "description": "부산 동구 홍곡로 50",
      "url": "http://place.map.kakao.com/1734308660",
      "region": "부산광역시"
    },
    {
      "lat": 35.07677275540032,
      "lng": 129.01538081801007,
      "title": "e편한세상송도더퍼스트비치아파트",
      "description": "부산 서구 충무대로21번길 9",
      "url": "http://place.map.kakao.com/828400967",
      "region": "부산광역시"
    },
    {
      "lat": 35.15123262769935,
      "lng": 129.0497374705041,
      "title": "e편한세상서면더센트럴아파트",
      "description": "부산 부산진구 신암로 133",
      "url": "http://place.map.kakao.com/1354328819",
      "region": "부산광역시"
    },
    {
      "lat": 35.07973108485265,
      "lng": 128.98667875328294,
      "title": "e편한세상사하1차아파트",
      "description": "부산 사하구 서포로30번길 26",
      "url": "http://place.map.kakao.com/26097932",
      "region": "부산광역시"
    },
    {
      "lat": 35.15582143266743,
      "lng": 129.04962657042373,
      "title": "서면e편한세상아파트",
      "description": "부산 부산진구 가야대로 702",
      "url": "http://place.map.kakao.com/7940479",
      "region": "부산광역시"
    },
    {
      "lat": 35.08137881807813,
      "lng": 128.985336288654,
      "title": "e편한세상사하2차아파트",
      "description": "부산 사하구 서포로30번길 12",
      "url": "http://place.map.kakao.com/27077993",
      "region": "부산광역시"
    },
    {
      "lat": 35.1404110009559,
      "lng": 129.0639857590871,
      "title": "e편한세상범일국제금융시티아파트 (2028년06월예정)",
      "description": "부산 동구 범일동 830-90",
      "url": "http://place.map.kakao.com/564262909",
      "region": "부산광역시"
    },
    {
      "lat": 35.165446191976876,
      "lng": 129.0686853395536,
      "title": "e편한세상시민공원아파트",
      "description": "부산 부산진구 진남로 455",
      "url": "http://place.map.kakao.com/494792716",
      "region": "부산광역시"
    },
    {
      "lat": 35.20582783239137,
      "lng": 129.10755217771737,
      "title": "e편한세상동래명장1단지아파트",
      "description": "부산 동래구 명장로 65",
      "url": "http://place.map.kakao.com/1906403534",
      "region": "부산광역시"
    },
    {
      "lat": 35.2019235737086,
      "lng": 129.066449451998,
      "title": "e편한세상동래아시아드아파트",
      "description": "부산 동래구 아시아드대로 202",
      "url": "http://place.map.kakao.com/530415951",
      "region": "부산광역시"
    },
    {
      "lat": 35.20533266457197,
      "lng": 129.10571351781664,
      "title": "e편한세상동래명장2단지아파트",
      "description": "부산 동래구 명장로 65",
      "url": "http://place.map.kakao.com/1780660285",
      "region": "부산광역시"
    },
    {
      "lat": 35.18794806135962,
      "lng": 129.0850242418169,
      "title": "e편한세상연산더퍼스트아파트",
      "description": "부산 연제구 반송로 40",
      "url": "http://place.map.kakao.com/1611122723",
      "region": "부산광역시"
    },
    {
      "lat": 35.18876421399927,
      "lng": 129.11748900518592,
      "title": "센텀e편한세상아파트",
      "description": "부산 해운대구 해운대로76번길 55",
      "url": "http://place.map.kakao.com/7964578",
      "region": "부산광역시"
    },
    {
      "lat": 35.1525912278505,
      "lng": 129.112790813998,
      "title": "e편한세상광안오션프라임아파트 (예정)",
      "description": "부산 수영구 남천바다로9번길 61",
      "url": "http://place.map.kakao.com/922811451",
      "region": "부산광역시"
    },
    {
      "lat": 35.21699856926278,
      "lng": 129.03831171107672,
      "title": "e편한세상금정산아파트",
      "description": "부산 북구 상학로 36",
      "url": "http://place.map.kakao.com/50125947",
      "region": "부산광역시"
    },
    {
      "lat": 35.23369945311004,
      "lng": 129.01600615604542,
      "title": "e편한세상화명힐스아파트",
      "description": "부산 북구 화명대로 68",
      "url": "http://place.map.kakao.com/25981976",
      "region": "부산광역시"
    },
    {
      "lat": 35.1940565022339,
      "lng": 129.126134147055,
      "title": "e편한세상센텀하이베뉴아파트 (예정)",
      "description": "부산 해운대구 재송동 1030",
      "url": "http://place.map.kakao.com/1373632631",
      "region": "부산광역시"
    },
    {
      "lat": 35.18239099119271,
      "lng": 129.11606354829718,
      "title": "센텀수영강변e편한세상2차아파트",
      "description": "부산 수영구 좌수영로 204",
      "url": "http://place.map.kakao.com/11123596",
      "region": "부산광역시"
    },
    {
      "lat": 35.17970009590357,
      "lng": 129.11740746314882,
      "title": "센텀수영강변e편한세상1차아파트",
      "description": "부산 수영구 좌수영로 176",
      "url": "http://place.map.kakao.com/11128043",
      "region": "부산광역시"
    },
    {
      "lat": 35.1554983609687,
      "lng": 129.12699867882907,
      "title": "e편한세상광안비치아파트",
      "description": "부산 수영구 민락수변로7번길 60",
      "url": "http://place.map.kakao.com/24127228",
      "region": "부산광역시"
    },
    {
      "lat": 35.15579546654126,
      "lng": 129.12845040869593,
      "title": "e편한세상오션테라스1단지아파트",
      "description": "부산 수영구 광안해변로326번길 10",
      "url": "http://place.map.kakao.com/629163693",
      "region": "부산광역시"
    },
    {
      "lat": 35.15512788738833,
      "lng": 129.1300295126273,
      "title": "e편한세상오션테라스4단지아파트",
      "description": "부산 수영구 광안해변로326번길 31",
      "url": "http://place.map.kakao.com/906691168",
      "region": "부산광역시"
    },
    {
      "lat": 35.15478613335608,
      "lng": 129.12870939280538,
      "title": "e편한세상오션테라스3단지아파트",
      "description": "부산 수영구 광안해변로326번길 32",
      "url": "http://place.map.kakao.com/2019362392",
      "region": "부산광역시"
    },
    {
      "lat": 35.155972563167914,
      "lng": 129.1293975710268,
      "title": "e편한세상오션테라스2단지아파트",
      "description": "부산 수영구 광안해변로326번길 9",
      "url": "http://place.map.kakao.com/1713043154",
      "region": "부산광역시"
    },
    {
      "lat": 35.09880994528449,
      "lng": 128.90913849960978,
      "title": "e편한세상명지아파트",
      "description": "부산 강서구 명지국제2로 80",
      "url": "http://place.map.kakao.com/386841235",
      "region": "부산광역시"
    },
    {
      "lat": 35.14431698163445,
      "lng": 128.91488580084712,
      "title": "e편한세상에코델타센터포인트아파트",
      "description": "부산 강서구 에코델타1로 42",
      "url": "http://place.map.kakao.com/1784306017",
      "region": "부산광역시"
    },
    {
      "lat": 35.2586613924094,
      "lng": 129.092267381059,
      "title": "e편한세상금정메종카운티아파트 (2026년06월예정)",
      "description": "부산 금정구 금단로 105",
      "url": "http://place.map.kakao.com/409784117",
      "region": "부산광역시"
    },
    {
      "lat": 35.2578717524522,
      "lng": 129.090039901057,
      "title": "구서동e편한세상아파트 (예정)",
      "description": "부산 금정구 중앙대로1945번길 21",
      "url": "http://place.map.kakao.com/138736768",
      "region": "부산광역시"
    },
    {
      "lat": 35.0987653814863,
      "lng": 128.908420320732,
      "title": "e편한세상명지아파트 상가",
      "description": "부산 강서구 명지국제2로 80",
      "url": "http://place.map.kakao.com/2023887477",
      "region": "부산광역시"
    },
    {
      "lat": 35.26840440022079,
      "lng": 129.22544065814384,
      "title": "e편한세상일광아파트",
      "description": "부산 기장군 일광읍 해빛2로 21",
      "url": "http://place.map.kakao.com/1774128531",
      "region": "부산광역시"
    },
    {
      "lat": 35.86413528952388,
      "lng": 128.5763145533327,
      "title": "e편한세상대신아파트",
      "description": "대구 중구 달구벌대로 1943",
      "url": "http://place.map.kakao.com/27444895",
      "region": "대구광역시"
    },
    {
      "lat": 35.86502792812795,
      "lng": 128.5851777794926,
      "title": "대구e편한세상남산아파트",
      "description": "대구 중구 달구벌대로 2020",
      "url": "http://place.map.kakao.com/268538911",
      "region": "대구광역시"
    },
    {
      "lat": 35.866401699257615,
      "lng": 128.6199955251682,
      "title": "e편한세상범어아파트",
      "description": "대구 수성구 들안로78길 45",
      "url": "http://place.map.kakao.com/19403030",
      "region": "대구광역시"
    },
    {
      "lat": 35.8765174825421,
      "lng": 128.627556833506,
      "title": "e편한세상동대구역센텀스퀘어아파트",
      "description": "대구 동구 동부로 140",
      "url": "http://place.map.kakao.com/667957582",
      "region": "대구광역시"
    },
    {
      "lat": 35.8617534110805,
      "lng": 128.69421172622967,
      "title": "e편한세상세계육상선수촌2단지아파트",
      "description": "대구 동구 안심로16길 71",
      "url": "http://place.map.kakao.com/12752860",
      "region": "대구광역시"
    },
    {
      "lat": 35.86175293518054,
      "lng": 128.690408022826,
      "title": "e편한세상세계육상선수촌아파트",
      "description": "대구 동구 율하서로 85",
      "url": "http://place.map.kakao.com/12752858",
      "region": "대구광역시"
    },
    {
      "lat": 35.8953457134685,
      "lng": 128.619701389348,
      "title": "e편한세상복현아파트",
      "description": "대구 북구 동북로 247",
      "url": "http://place.map.kakao.com/1692061318",
      "region": "대구광역시"
    },
    {
      "lat": 35.86303471852551,
      "lng": 128.55983754276434,
      "title": "e편한세상두류역아파트",
      "description": "대구 서구 달구벌대로361길 41",
      "url": "http://place.map.kakao.com/1257841210",
      "region": "대구광역시"
    },
    {
      "lat": 35.84214753113701,
      "lng": 128.54311470011243,
      "title": "성당래미안e편한세상2단지아파트",
      "description": "대구 달서구 장기로 145",
      "url": "http://place.map.kakao.com/11529142",
      "region": "대구광역시"
    },
    {
      "lat": 35.85515637140864,
      "lng": 128.5929744020138,
      "title": "e편한세상명덕역퍼스트마크아파트 (2026년01월예정)",
      "description": "대구 남구 대명동 2017-2",
      "url": "http://place.map.kakao.com/564271354",
      "region": "대구광역시"
    },
    {
      "lat": 35.842339431699536,
      "lng": 128.54585213347855,
      "title": "성당래미안e편한세상3단지아파트",
      "description": "대구 달서구 장기로 127",
      "url": "http://place.map.kakao.com/7860008",
      "region": "대구광역시"
    },
    {
      "lat": 35.84210723649472,
      "lng": 128.54049642105394,
      "title": "성당래미안e편한세상1단지아파트",
      "description": "대구 달서구 장기로 189",
      "url": "http://place.map.kakao.com/11529143",
      "region": "대구광역시"
    },
    {
      "lat": 35.9487409789142,
      "lng": 128.55355694616276,
      "title": "칠곡e편한세상아파트",
      "description": "대구 북구 칠곡중앙대로 598",
      "url": "http://place.map.kakao.com/11003121",
      "region": "대구광역시"
    },
    {
      "lat": 35.90026047809107,
      "lng": 128.50897248296232,
      "title": "e편한세상대구금호아파트",
      "description": "대구 북구 내곡로 49",
      "url": "http://place.map.kakao.com/26609715",
      "region": "대구광역시"
    },
    {
      "lat": 35.85558922101091,
      "lng": 128.64786398738423,
      "title": "수성2차e편한세상아파트",
      "description": "대구 수성구 달구벌대로522길 33",
      "url": "http://place.map.kakao.com/11370082",
      "region": "대구광역시"
    },
    {
      "lat": 35.82390074596614,
      "lng": 128.53044587416807,
      "title": "월성e편한세상아파트",
      "description": "대구 달서구 조암남로 10",
      "url": "http://place.map.kakao.com/8044051",
      "region": "대구광역시"
    },
    {
      "lat": 35.82715867331247,
      "lng": 128.52198350183454,
      "title": "e편한세상월배아파트",
      "description": "대구 달서구 월성로 132",
      "url": "http://place.map.kakao.com/18082392",
      "region": "대구광역시"
    },
    {
      "lat": 35.82028909585877,
      "lng": 128.53495286269467,
      "title": "상인역e편한세상2단지아파트",
      "description": "대구 달서구 월서로3길 15",
      "url": "http://place.map.kakao.com/11353590",
      "region": "대구광역시"
    },
    {
      "lat": 35.821821829044154,
      "lng": 128.5331987248629,
      "title": "상인역e편한세상1단지아파트",
      "description": "대구 달서구 월서로 14",
      "url": "http://place.map.kakao.com/11364578",
      "region": "대구광역시"
    },
    {
      "lat": 35.86836183690961,
      "lng": 128.45697615918363,
      "title": "다사e편한세상아파트",
      "description": "대구 달성군 다사읍 다사역로 60",
      "url": "http://place.map.kakao.com/8305864",
      "region": "대구광역시"
    },
    {
      "lat": 35.854401323036996,
      "lng": 128.46288413347875,
      "title": "대실역e편한세상아파트",
      "description": "대구 달성군 다사읍 죽곡1길 42",
      "url": "http://place.map.kakao.com/11528660",
      "region": "대구광역시"
    },
    {
      "lat": 35.854486655448,
      "lng": 128.463868672463,
      "title": "대실역e편한세상아파트 상가",
      "description": "대구 달성군 다사읍 죽곡1길 42",
      "url": "http://place.map.kakao.com/26446659",
      "region": "대구광역시"
    },
    {
      "lat": 35.12350908258444,
      "lng": 126.93712616467414,
      "title": "e편한세상무등산아파트",
      "description": "광주 동구 지원로42번길 10",
      "url": "http://place.map.kakao.com/1844215200",
      "region": "광주광역시"
    },
    {
      "lat": 35.13091234289901,
      "lng": 126.90686677379256,
      "title": "e편한세상봉선셀레스티지아파트",
      "description": "광주 남구 대남대로159번길 24",
      "url": "http://place.map.kakao.com/1784036936",
      "region": "광주광역시"
    },
    {
      "lat": 35.13864581567789,
      "lng": 126.87906152789337,
      "title": "꽃담마을e편한세상아파트",
      "description": "광주 서구 금화로 293",
      "url": "http://place.map.kakao.com/8211435",
      "region": "광주광역시"
    },
    {
      "lat": 35.16392648463354,
      "lng": 126.87837871246408,
      "title": "광천e편한세상아파트",
      "description": "광주 서구 화운로 278",
      "url": "http://place.map.kakao.com/11375085",
      "region": "광주광역시"
    },
    {
      "lat": 36.32869254869447,
      "lng": 127.46402347436748,
      "title": "e편한세상대전에코포레아파트",
      "description": "대전 동구 용운로 203",
      "url": "http://place.map.kakao.com/1072231451",
      "region": "대전광역시"
    },
    {
      "lat": 36.282350099089086,
      "lng": 127.46916405543438,
      "title": "남대전e편한세상아파트",
      "description": "대전 동구 산내로 1330",
      "url": "http://place.map.kakao.com/12341317",
      "region": "대전광역시"
    },
    {
      "lat": 36.3359595793699,
      "lng": 127.429814158317,
      "title": "e편한세상대전역센텀비스타아파트 (2026년06월예정)",
      "description": "대전 동구 삼성동 112-1",
      "url": "http://place.map.kakao.com/503678263",
      "region": "대전광역시"
    },
    {
      "lat": 36.31302688544292,
      "lng": 127.38358700494052,
      "title": "도마e편한세상포레나아파트",
      "description": "대전 서구 도산로 8",
      "url": "http://place.map.kakao.com/1495637025",
      "region": "대전광역시"
    },
    {
      "lat": 36.367653227068914,
      "lng": 127.42494629968179,
      "title": "e편한세상대전법동아파트",
      "description": "대전 대덕구 중리북로 46",
      "url": "http://place.map.kakao.com/1445627693",
      "region": "대전광역시"
    },
    {
      "lat": 36.3173007755007,
      "lng": 127.404754523374,
      "title": "e편한세상서대전역센트로아파트 (2026년12월예정)",
      "description": "대전 중구 문화동 330",
      "url": "http://place.map.kakao.com/1482398187",
      "region": "대전광역시"
    },
    {
      "lat": 36.34267482835022,
      "lng": 127.39354046444207,
      "title": "e편한세상둔산1단지아파트",
      "description": "대전 서구 계룡로615번길 69",
      "url": "http://place.map.kakao.com/702493402",
      "region": "대전광역시"
    },
    {
      "lat": 36.34203144493719,
      "lng": 127.39461661189388,
      "title": "e편한세상둔산2단지아파트",
      "description": "대전 서구 계룡로615번길 82",
      "url": "http://place.map.kakao.com/211245282",
      "region": "대전광역시"
    },
    {
      "lat": 36.31342209183246,
      "lng": 127.38174496973343,
      "title": "도마e편한세상포레나아파트 상가1동",
      "description": "대전 서구 도산로 8",
      "url": "http://place.map.kakao.com/1500383320",
      "region": "대전광역시"
    },
    {
      "lat": 35.55555492447186,
      "lng": 129.34713569410863,
      "title": "e편한세상강변아파트",
      "description": "울산 중구 반구로 55",
      "url": "http://place.map.kakao.com/11042899",
      "region": "울산광역시"
    },
    {
      "lat": 35.5599886544516,
      "lng": 129.30255151616873,
      "title": "유곡e편한세상아파트",
      "description": "울산 중구 평동3길 2",
      "url": "http://place.map.kakao.com/11325723",
      "region": "울산광역시"
    },
    {
      "lat": 35.53921352531614,
      "lng": 129.30595579564022,
      "title": "e편한세상신정스카이하임아파트 (2026년10월예정)",
      "description": "울산 남구 봉월로 80",
      "url": "http://place.map.kakao.com/836719253",
      "region": "울산광역시"
    },
    {
      "lat": 35.5230684245474,
      "lng": 129.330732876191,
      "title": "e편한세상번영로리더스포레아파트 (2026년11월예정)",
      "description": "울산 남구 야음동 828-9",
      "url": "http://place.map.kakao.com/322090974",
      "region": "울산광역시"
    },
    {
      "lat": 35.511674496042424,
      "lng": 129.4238662914007,
      "title": "e편한세상전하아파트",
      "description": "울산 동구 봉수로 290",
      "url": "http://place.map.kakao.com/19530156",
      "region": "울산광역시"
    },
    {
      "lat": 35.451794030489616,
      "lng": 129.2967644989608,
      "title": "e편한세상울산온양아파트",
      "description": "울산 울주군 온양읍 망양길 50",
      "url": "http://place.map.kakao.com/435207186",
      "region": "울산광역시"
    },
    {
      "lat": 35.56047617287393,
      "lng": 129.13584170898028,
      "title": "e편한세상울산역어반스퀘어아파트",
      "description": "울산 울주군 언양읍 언양로 77",
      "url": "http://place.map.kakao.com/1499684147",
      "region": "울산광역시"
    },
    {
      "lat": 35.59870958490071,
      "lng": 129.0728061019886,
      "title": "e편한세상서울산파크그란데아파트",
      "description": "울산 울주군 상북면 거리1길 77",
      "url": "http://place.map.kakao.com/1482945055",
      "region": "울산광역시"
    },
    {
      "lat": 36.61557533581807,
      "lng": 127.28493856876065,
      "title": "세종e편한세상아파트",
      "description": "세종특별자치시 조치원읍 섭골길 59",
      "url": "http://place.map.kakao.com/11349555",
      "region": "세종특별자치시"
    },
    {
      "lat": 36.59369708656837,
      "lng": 127.28585494433392,
      "title": "조치원신흥e편한세상아파트",
      "description": "세종특별자치시 조치원읍 이화1로 15",
      "url": "http://place.map.kakao.com/25980852",
      "region": "세종특별자치시"
    },
    {
      "lat": 36.486179483195,
      "lng": 127.318483492571,
      "title": "새나루마을1단지세종자이e편한세상아파트",
      "description": "세종특별자치시 남세종로 160",
      "url": "http://place.map.kakao.com/1308542922",
      "region": "세종특별자치시"
    },
    {
      "lat": 36.47536177904179,
      "lng": 127.27858309309859,
      "title": "해들마을6단지e편한세상세종리버파크아파트",
      "description": "세종특별자치시 대평로 80",
      "url": "http://place.map.kakao.com/1238789710",
      "region": "세종특별자치시"
    },
    {
      "lat": 36.49224104274713,
      "lng": 127.24767154136498,
      "title": "가온마을4단지세종e편한세상푸르지오아파트",
      "description": "세종특별자치시 다정중앙로 19",
      "url": "http://place.map.kakao.com/1790317277",
      "region": "세종특별자치시"
    },
    {
      "lat": 37.33752182084606,
      "lng": 127.9719320545129,
      "title": "e편한세상반곡아파트",
      "description": "강원특별자치도 원주시 오리현길 62",
      "url": "http://place.map.kakao.com/1348320257",
      "region": "강원특별자치도"
    },
    {
      "lat": 37.35106097743251,
      "lng": 127.92704655417197,
      "title": "봉화산e편한세상아파트",
      "description": "강원특별자치도 원주시 봉화로 67",
      "url": "http://place.map.kakao.com/11037083",
      "region": "강원특별자치도"
    },
    {
      "lat": 37.371555121608175,
      "lng": 127.95276950910346,
      "title": "e편한세상원주태장아파트",
      "description": "강원특별자치도 원주시 현충로232번길 42",
      "url": "http://place.map.kakao.com/715299241",
      "region": "강원특별자치도"
    },
    {
      "lat": 37.33775338157946,
      "lng": 127.91894339608415,
      "title": "무실e편한세상아파트",
      "description": "강원특별자치도 원주시 만대로 89",
      "url": "http://place.map.kakao.com/11370029",
      "region": "강원특별자치도"
    },
    {
      "lat": 37.3195452450276,
      "lng": 127.943192284834,
      "title": "e편한세상원주프리모원아파트",
      "description": "강원특별자치도 원주시 판부면 서관로 21",
      "url": "http://place.map.kakao.com/268323645",
      "region": "강원특별자치도"
    },
    {
      "lat": 37.770681335012966,
      "lng": 128.89540007557645,
      "title": "교동이편한세상아파트",
      "description": "강원특별자치도 강릉시 종합운동장길 92",
      "url": "http://place.map.kakao.com/8211930",
      "region": "강원특별자치도"
    },
    {
      "lat": 37.47929683173862,
      "lng": 129.12206861596317,
      "title": "e편한세상동해아파트",
      "description": "강원특별자치도 동해시 단봉길 39",
      "url": "http://place.map.kakao.com/1584877859",
      "region": "강원특별자치도"
    },
    {
      "lat": 37.452893487002264,
      "lng": 129.1716072786753,
      "title": "e편한세상삼척교동아파트",
      "description": "강원특별자치도 삼척시 하실길 72",
      "url": "http://place.map.kakao.com/26927941",
      "region": "강원특별자치도"
    },
    {
      "lat": 38.21190237124411,
      "lng": 128.58558670520083,
      "title": "e편한세상영랑호아파트",
      "description": "강원특별자치도 속초시 번영로129번길 22",
      "url": "http://place.map.kakao.com/26864558",
      "region": "강원특별자치도"
    },
    {
      "lat": 38.20979110236922,
      "lng": 128.5820975580654,
      "title": "속초e편한세상아파트",
      "description": "강원특별자치도 속초시 미시령로 3439",
      "url": "http://place.map.kakao.com/11002427",
      "region": "강원특별자치도"
    },
    {
      "lat": 38.07912521807473,
      "lng": 128.6123387647619,
      "title": "e편한세상양양아파트",
      "description": "강원특별자치도 양양군 양양읍 한고개길 17-18",
      "url": "http://place.map.kakao.com/1635267339",
      "region": "강원특별자치도"
    },
    {
      "lat": 36.636022770360604,
      "lng": 127.51000459472837,
      "title": "가좌마을용담이편한세상아파트",
      "description": "충북 청주시 상당구 호미로 330",
      "url": "http://place.map.kakao.com/8300022",
      "region": "충청북도"
    },
    {
      "lat": 36.61814735199397,
      "lng": 127.42469603153025,
      "title": "가로수마을가경e편한세상아파트",
      "description": "충북 청주시 흥덕구 서현북로 15",
      "url": "http://place.map.kakao.com/11038780",
      "region": "충청북도"
    },
    {
      "lat": 37.015857338140634,
      "lng": 127.82757673484794,
      "title": "e편한세상충주아파트",
      "description": "충북 충주시 중앙탑면 원앙9길 15",
      "url": "http://place.map.kakao.com/27295766",
      "region": "충청북도"
    },
    {
      "lat": 37.14739647522838,
      "lng": 128.22335749639277,
      "title": "장락e편한세상아파트",
      "description": "충북 제천시 장락로 62",
      "url": "http://place.map.kakao.com/11159600",
      "region": "충청북도"
    },
    {
      "lat": 37.15444359334107,
      "lng": 128.22732979932934,
      "title": "e편한세상제천더프라임아파트",
      "description": "충북 제천시 내토로63길 13",
      "url": "http://place.map.kakao.com/560363441",
      "region": "충청북도"
    },
    {
      "lat": 36.314503171089825,
      "lng": 127.58690737718281,
      "title": "e편한세상옥천퍼스트원아파트",
      "description": "충북 옥천군 옥천읍 매동로 150",
      "url": "http://place.map.kakao.com/2093351172",
      "region": "충청북도"
    },
    {
      "lat": 36.86047907748883,
      "lng": 127.45340078225482,
      "title": "e편한세상진천로얄하임아파트",
      "description": "충북 진천군 진천읍 문화로 404",
      "url": "http://place.map.kakao.com/124291769",
      "region": "충청북도"
    },
    {
      "lat": 36.98088792718093,
      "lng": 128.3658575579305,
      "title": "e편한세상단양리버비스타아파트",
      "description": "충북 단양군 단양읍 군청로 21",
      "url": "http://place.map.kakao.com/1237660014",
      "region": "충청북도"
    },
    {
      "lat": 36.847900745058844,
      "lng": 127.10800138678745,
      "title": "e편한세상스마일시티2차아파트",
      "description": "충남 천안시 서북구 스마일시티2로 2",
      "url": "http://place.map.kakao.com/25755199",
      "region": "충청남도"
    },
    {
      "lat": 36.84380823734925,
      "lng": 127.10359956844974,
      "title": "e편한세상스마일시티아파트",
      "description": "충남 천안시 서북구 스마일시티1로 55",
      "url": "http://place.map.kakao.com/19293854",
      "region": "충청남도"
    },
    {
      "lat": 36.83204325439328,
      "lng": 127.15508182458312,
      "title": "e편한세상두정3차아파트",
      "description": "충남 천안시 서북구 북일로 21",
      "url": "http://place.map.kakao.com/26303046",
      "region": "충청남도"
    },
    {
      "lat": 36.80556685417631,
      "lng": 127.1564695084131,
      "title": "e편한세상천안역아파트",
      "description": "충남 천안시 동남구 원성동 289-25",
      "url": "http://place.map.kakao.com/1855890459",
      "region": "충청남도"
    },
    {
      "lat": 36.83784626977668,
      "lng": 127.12958244626806,
      "title": "e편한세상두정2차아파트",
      "description": "충남 천안시 서북구 노태산로 145",
      "url": "http://place.map.kakao.com/13565041",
      "region": "충청남도"
    },
    {
      "lat": 36.8553115808337,
      "lng": 127.15017928634585,
      "title": "e편한세상천안부성아파트",
      "description": "충남 천안시 서북구 천안대로 1287-1",
      "url": "http://place.map.kakao.com/27485047",
      "region": "충청남도"
    },
    {
      "lat": 36.837165665656876,
      "lng": 127.15674573045426,
      "title": "e편한세상두정4차아파트",
      "description": "충남 천안시 서북구 두정공원2길 50",
      "url": "http://place.map.kakao.com/448594355",
      "region": "충청남도"
    },
    {
      "lat": 36.81165083757376,
      "lng": 127.13463966088038,
      "title": "e편한세상봉명아너리움아파트",
      "description": "충남 천안시 동남구 쌍용대로 160",
      "url": "http://place.map.kakao.com/1218671672",
      "region": "충청남도"
    },
    {
      "lat": 36.83485609241074,
      "lng": 127.14094013741376,
      "title": "두정1차e편한세상아파트",
      "description": "충남 천안시 서북구 두정중2길 12",
      "url": "http://place.map.kakao.com/10367237",
      "region": "충청남도"
    },
    {
      "lat": 36.829919932223106,
      "lng": 127.1889348625714,
      "title": "안서1차e편한세상아파트",
      "description": "충남 천안시 동남구 성불사길 41",
      "url": "http://place.map.kakao.com/10587375",
      "region": "충청남도"
    },
    {
      "lat": 36.849173660981,
      "lng": 127.132404652144,
      "title": "e편한세상성성호수공원아파트 (2028년02월예정)",
      "description": "충남 천안시 서북구 성성2길 120",
      "url": "http://place.map.kakao.com/958686653",
      "region": "충청남도"
    },
    {
      "lat": 36.83010415846775,
      "lng": 127.18639746806238,
      "title": "안서2차e편한세상아파트",
      "description": "충남 천안시 동남구 성불사길 17",
      "url": "http://place.map.kakao.com/7988478",
      "region": "충청남도"
    },
    {
      "lat": 36.442473446182916,
      "lng": 127.12376899621027,
      "title": "금학e편한세상아파트",
      "description": "충남 공주시 우금티로 580",
      "url": "http://place.map.kakao.com/8205200",
      "region": "충청남도"
    },
    {
      "lat": 36.351936564533204,
      "lng": 126.61711121702785,
      "title": "e편한세상보령아파트",
      "description": "충남 보령시 한내로터리길 170",
      "url": "http://place.map.kakao.com/26912406",
      "region": "충청남도"
    },
    {
      "lat": 36.776395926518326,
      "lng": 127.09408921944372,
      "title": "e편한세상탕정퍼스트드림아파트",
      "description": "충남 아산시 배방읍 동방로 201",
      "url": "http://place.map.kakao.com/457378178",
      "region": "충청남도"
    },
    {
      "lat": 36.78067301653715,
      "lng": 127.01993576985892,
      "title": "모종e편한세상아파트",
      "description": "충남 아산시 문화로 355",
      "url": "http://place.map.kakao.com/11320520",
      "region": "충청남도"
    },
    {
      "lat": 36.7815309900744,
      "lng": 127.019259360297,
      "title": "모종e편한세상아파트 상가",
      "description": "충남 아산시 문화로 355",
      "url": "http://place.map.kakao.com/26446458",
      "region": "충청남도"
    },
    {
      "lat": 36.768169386063676,
      "lng": 126.4451934955649,
      "title": "e편한세상서산예천아파트",
      "description": "충남 서산시 동서1로 230",
      "url": "http://place.map.kakao.com/26097943",
      "region": "충청남도"
    },
    {
      "lat": 36.77605591023799,
      "lng": 126.4703121998178,
      "title": "e편한세상석림더노블아파트",
      "description": "충남 서산시 동서2로 49",
      "url": "http://place.map.kakao.com/1050011834",
      "region": "충청남도"
    },
    {
      "lat": 36.822133996702604,
      "lng": 126.4534401606502,
      "title": "e편한세상서산테크노밸리아파트",
      "description": "충남 서산시 성연면 성연4로 46",
      "url": "http://place.map.kakao.com/27478388",
      "region": "충청남도"
    },
    {
      "lat": 36.26972896125011,
      "lng": 127.26516722442571,
      "title": "계룡대림이편한세상아파트",
      "description": "충남 계룡시 두마면 사계로 51",
      "url": "http://place.map.kakao.com/7818213",
      "region": "충청남도"
    },
    {
      "lat": 36.905119120977126,
      "lng": 126.69510201275328,
      "title": "송악e편한세상아파트",
      "description": "충남 당진시 송악읍 반촌로 103",
      "url": "http://place.map.kakao.com/11045966",
      "region": "충청남도"
    },
    {
      "lat": 36.77621999800014,
      "lng": 126.47195322592886,
      "title": "e편한세상석림더노블아파트 108동",
      "description": "충남 서산시 동서2로 49",
      "url": "http://place.map.kakao.com/2030293557",
      "region": "충청남도"
    },
    {
      "lat": 36.102502978502685,
      "lng": 127.46501073471688,
      "title": "e편한세상금산프라임포레아파트",
      "description": "충남 금산군 금산읍 진악로 869",
      "url": "http://place.map.kakao.com/1356493756",
      "region": "충청남도"
    },
    {
      "lat": 36.11241147965564,
      "lng": 127.49543459262003,
      "title": "e편한세상금산센터하임아파트",
      "description": "충남 금산군 금산읍 금산로 1554",
      "url": "http://place.map.kakao.com/1998706687",
      "region": "충청남도"
    },
    {
      "lat": 35.98375148628824,
      "lng": 126.74628605507363,
      "title": "e편한세상군산디오션루체아파트",
      "description": "전북특별자치도 군산시 궁멀길 23",
      "url": "http://place.map.kakao.com/1506807113",
      "region": "전북특별자치도"
    },
    {
      "lat": 35.98114784844273,
      "lng": 126.7403998670307,
      "title": "e편한세상디오션시티1차아파트",
      "description": "전북특별자치도 군산시 궁포2로 25",
      "url": "http://place.map.kakao.com/852158221",
      "region": "전북특별자치도"
    },
    {
      "lat": 35.97718141562237,
      "lng": 126.74625053650803,
      "title": "e편한세상디오션시티2차아파트",
      "description": "전북특별자치도 군산시 궁포1로 82",
      "url": "http://place.map.kakao.com/231862755",
      "region": "전북특별자치도"
    },
    {
      "lat": 36.5986656936384,
      "lng": 126.651713412732,
      "title": "e편한세상홍성더센트럴아파트",
      "description": "충남 홍성군 홍성읍 월산로 16",
      "url": "http://place.map.kakao.com/1051699592",
      "region": "충청남도"
    },
    {
      "lat": 36.6452997754239,
      "lng": 126.683826030338,
      "title": "e편한세상내포퍼스트드림아파트 (2027년01월예정)",
      "description": "충남 홍성군 홍북읍 신대로 168",
      "url": "http://place.map.kakao.com/1124290327",
      "region": "충청남도"
    },
    {
      "lat": 36.6527130385257,
      "lng": 126.675652818779,
      "title": "e편한세상내포에듀플라츠아파트(공공주택) (2028년08월예정)",
      "description": "충남 홍성군 홍북읍 신경리 929",
      "url": "http://place.map.kakao.com/1865549750",
      "region": "충청남도"
    },
    {
      "lat": 36.6531426225657,
      "lng": 126.676221392603,
      "title": "e편한세상내포에듀플라츠아파트(민영주택) (2028년08월예정)",
      "description": "충남 홍성군 홍북읍 신경리 929",
      "url": "http://place.map.kakao.com/966625269",
      "region": "충청남도"
    },
    {
      "lat": 35.83959692453528,
      "lng": 127.10690021330402,
      "title": "서신이편한세상아파트",
      "description": "전북특별자치도 전주시 완산구 여울로 161",
      "url": "http://place.map.kakao.com/7939746",
      "region": "전북특별자치도"
    },
    {
      "lat": 35.85308939886084,
      "lng": 127.1557655043045,
      "title": "e편한세상우아아파트",
      "description": "전북특별자치도 전주시 덕진구 우아로 50",
      "url": "http://place.map.kakao.com/1863737104",
      "region": "전북특별자치도"
    },
    {
      "lat": 35.83048103851094,
      "lng": 127.1252154263467,
      "title": "서신아이파크e편한세상아파트",
      "description": "전북특별자치도 전주시 완산구 전주천서로 445",
      "url": "http://place.map.kakao.com/482326938",
      "region": "전북특별자치도"
    },
    {
      "lat": 35.94609231502147,
      "lng": 126.94566251968116,
      "title": "익산e편한세상아파트",
      "description": "전북특별자치도 익산시 선화로10길 17",
      "url": "http://place.map.kakao.com/12631132",
      "region": "전북특별자치도"
    },
    {
      "lat": 35.953800277619365,
      "lng": 126.98500048463367,
      "title": "e편한세상어양아파트",
      "description": "전북특별자치도 익산시 동서로63길 25",
      "url": "http://place.map.kakao.com/19530160",
      "region": "전북특별자치도"
    },
    {
      "lat": 35.95470405090444,
      "lng": 126.98368900512556,
      "title": "e편한세상어양아파트 상가",
      "description": "전북특별자치도 익산시 동서로63길 25",
      "url": "http://place.map.kakao.com/26444291",
      "region": "전북특별자치도"
    },
    {
      "lat": 34.76763945201598,
      "lng": 127.65697658745793,
      "title": "e편한세상여수더퍼스트아파트",
      "description": "전남 여수시 학동북4길 7",
      "url": "http://place.map.kakao.com/1868038473",
      "region": "전라남도"
    },
    {
      "lat": 34.7649363938371,
      "lng": 127.676035318866,
      "title": "e편한세상여수글렌츠아파트 (예정)",
      "description": "전남 여수시 쌍봉로 177",
      "url": "http://place.map.kakao.com/1708790060",
      "region": "전라남도"
    },
    {
      "lat": 34.96205326742985,
      "lng": 127.49173507960661,
      "title": "e편한세상순천어반타워아파트",
      "description": "전남 순천시 둑실1길 45",
      "url": "http://place.map.kakao.com/1487800840",
      "region": "전라남도"
    },
    {
      "lat": 34.97462087058518,
      "lng": 127.48778466769784,
      "title": "e편한세상순천1단지아파트",
      "description": "전남 순천시 용당삼산로 29",
      "url": "http://place.map.kakao.com/713537690",
      "region": "전라남도"
    },
    {
      "lat": 34.97504044230348,
      "lng": 127.5755898488837,
      "title": "칠성e편한세상아파트",
      "description": "전남 광양시 광양읍 서북2길 115",
      "url": "http://place.map.kakao.com/11321939",
      "region": "전라남도"
    },
    {
      "lat": 34.93920161559347,
      "lng": 127.69899734207316,
      "title": "e편한세상광양아파트",
      "description": "전남 광양시 시청로 62",
      "url": "http://place.map.kakao.com/22676124",
      "region": "전라남도"
    },
    {
      "lat": 35.16554349907341,
      "lng": 126.8783565474947,
      "title": "광천e편한세상아파트 124동",
      "description": "광주 서구 화운로 278",
      "url": "http://place.map.kakao.com/26743765",
      "region": "광주광역시"
    },
    {
      "lat": 35.13890834320031,
      "lng": 126.87839179336953,
      "title": "꽃담마을e편한세상아파트 106동",
      "description": "광주 서구 금화로 293",
      "url": "http://place.map.kakao.com/26677801",
      "region": "광주광역시"
    },
    {
      "lat": 36.085462828099914,
      "lng": 129.39854528288896,
      "title": "양덕2차e편한세상아파트",
      "description": "경북 포항시 북구 천마로90번길 11",
      "url": "http://place.map.kakao.com/11328371",
      "region": "경상북도"
    },
    {
      "lat": 36.08547911846154,
      "lng": 129.4006103646082,
      "title": "포항e편한세상양덕1차아파트",
      "description": "경북 포항시 북구 천마로90번길 33",
      "url": "http://place.map.kakao.com/11354305",
      "region": "경상북도"
    },
    {
      "lat": 36.0856798956159,
      "lng": 129.378443149982,
      "title": "e편한세상포항장성아파트(A-2) (예정)",
      "description": "경북 포항시 북구 장성동 산 50",
      "url": "http://place.map.kakao.com/1767591929",
      "region": "경상북도"
    },
    {
      "lat": 35.87070084176545,
      "lng": 129.21200531867933,
      "title": "e편한세상황성아파트",
      "description": "경북 경주시 강변로 540",
      "url": "http://place.map.kakao.com/24162312",
      "region": "경상북도"
    },
    {
      "lat": 36.1292942291803,
      "lng": 128.31583748939892,
      "title": "남통e편한세상아파트",
      "description": "경북 구미시 선기로 77",
      "url": "http://place.map.kakao.com/11338384",
      "region": "경상북도"
    },
    {
      "lat": 36.156200020220595,
      "lng": 128.31300336991904,
      "title": "e편한세상봉곡아파트",
      "description": "경북 구미시 봉곡로24길 33-11",
      "url": "http://place.map.kakao.com/22447017",
      "region": "경상북도"
    },
    {
      "lat": 36.56897464640163,
      "lng": 128.70360450068884,
      "title": "e편한세상안동1단지아파트",
      "description": "경북 안동시 경동로 404-22",
      "url": "http://place.map.kakao.com/26347119",
      "region": "경상북도"
    },
    {
      "lat": 36.55577445779999,
      "lng": 128.74902668112958,
      "title": "e편한세상안동강변아파트",
      "description": "경북 안동시 중평길 107-16",
      "url": "http://place.map.kakao.com/27496586",
      "region": "경상북도"
    },
    {
      "lat": 36.56957743292279,
      "lng": 128.70461302385922,
      "title": "e편한세상안동2단지아파트",
      "description": "경북 안동시 경동로 404-7",
      "url": "http://place.map.kakao.com/26347111",
      "region": "경상북도"
    },
    {
      "lat": 36.10392748376776,
      "lng": 128.35285343233903,
      "title": "e편한세상금오파크아파트",
      "description": "경북 구미시 새마을로 150",
      "url": "http://place.map.kakao.com/847611675",
      "region": "경상북도"
    },
    {
      "lat": 36.25230758980386,
      "lng": 128.3050016994918,
      "title": "e편한세상구미교리아파트",
      "description": "경북 구미시 선산읍 선산향교길 16",
      "url": "http://place.map.kakao.com/25931989",
      "region": "경상북도"
    },
    {
      "lat": 36.14021310015154,
      "lng": 128.43555861278986,
      "title": "구미옥계e편한세상아파트",
      "description": "경북 구미시 산호대로39길 25",
      "url": "http://place.map.kakao.com/11316288",
      "region": "경상북도"
    },
    {
      "lat": 36.12289426591418,
      "lng": 128.36669967146642,
      "title": "e편한세상구미파크밸리아파트",
      "description": "경북 구미시 신비로7길 10",
      "url": "http://place.map.kakao.com/27149051",
      "region": "경상북도"
    },
    {
      "lat": 36.0841166775028,
      "lng": 128.345659632248,
      "title": "e편한세상구미상모트리베뉴아파트",
      "description": "경북 구미시 모로실로 32-1",
      "url": "http://place.map.kakao.com/825590100",
      "region": "경상북도"
    },
    {
      "lat": 35.962406738382114,
      "lng": 128.94322532861676,
      "title": "e편한세상센텀스타시티영천1블럭아파트",
      "description": "경북 영천시 완산9길 15",
      "url": "http://place.map.kakao.com/1573041021",
      "region": "경상북도"
    },
    {
      "lat": 35.96243432980846,
      "lng": 128.9451368325152,
      "title": "e편한세상센텀스타시티영천2단지아파트",
      "description": "경북 영천시 완산9길 16",
      "url": "http://place.map.kakao.com/622724884",
      "region": "경상북도"
    },
    {
      "lat": 36.6098639630483,
      "lng": 128.20381434482,
      "title": "상무e편한세상아파트",
      "description": "경북 문경시 호서로 177",
      "url": "http://place.map.kakao.com/22047149",
      "region": "경상북도"
    },
    {
      "lat": 35.836201006304776,
      "lng": 128.76800510487504,
      "title": "e편한세상경산신대아파트",
      "description": "경북 경산시 압량읍 압독로 38-10",
      "url": "http://place.map.kakao.com/22758747",
      "region": "경상북도"
    },
    {
      "lat": 35.83131424208457,
      "lng": 128.73655285366985,
      "title": "중방e편한세상3단지아파트",
      "description": "경북 경산시 경안로56길 14",
      "url": "http://place.map.kakao.com/11304818",
      "region": "경상북도"
    },
    {
      "lat": 35.832818241896454,
      "lng": 128.7387324403119,
      "title": "중방e편한세상1단지아파트",
      "description": "경북 경산시 대학로32길 12",
      "url": "http://place.map.kakao.com/11334339",
      "region": "경상북도"
    },
    {
      "lat": 35.83132951944479,
      "lng": 128.73848748937803,
      "title": "중방e편한세상2단지아파트",
      "description": "경북 경산시 대학로28길 31",
      "url": "http://place.map.kakao.com/11321717",
      "region": "경상북도"
    },
    {
      "lat": 35.506561711738094,
      "lng": 128.73220961980135,
      "title": "e편한세상밀양나노밸리아파트",
      "description": "경남 밀양시 창밀로 3518",
      "url": "http://place.map.kakao.com/1823643352",
      "region": "경상남도"
    },
    {
      "lat": 35.48775795616395,
      "lng": 128.74165087444445,
      "title": "e편한세상밀양강아파트",
      "description": "경남 밀양시 점필재로 67",
      "url": "http://place.map.kakao.com/130691804",
      "region": "경상남도"
    },
    {
      "lat": 35.47950724574148,
      "lng": 128.7529451544759,
      "title": "e편한세상밀양삼문아파트",
      "description": "경남 밀양시 미리벌중앙로 10",
      "url": "http://place.map.kakao.com/398113119",
      "region": "경상남도"
    },
    {
      "lat": 35.2214427091826,
      "lng": 128.56967187532678,
      "title": "e편한세상창원파크센트럴아파트",
      "description": "경남 창원시 마산회원구 회원북13길 20",
      "url": "http://place.map.kakao.com/745720767",
      "region": "경상남도"
    },
    {
      "lat": 35.2178031496874,
      "lng": 128.567822683539,
      "title": "e편한세상퍼스트원아파트 (예정)",
      "description": "경남 창원시 마산회원구 회원동 480-31",
      "url": "http://place.map.kakao.com/705904079",
      "region": "경상남도"
    },
    {
      "lat": 35.220221155620564,
      "lng": 128.15300796006332,
      "title": "금산e편한세상아파트",
      "description": "경남 진주시 금산면 금산순환로80번길 16",
      "url": "http://place.map.kakao.com/11498373",
      "region": "경상남도"
    },
    {
      "lat": 35.0481591933971,
      "lng": 128.043802866996,
      "title": "e편한세상사천스카이마리나아파트",
      "description": "경남 사천시 용현면 해안산업로 641",
      "url": "http://place.map.kakao.com/253175219",
      "region": "경상남도"
    },
    {
      "lat": 34.89345449533651,
      "lng": 128.62199358111496,
      "title": "e편한세상거제유로아일랜드아파트",
      "description": "경남 거제시 고현항2로 52",
      "url": "http://place.map.kakao.com/773188161",
      "region": "경상남도"
    },
    {
      "lat": 34.89562296698316,
      "lng": 128.6210473372809,
      "title": "e편한세상거제유로스카이아파트",
      "description": "경남 거제시 고현항2로 51",
      "url": "http://place.map.kakao.com/284165930",
      "region": "경상남도"
    },
    {
      "lat": 34.89544960015025,
      "lng": 128.64021431978557,
      "title": "e편한세상고현아파트",
      "description": "경남 거제시 거제대로 4500-45",
      "url": "http://place.map.kakao.com/26624282",
      "region": "경상남도"
    },
    {
      "lat": 34.9305068907424,
      "lng": 128.085700568796,
      "title": "e편한세상삼천포오션프라임아파트 (2026년03월예정)",
      "description": "경남 사천시 동금동 151-5",
      "url": "http://place.map.kakao.com/564188236",
      "region": "경상남도"
    },
    {
      "lat": 35.224790858038915,
      "lng": 128.87646854385963,
      "title": "e편한세상봉황역아파트",
      "description": "경남 김해시 김해대로2324번길 54-27",
      "url": "http://place.map.kakao.com/26409411",
      "region": "경상남도"
    },
    {
      "lat": 35.1999431540147,
      "lng": 128.81729096073633,
      "title": "e편한세상장유2차아파트",
      "description": "경남 김해시 무계로 47",
      "url": "http://place.map.kakao.com/337557643",
      "region": "경상남도"
    },
    {
      "lat": 35.19339276831764,
      "lng": 128.8104043200765,
      "title": "장유e편한세상아파트",
      "description": "경남 김해시 장유로334번길 76",
      "url": "http://place.map.kakao.com/10730595",
      "region": "경상남도"
    },
    {
      "lat": 35.171396278063,
      "lng": 128.816896796671,
      "title": "율현마을9단지e편한세상아파트",
      "description": "경남 김해시 율하1로 130",
      "url": "http://place.map.kakao.com/14590778",
      "region": "경상남도"
    },
    {
      "lat": 35.2397809387581,
      "lng": 128.837021343862,
      "title": "e편한세상주촌더프리미어아파트 (2025년12월예정)",
      "description": "경남 김해시 주촌면 선지리 323-6",
      "url": "http://place.map.kakao.com/1390586264",
      "region": "경상남도"
    },
    {
      "lat": 35.1710560024566,
      "lng": 128.82083156623497,
      "title": "율현마을11단지율하e편한세상아파트",
      "description": "경남 김해시 율하2로 198",
      "url": "http://place.map.kakao.com/11254425",
      "region": "경상남도"
    },
    {
      "lat": 34.8993078485465,
      "lng": 128.696091422484,
      "title": "e편한세상옥포1단지아파트",
      "description": "경남 거제시 성산로 33",
      "url": "http://place.map.kakao.com/24784872",
      "region": "경상남도"
    },
    {
      "lat": 34.86941295976233,
      "lng": 128.67803749265641,
      "title": "아주e편한세상2단지아파트",
      "description": "경남 거제시 아주2로 137",
      "url": "http://place.map.kakao.com/16761652",
      "region": "경상남도"
    },
    {
      "lat": 34.870331124474035,
      "lng": 128.67759686233467,
      "title": "아주e편한세상1단지아파트",
      "description": "경남 거제시 아주2로 138",
      "url": "http://place.map.kakao.com/16761650",
      "region": "경상남도"
    },
    {
      "lat": 35.334297996646924,
      "lng": 129.01697699528134,
      "title": "양산e편한세상2차아파트",
      "description": "경남 양산시 물금읍 신주로 35",
      "url": "http://place.map.kakao.com/11353771",
      "region": "경상남도"
    },
    {
      "lat": 35.320145096813576,
      "lng": 129.02825369034318,
      "title": "남양산e편한세상1차아파트",
      "description": "경남 양산시 동면 금오16길 65",
      "url": "http://place.map.kakao.com/14084154",
      "region": "경상남도"
    },
    {
      "lat": 35.3196453977034,
      "lng": 129.022796501984,
      "title": "남양산e편한세상2차아파트",
      "description": "경남 양산시 동면 금오13길 71",
      "url": "http://place.map.kakao.com/14757946",
      "region": "경상남도"
    },
    {
      "lat": 35.33386285918576,
      "lng": 129.0261815815513,
      "title": "양산e편한세상1차아파트",
      "description": "경남 양산시 양주로 33",
      "url": "http://place.map.kakao.com/8094368",
      "region": "경상남도"
    },
    {
      "lat": 35.33375744793281,
      "lng": 129.016644649811,
      "title": "양산e편한세상2차아파트 상가",
      "description": "경남 양산시 물금읍 신주로 35-1",
      "url": "http://place.map.kakao.com/23847972",
      "region": "경상남도"
    },
    {
      "lat": 33.48477979614474,
      "lng": 126.46927525946728,
      "title": "노형이편한세상아파트",
      "description": "제주특별자치도 제주시 수덕로 78",
      "url": "http://place.map.kakao.com/8248909",
      "region": "제주특별자치도"
    },
    {
      "lat": 33.48051157970206,
      "lng": 126.4885557118088,
      "title": "대림1차e편한세상아파트",
      "description": "제주특별자치도 제주시 국기로 14",
      "url": "http://place.map.kakao.com/10242011",
      "region": "제주특별자치도"
    },
    {
      "lat": 33.479508979151575,
      "lng": 126.4885486926948,
      "title": "대림2차e편한세상아파트",
      "description": "제주특별자치도 제주시 연화로 25",
      "url": "http://place.map.kakao.com/10248312",
      "region": "제주특별자치도"
    },
    {
      "lat": 33.49490259691073,
      "lng": 126.52239365570517,
      "title": "도남1차e편한세상아파트",
      "description": "제주특별자치도 제주시 오남로 7-13",
      "url": "http://place.map.kakao.com/8259613",
      "region": "제주특별자치도"
    },
    {
      "lat": 33.4836229322947,
      "lng": 126.488326541232,
      "title": "e편한세상연동센트럴메종아파트",
      "description": "제주특별자치도 제주시 연동4길 25",
      "url": "http://place.map.kakao.com/937531787",
      "region": "제주특별자치도"
    },
    {
      "lat": 33.4827292935088,
      "lng": 126.48828768223,
      "title": "e편한세상연동어반센트럴아파트",
      "description": "제주특별자치도 제주시 연동4길 35",
      "url": "http://place.map.kakao.com/937427377",
      "region": "제주특별자치도"
    },
    {
      "lat": 33.49735565661456,
      "lng": 126.5225824960532,
      "title": "도남2차e편한세상아파트",
      "description": "제주특별자치도 제주시 서광로22길 32",
      "url": "http://place.map.kakao.com/7834911",
      "region": "제주특별자치도"
    },
    {
      "lat": 33.48750515999923,
      "lng": 126.49513412123935,
      "title": "e편한세상연동센트럴파크1단지아파트",
      "description": "제주특별자치도 제주시 신대로14길 13",
      "url": "http://place.map.kakao.com/1292346135",
      "region": "제주특별자치도"
    },
    {
      "lat": 33.487991203247745,
      "lng": 126.49515497297008,
      "title": "e편한세상연동센트럴파크2단지아파트",
      "description": "제주특별자치도 제주시 신대로14길 14",
      "url": "http://place.map.kakao.com/2017314129",
      "region": "제주특별자치도"
    },
    {
      "lat": 33.255904679417014,
      "lng": 126.43090977857625,
      "title": "e편한세상중문아파트",
      "description": "제주특별자치도 서귀포시 일주서로731번길 10",
      "url": "http://place.map.kakao.com/813897724",
      "region": "제주특별자치도"
    }
  ]
}