{
  "pins": [
    {
      "latitude": 37.5668369438027,
      "longitude": 126.979367619692,
      "title": "맥도날드 서울시청점",
      "description": "서울 중구 남대문로9길 51"
    },
    {
      "latitude": 37.49864658673187,
      "longitude": 127.02873329209403,
      "title": "맥도날드 강남2호점",
      "description": "서울 강남구 테헤란로 107"
    },
    {
      "latitude": 37.57056758352427,
      "longitude": 126.9904779328265,
      "title": "맥도날드 종로3가점",
      "description": "서울 종로구 종로 115"
    },
    {
      "latitude": 37.5293314748911,
      "longitude": 127.137276627444,
      "title": "맥도날드 서울둔촌DT점",
      "description": "서울 강동구 양재대로 1382"
    },
    {
      "latitude": 37.5162457553437,
      "longitude": 127.041413345131,
      "title": "맥도날드 강남구청점",
      "description": "서울 강남구 선릉로 667"
    },
    {
      "latitude": 37.5109122911237,
      "longitude": 127.04733263226441,
      "title": "맥도날드 강남삼성DT점",
      "description": "서울 강남구 봉은사로 432"
    },
    {
      "latitude": 37.50435990313616,
      "longitude": 127.0769766588255,
      "title": "맥도날드 송파잠실DT점",
      "description": "서울 송파구 도곡로 434"
    },
    {
      "latitude": 37.5583040736413,
      "longitude": 126.859727620441,
      "title": "맥도날드 등촌DT점",
      "description": "서울 강서구 양천로 546"
    },
    {
      "latitude": 37.5641779925965,
      "longitude": 126.984529660329,
      "title": "맥도날드 명동점",
      "description": "서울 중구 명동7길 8"
    },
    {
      "latitude": 37.5135184986792,
      "longitude": 126.943558104375,
      "title": "맥도날드 노량진점",
      "description": "서울 동작구 노량진로 158"
    },
    {
      "latitude": 37.516982785480984,
      "longitude": 126.90767534775247,
      "title": "맥도날드 영등포점",
      "description": "서울 영등포구 경인로 855"
    },
    {
      "latitude": 37.4504681915593,
      "longitude": 126.902734772323,
      "title": "맥도날드 서울시흥DT점",
      "description": "서울 금천구 시흥대로 184"
    },
    {
      "latitude": 37.48197881673212,
      "longitude": 126.93015567293818,
      "title": "맥도날드 신림점",
      "description": "서울 관악구 신림로 310"
    },
    {
      "latitude": 37.51741507668443,
      "longitude": 127.02192751652281,
      "title": "맥도날드 신사역점",
      "description": "서울 강남구 도산대로 123"
    },
    {
      "latitude": 37.5149209776624,
      "longitude": 127.099371257798,
      "title": "맥도날드 잠실역점",
      "description": "서울 송파구 송파대로 558"
    },
    {
      "latitude": 37.5473004981961,
      "longitude": 127.073129185972,
      "title": "맥도날드 어린이대공원점",
      "description": "서울 광진구 광나루로 392"
    },
    {
      "latitude": 37.50025117773754,
      "longitude": 126.92009852892339,
      "title": "맥도날드 보라매점",
      "description": "서울 영등포구 여의대방로 145"
    },
    {
      "latitude": 37.55856058625979,
      "longitude": 126.9367843937591,
      "title": "맥도날드 연세대점",
      "description": "서울 서대문구 연세로 33"
    },
    {
      "latitude": 37.63789160449129,
      "longitude": 127.02595210704666,
      "title": "맥도날드 수유점",
      "description": "서울 강북구 도봉로 342"
    },
    {
      "latitude": 37.4781698603516,
      "longitude": 127.039547238523,
      "title": "맥도날드 양재SK DT점",
      "description": "서울 서초구 바우뫼로 178"
    },
    {
      "latitude": 37.5340167272809,
      "longitude": 126.989699646402,
      "title": "맥도날드 이태원점",
      "description": "서울 용산구 이태원로 142-1"
    },
    {
      "latitude": 37.5308588619941,
      "longitude": 126.893457396957,
      "title": "맥도날드 양평SK DT점",
      "description": "서울 영등포구 선유로 195"
    },
    {
      "latitude": 37.5472508507001,
      "longitude": 127.143098792431,
      "title": "맥도날드 굽은다리역DT점",
      "description": "서울 강동구 양재대로 1587"
    },
    {
      "latitude": 37.4951364047689,
      "longitude": 126.956906603023,
      "title": "맥도날드 숭실대점",
      "description": "서울 동작구 사당로 22"
    },
    {
      "latitude": 37.5035719753543,
      "longitude": 127.04690276073,
      "title": "맥도날드 선릉점",
      "description": "서울 강남구 테헤란로 326"
    },
    {
      "latitude": 37.4852189404974,
      "longitude": 126.894978549527,
      "title": "맥도날드 구로디지털점",
      "description": "서울 구로구 디지털로31길 12"
    },
    {
      "latitude": 37.582865621277,
      "longitude": 127.002101267647,
      "title": "맥도날드 대학로점",
      "description": "서울 종로구 대학로 130"
    },
    {
      "latitude": 37.5476569432952,
      "longitude": 126.871566161306,
      "title": "맥도날드 염창DT점",
      "description": "서울 강서구 공항대로71길 3"
    },
    {
      "latitude": 37.52598765293301,
      "longitude": 126.925934554003,
      "title": "맥도날드 여의도점",
      "description": "서울 영등포구 국제금융로 10"
    },
    {
      "latitude": 37.528149629058746,
      "longitude": 126.86373241338259,
      "title": "맥도날드 목동점",
      "description": "서울 양천구 목동로 221"
    },
    {
      "latitude": 37.5957515749764,
      "longitude": 127.035917942119,
      "title": "맥도날드 종암SKDT점",
      "description": "서울 성북구 종암로 58"
    },
    {
      "latitude": 37.48464233587453,
      "longitude": 126.98064641265356,
      "title": "맥도날드 이수점",
      "description": "서울 동작구 사당로 300"
    },
    {
      "latitude": 37.580469959324276,
      "longitude": 126.88995304722175,
      "title": "맥도날드 서울상암DMC점",
      "description": "서울 마포구 월드컵북로 400"
    },
    {
      "latitude": 37.5114234178882,
      "longitude": 127.082839452637,
      "title": "맥도날드 신천점",
      "description": "서울 송파구 올림픽로 108"
    },
    {
      "latitude": 37.5060176551338,
      "longitude": 127.109126654708,
      "title": "맥도날드 석촌역점",
      "description": "서울 송파구 백제고분로 390"
    },
    {
      "latitude": 37.53142203806361,
      "longitude": 126.83095181926853,
      "title": "맥도날드 신월DT점",
      "description": "서울 양천구 남부순환로 404"
    },
    {
      "latitude": 37.554271552328366,
      "longitude": 126.9704644811706,
      "title": "맥도날드 서울역점",
      "description": "서울 중구 한강대로 405"
    },
    {
      "latitude": 37.541068262776854,
      "longitude": 126.9470846462646,
      "title": "맥도날드 공덕점",
      "description": "서울 마포구 마포대로 53"
    },
    {
      "latitude": 37.48656717239016,
      "longitude": 127.00973866478523,
      "title": "맥도날드 서초GS점",
      "description": "서울 서초구 반포대로 69"
    },
    {
      "latitude": 37.545125488746436,
      "longitude": 126.83747836513412,
      "title": "맥도날드 우장산DT점",
      "description": "서울 강서구 강서로 216"
    },
    {
      "latitude": 37.5935308967985,
      "longitude": 127.075457137376,
      "title": "맥도날드 중랑점",
      "description": "서울 중랑구 망우로 202"
    },
    {
      "latitude": 37.497200859037186,
      "longitude": 126.86355910584498,
      "title": "맥도날드 고척DT점",
      "description": "서울 구로구 경인로 393"
    },
    {
      "latitude": 37.48232289779557,
      "longitude": 127.03582400254028,
      "title": "맥도날드 양재점",
      "description": "서울 서초구 강남대로 213"
    },
    {
      "latitude": 37.617587448962,
      "longitude": 126.919285602014,
      "title": "맥도날드 연신내점",
      "description": "서울 은평구 연서로 213"
    },
    {
      "latitude": 37.5616938247956,
      "longitude": 126.809676409986,
      "title": "맥도날드 송정역점",
      "description": "서울 강서구 공항대로 21"
    },
    {
      "latitude": 35.154568093052134,
      "longitude": 129.0610856313016,
      "title": "맥도날드 서면3호점",
      "description": "부산 부산진구 중앙대로692번길 33"
    },
    {
      "latitude": 35.11728014176137,
      "longitude": 129.04130994018306,
      "title": "맥도날드 부산초량DT점",
      "description": "부산 동구 중앙대로 228"
    },
    {
      "latitude": 35.1653481027459,
      "longitude": 129.064294341814,
      "title": "맥도날드 부산범전DT점",
      "description": "부산 부산진구 중앙대로 823"
    },
    {
      "latitude": 35.1601742668249,
      "longitude": 129.159643755784,
      "title": "맥도날드 해운대DT점",
      "description": "부산 해운대구 해운대로570번길 51"
    },
    {
      "latitude": 35.18073760162053,
      "longitude": 129.07707444209333,
      "title": "맥도날드 시청DT점",
      "description": "부산 연제구 중앙대로 1031"
    },
    {
      "latitude": 35.258939230231,
      "longitude": 129.091104453018,
      "title": "맥도날드 부산구서DT점",
      "description": "부산 금정구 중앙대로 1957"
    },
    {
      "latitude": 35.16823352060923,
      "longitude": 129.11417881288622,
      "title": "맥도날드 부산수영SK DT점",
      "description": "부산 수영구 연수로 411"
    },
    {
      "latitude": 35.09742655281154,
      "longitude": 128.92259677701662,
      "title": "맥도날드 부산명지DT점",
      "description": "부산 강서구 명지국제8로 272"
    },
    {
      "latitude": 35.2063597252226,
      "longitude": 129.073891822183,
      "title": "맥도날드 부산온천SK DT점",
      "description": "부산 동래구 충렬대로 121"
    },
    {
      "latitude": 35.1375280951125,
      "longitude": 129.064043509071,
      "title": "맥도날드 범일SK DT점",
      "description": "부산 동구 자성로 127"
    },
    {
      "latitude": 35.194400902496305,
      "longitude": 129.11093555764816,
      "title": "맥도날드 원동점",
      "description": "부산 동래구 충렬대로 486"
    },
    {
      "latitude": 35.21942464187784,
      "longitude": 129.00648785496045,
      "title": "맥도날드 부산덕천DT점",
      "description": "부산 북구 금곡대로 107"
    },
    {
      "latitude": 35.09284225115668,
      "longitude": 129.04541954443434,
      "title": "맥도날드 부산영도DT점",
      "description": "부산 영도구 태종로 150"
    },
    {
      "latitude": 35.14786625257804,
      "longitude": 129.1106849704894,
      "title": "맥도날드 부산남천DT점",
      "description": "부산 수영구 수영로 470"
    },
    {
      "latitude": 35.1228775635728,
      "longitude": 129.099566305057,
      "title": "맥도날드 부산동명대DT점",
      "description": "부산 남구 신선로 424"
    },
    {
      "latitude": 35.10418318308523,
      "longitude": 128.97098868444778,
      "title": "맥도날드 부산하단DT점",
      "description": "부산 사하구 낙동대로 431"
    },
    {
      "latitude": 35.1925772390369,
      "longitude": 129.079473695928,
      "title": "맥도날드 부산교대DT점",
      "description": "부산 연제구 중앙대로 1179"
    },
    {
      "latitude": 35.22957414776247,
      "longitude": 129.08747293016128,
      "title": "맥도날드 부산대2점",
      "description": "부산 금정구 금정로60번길 24"
    },
    {
      "latitude": 35.1368260432761,
      "longitude": 129.09944182685,
      "title": "맥도날드 경성대점",
      "description": "부산 남구 수영로 304"
    },
    {
      "latitude": 35.1553119789163,
      "longitude": 129.038377714581,
      "title": "맥도날드 가야점",
      "description": "부산 부산진구 가야대로 607"
    },
    {
      "latitude": 35.15100019477056,
      "longitude": 129.01271041587623,
      "title": "맥도날드 주례점",
      "description": "부산 사상구 가야대로 368"
    },
    {
      "latitude": 35.16182200235073,
      "longitude": 129.17090754329152,
      "title": "맥도날드 달맞이DT점",
      "description": "부산 해운대구 좌동순환로 455"
    },
    {
      "latitude": 35.1845217591654,
      "longitude": 129.201739000939,
      "title": "맥도날드 부산송정DT점",
      "description": "부산 해운대구 해운대로 1114"
    },
    {
      "latitude": 35.1656672884015,
      "longitude": 129.039500939566,
      "title": "맥도날드 당감DT점",
      "description": "부산 부산진구 동평로 91"
    },
    {
      "latitude": 35.1280015295568,
      "longitude": 128.969157056321,
      "title": "맥도날드 부산엄궁DT점",
      "description": "부산 사상구 낙동대로 745"
    },
    {
      "latitude": 35.1959096739023,
      "longitude": 129.060610396071,
      "title": "맥도날드 사직점",
      "description": "부산 동래구 사직북로 1"
    },
    {
      "latitude": 35.1987391049499,
      "longitude": 128.99608813002,
      "title": "맥도날드 부산구남DT점",
      "description": "부산 북구 백양대로 1045"
    },
    {
      "latitude": 35.239665158988025,
      "longitude": 129.22048331290264,
      "title": "맥도날드 부산기장DT점",
      "description": "부산 기장군 기장읍 기장대로 500"
    },
    {
      "latitude": 35.3206323289449,
      "longitude": 129.177383316455,
      "title": "맥도날드 부산정관DT점",
      "description": "부산 기장군 정관읍 정관로 584"
    },
    {
      "latitude": 35.1449532734474,
      "longitude": 129.097846939407,
      "title": "맥도날드 부산황령DT점",
      "description": "부산 남구 황령대로 374"
    },
    {
      "latitude": 35.11288692500131,
      "longitude": 128.96432299127707,
      "title": "맥도날드 동아대점",
      "description": "부산 사하구 낙동대로 548"
    },
    {
      "latitude": 35.194378856207,
      "longitude": 129.06709701169314,
      "title": "맥도날드 부산사직DT점",
      "description": "부산 동래구 아시아드대로 110"
    },
    {
      "latitude": 35.18788545522356,
      "longitude": 129.102503507519,
      "title": "맥도날드 토곡점",
      "description": "부산 연제구 과정로 226"
    },
    {
      "latitude": 35.240434199394244,
      "longitude": 129.0143604717426,
      "title": "맥도날드 화명DT점",
      "description": "부산 북구 금곡대로 360"
    },
    {
      "latitude": 35.2395339885718,
      "longitude": 129.092042720968,
      "title": "맥도날드 부곡점",
      "description": "부산 금정구 수림로 6"
    },
    {
      "latitude": 35.177905492004335,
      "longitude": 129.17602947154964,
      "title": "맥도날드 좌동1점",
      "description": "부산 해운대구 좌동순환로 181"
    },
    {
      "latitude": 35.1820074465085,
      "longitude": 129.048027310929,
      "title": "맥도날드 초읍DT점",
      "description": "부산 부산진구 성지로 152"
    },
    {
      "latitude": 35.05874408081043,
      "longitude": 128.97150348697065,
      "title": "맥도날드 부산다대DT점",
      "description": "부산 사하구 다대로 532-1"
    },
    {
      "latitude": 35.1172147306294,
      "longitude": 129.041341210779,
      "title": "맥도날드 부산초량DT점 주차장",
      "description": "부산 동구 중앙대로 228"
    },
    {
      "latitude": 35.2194785350719,
      "longitude": 129.006444157892,
      "title": "맥도날드 부산덕천DT점 주차장",
      "description": "부산 북구 금곡대로 107"
    },
    {
      "latitude": 35.1374681922347,
      "longitude": 129.064280051585,
      "title": "맥도날드 범일SK DT점 주차장",
      "description": "부산 동구 범일동 828-8"
    },
    {
      "latitude": 35.16547829715645,
      "longitude": 129.06453357517756,
      "title": "맥도날드 부산범전DT점 주차장",
      "description": "부산 부산진구 범전동 383-29"
    },
    {
      "latitude": 35.0926925584303,
      "longitude": 129.045371947673,
      "title": "맥도날드 부산영도DT점 주차장",
      "description": "부산 영도구 봉래동3가 82-2"
    },
    {
      "latitude": 35.2404885957009,
      "longitude": 129.014557337447,
      "title": "맥도날드 화명DT점 주차장",
      "description": "부산 북구 화명동 193-1"
    },
    {
      "latitude": 35.1684268563391,
      "longitude": 129.114357213566,
      "title": "맥도날드 부산수영SK DT점 주차장",
      "description": "부산 수영구 수영동 450-9"
    },
    {
      "latitude": 35.85999184248239,
      "longitude": 128.61913001031894,
      "title": "맥도날드 대구수성DT점",
      "description": "대구 수성구 달구벌대로 2345"
    },
    {
      "latitude": 35.81388998304996,
      "longitude": 128.52177112362122,
      "title": "맥도날드 대구진천DT점",
      "description": "대구 달서구 월배로 67"
    },
    {
      "latitude": 35.886872359560925,
      "longitude": 128.5916638476703,
      "title": "맥도날드 대구침산DT점",
      "description": "대구 북구 침산로 120"
    },
    {
      "latitude": 35.8690959404402,
      "longitude": 128.595096792387,
      "title": "맥도날드 동성로2호점",
      "description": "대구 중구 동성로 23-2"
    },
    {
      "latitude": 35.8446783842317,
      "longitude": 128.537459283725,
      "title": "맥도날드 대구본리DT점",
      "description": "대구 달서구 와룡로 134"
    },
    {
      "latitude": 35.8546914323943,
      "longitude": 128.550125617374,
      "title": "맥도날드 대구두류DT점",
      "description": "대구 달서구 달구벌대로 1684"
    },
    {
      "latitude": 35.85338794550715,
      "longitude": 128.59028242692642,
      "title": "맥도날드 대구교대DT점",
      "description": "대구 남구 중앙대로 225"
    },
    {
      "latitude": 35.8697429484107,
      "longitude": 128.728228698394,
      "title": "맥도날드 대구동호DT점",
      "description": "대구 동구 안심로 403"
    },
    {
      "latitude": 35.9326623902593,
      "longitude": 128.549550291913,
      "title": "맥도날드 칠곡2DT점",
      "description": "대구 북구 구암로 83"
    },
    {
      "latitude": 35.86632915752824,
      "longitude": 128.55526336904933,
      "title": "맥도날드 대구평리DT점",
      "description": "대구 서구 서대구로 95"
    },
    {
      "latitude": 35.840767613761074,
      "longitude": 128.70696174976044,
      "title": "맥도날드 대구시지DT점",
      "description": "대구 수성구 달구벌대로 3199"
    },
    {
      "latitude": 35.892277351532115,
      "longitude": 128.62303763857335,
      "title": "맥도날드 대구복현DT점",
      "description": "대구 북구 동북로 303"
    },
    {
      "latitude": 35.839811328587984,
      "longitude": 128.62529472982348,
      "title": "맥도날드 대구황금DT점",
      "description": "대구 수성구 청수로 157"
    },
    {
      "latitude": 35.8228681483277,
      "longitude": 128.533404742467,
      "title": "맥도날드 대구상인DT점",
      "description": "대구 달서구 월곡로 338"
    },
    {
      "latitude": 35.88107886840048,
      "longitude": 128.6667906279562,
      "title": "맥도날드 방촌DT점",
      "description": "대구 동구 동촌로 243"
    },
    {
      "latitude": 35.8574453289031,
      "longitude": 128.53080269363437,
      "title": "맥도날드 용산DT점",
      "description": "대구 달서구 용산로 222"
    },
    {
      "latitude": 35.84672771991593,
      "longitude": 128.61331845570032,
      "title": "맥도날드 대구희망DT점",
      "description": "대구 수성구 수성로 238"
    },
    {
      "latitude": 35.92276561888502,
      "longitude": 128.54650989118844,
      "title": "맥도날드 대구태전DT점",
      "description": "대구 북구 칠곡중앙대로 303"
    },
    {
      "latitude": 35.8550672005419,
      "longitude": 128.5082892309921,
      "title": "맥도날드 대구이곡DT점",
      "description": "대구 달서구 이곡공원로 8"
    },
    {
      "latitude": 35.85649686854394,
      "longitude": 128.65008117148685,
      "title": "맥도날드 대구만촌DT점",
      "description": "대구 수성구 달구벌대로 2634"
    },
    {
      "latitude": 35.86175400278668,
      "longitude": 128.4615435571177,
      "title": "맥도날드 대구다사DT점",
      "description": "대구 달성군 다사읍 달구벌대로 825"
    },
    {
      "latitude": 35.840045306705,
      "longitude": 128.491218778789,
      "title": "맥도날드 대구모다DT점",
      "description": "대구 달서구 달서대로 455"
    },
    {
      "latitude": 35.87113777739087,
      "longitude": 128.63689965466105,
      "title": "맥도날드 만촌이마트점",
      "description": "대구 수성구 동원로 136"
    },
    {
      "latitude": 35.6917384388378,
      "longitude": 128.444459291333,
      "title": "맥도날드 대구현풍DT점",
      "description": "대구 달성군 현풍읍 비슬로 592"
    },
    {
      "latitude": 35.8407882015984,
      "longitude": 128.707098317238,
      "title": "맥도날드 대구시지DT점 주차장",
      "description": "대구 수성구 달구벌대로 3199"
    },
    {
      "latitude": 35.860024664968485,
      "longitude": 128.61930226311475,
      "title": "맥도날드 대구수성DT점 주차장",
      "description": "대구 수성구 달구벌대로469길 13"
    },
    {
      "latitude": 35.8811143193099,
      "longitude": 128.666833447778,
      "title": "맥도날드 방촌DT점 주차장",
      "description": "대구 동구 동촌로 243"
    },
    {
      "latitude": 35.8467165838267,
      "longitude": 128.613141139422,
      "title": "맥도날드 대구희망DT점 주차장",
      "description": "대구 수성구 중동 70-1"
    },
    {
      "latitude": 35.8397703598984,
      "longitude": 128.625458794889,
      "title": "맥도날드 대구황금DT점 주차장",
      "description": "대구 수성구 청수로 157"
    },
    {
      "latitude": 35.8869115856026,
      "longitude": 128.591491881537,
      "title": "맥도날드 대구침산DT점 주차장",
      "description": "대구 북구 침산동 244-6"
    },
    {
      "latitude": 35.8445448285749,
      "longitude": 128.5375441427,
      "title": "맥도날드 대구본리DT점 주차장",
      "description": "대구 달서구 감삼동 346"
    },
    {
      "latitude": 35.8664516827718,
      "longitude": 128.555265763614,
      "title": "맥도날드 대구평리DT점 주차장",
      "description": "대구 서구 평리동 1407-1"
    },
    {
      "latitude": 35.9227826305678,
      "longitude": 128.546308586866,
      "title": "맥도날드 대구태전DT점 주차장",
      "description": "대구 북구 태전동 409-12"
    },
    {
      "latitude": 35.8533928235401,
      "longitude": 128.590050072516,
      "title": "맥도날드 대구교대DT점 주차장",
      "description": "대구 남구 대명동 1793-5"
    },
    {
      "latitude": 35.8140466538407,
      "longitude": 128.521639135632,
      "title": "맥도날드 대구진천DT점 주차장",
      "description": "대구 달서구 진천동 599-1"
    },
    {
      "latitude": 35.8564399914557,
      "longitude": 128.650088848106,
      "title": "맥도날드 대구만촌DT점 주차장",
      "description": "대구 수성구 달구벌대로 2634"
    },
    {
      "latitude": 35.822875491989,
      "longitude": 128.533535450594,
      "title": "맥도날드 대구상인DT점 주차장",
      "description": "대구 달서구 상인동 54-2"
    },
    {
      "latitude": 35.8551149876069,
      "longitude": 128.508430719098,
      "title": "맥도날드 대구이곡DT점 주차장",
      "description": "대구 달서구 이곡동 1244-3"
    },
    {
      "latitude": 37.450006237925805,
      "longitude": 126.69383668749326,
      "title": "맥도날드 인천구월DT점",
      "description": "인천 남동구 인주대로 514"
    },
    {
      "latitude": 37.541304250681165,
      "longitude": 126.67635637129021,
      "title": "맥도날드 연희DT점",
      "description": "인천 서구 서곶로 265"
    },
    {
      "latitude": 37.3850862860298,
      "longitude": 126.644556560233,
      "title": "맥도날드 송도GS DT점",
      "description": "인천 연수구 하모니로 128"
    },
    {
      "latitude": 37.438205436282,
      "longitude": 126.688907288716,
      "title": "맥도날드 문학DT점",
      "description": "인천 미추홀구 매소홀로 600"
    },
    {
      "latitude": 37.4600422591238,
      "longitude": 126.723684042399,
      "title": "맥도날드 만수DT점",
      "description": "인천 남동구 백범로 229"
    },
    {
      "latitude": 37.5174496391993,
      "longitude": 126.649589982095,
      "title": "맥도날드 인천청라DT점",
      "description": "인천 서구 원창로 8"
    },
    {
      "latitude": 37.4840570246106,
      "longitude": 126.751785059807,
      "title": "맥도날드 인천구산DT점",
      "description": "인천 부평구 경인로 1191"
    },
    {
      "latitude": 37.4901034896745,
      "longitude": 126.723695467163,
      "title": "맥도날드 부평역점",
      "description": "인천 부평구 광장로 16"
    },
    {
      "latitude": 37.5343180359027,
      "longitude": 126.738195512467,
      "title": "맥도날드 인천계산DT점",
      "description": "인천 계양구 오조산로 39"
    },
    {
      "latitude": 37.44691268063027,
      "longitude": 126.7075595776843,
      "title": "맥도날드 구월아시아드DT점",
      "description": "인천 남동구 남동대로 724"
    },
    {
      "latitude": 37.4746216607089,
      "longitude": 126.630453827523,
      "title": "맥도날드 동인천점",
      "description": "인천 중구 우현로 85-1"
    },
    {
      "latitude": 37.50010572558211,
      "longitude": 126.72262271603255,
      "title": "맥도날드 부평SK DT점",
      "description": "인천 부평구 부평대로 96"
    },
    {
      "latitude": 37.49414481635693,
      "longitude": 126.72344763391355,
      "title": "맥도날드 부평중앙점",
      "description": "인천 부평구 부평문화로 65"
    },
    {
      "latitude": 37.5195150712948,
      "longitude": 126.732767768495,
      "title": "맥도날드 인천삼산DT점",
      "description": "인천 부평구 장제로 380"
    },
    {
      "latitude": 37.4148731951995,
      "longitude": 126.676966685397,
      "title": "맥도날드 연수GS DT점",
      "description": "인천 연수구 먼우금로 200"
    },
    {
      "latitude": 37.4569960330556,
      "longitude": 126.634464774561,
      "title": "맥도날드 신흥DT점",
      "description": "인천 중구 인항로 38"
    },
    {
      "latitude": 37.42814012852682,
      "longitude": 126.65417679628052,
      "title": "맥도날드 인천옥련DT점",
      "description": "인천 연수구 비류대로 176"
    },
    {
      "latitude": 37.451896682898294,
      "longitude": 126.70199331233653,
      "title": "맥도날드 씨앤씨점",
      "description": "인천 남동구 예술로 198"
    },
    {
      "latitude": 37.49010499071525,
      "longitude": 126.56010661837682,
      "title": "맥도날드 인천영종하늘도시점",
      "description": "인천 중구 하늘중앙로 197"
    },
    {
      "latitude": 37.4803150097872,
      "longitude": 126.698650378511,
      "title": "맥도날드 인천간석DT점",
      "description": "인천 부평구 경원대로 1122"
    },
    {
      "latitude": 37.4039703012009,
      "longitude": 126.680727117911,
      "title": "맥도날드 연수이마트점",
      "description": "인천 연수구 경원대로 184"
    },
    {
      "latitude": 37.4499818962641,
      "longitude": 126.693831136007,
      "title": "맥도날드 구월DT점 주차장",
      "description": "인천 남동구 인주대로 514"
    },
    {
      "latitude": 37.5415122077236,
      "longitude": 126.676293238876,
      "title": "맥도날드 연희DT점 주차장",
      "description": "인천 서구 심곡동 255-2"
    },
    {
      "latitude": 37.4468198633937,
      "longitude": 126.707554288515,
      "title": "맥도날드 구월아시아드DT점 주차장",
      "description": "인천 남동구 구월동 1185-1"
    },
    {
      "latitude": 37.4570393646807,
      "longitude": 126.634491689489,
      "title": "맥도날드 신흥DT점 주차장",
      "description": "인천 중구 인항로 38"
    },
    {
      "latitude": 37.4382342439351,
      "longitude": 126.688555751371,
      "title": "맥도날드 문학DT점 주차장",
      "description": "인천 미추홀구 문학동 381-7"
    },
    {
      "latitude": 37.5343142814248,
      "longitude": 126.738127640927,
      "title": "맥도날드 인천계산DT점 주차장",
      "description": "인천 계양구 오조산로 39"
    },
    {
      "latitude": 37.460075128242,
      "longitude": 126.723483859907,
      "title": "맥도날드 만수DT점 주차장",
      "description": "인천 남동구 만수동 904-4"
    },
    {
      "latitude": 37.519241220505,
      "longitude": 126.732791368791,
      "title": "맥도날드 인천삼산DT점 주차장",
      "description": "인천 부평구 삼산동 226-2"
    },
    {
      "latitude": 35.145899423794,
      "longitude": 126.889827097919,
      "title": "맥도날드 광주월산DT점",
      "description": "광주 남구 대남대로 393"
    },
    {
      "latitude": 35.1658509418612,
      "longitude": 126.801364717959,
      "title": "맥도날드 광주산정DT점",
      "description": "광주 광산구 용아로 251"
    },
    {
      "latitude": 35.179484316971,
      "longitude": 126.912217140276,
      "title": "맥도날드 전남대DT점",
      "description": "광주 북구 우치로 134"
    },
    {
      "latitude": 35.151488905004925,
      "longitude": 126.86261468332441,
      "title": "맥도날드 광주쌍촌DT점",
      "description": "광주 서구 상무대로 921-1"
    },
    {
      "latitude": 35.2117104298653,
      "longitude": 126.87179915924328,
      "title": "맥도날드 광주첨단DT점",
      "description": "광주 북구 임방울대로 1048"
    },
    {
      "latitude": 35.153745046913265,
      "longitude": 126.84757311363052,
      "title": "맥도날드 상무대점",
      "description": "광주 서구 치평로 72"
    },
    {
      "latitude": 35.1723638697505,
      "longitude": 126.862176707231,
      "title": "맥도날드 광주동림DT점",
      "description": "광주 북구 하남대로 635"
    },
    {
      "latitude": 35.12164380421147,
      "longitude": 126.89813816298262,
      "title": "맥도날드 광주진월DT점",
      "description": "광주 남구 서문대로 697"
    },
    {
      "latitude": 35.18493761614587,
      "longitude": 126.87018118304204,
      "title": "맥도날드 광주운암DT점",
      "description": "광주 북구 북문대로187번길 2"
    },
    {
      "latitude": 35.185078901065275,
      "longitude": 126.89822595298624,
      "title": "맥도날드 용봉DT점",
      "description": "광주 북구 설죽로 289"
    },
    {
      "latitude": 35.1795023790826,
      "longitude": 126.91226542558,
      "title": "맥도날드 전남대DT점 주차장",
      "description": "광주 북구 우치로 134"
    },
    {
      "latitude": 35.1658529352853,
      "longitude": 126.801481063943,
      "title": "맥도날드 광주산정DT점 주차장",
      "description": "광주 광산구 산정동 143-16"
    },
    {
      "latitude": 35.1216240175244,
      "longitude": 126.89818974931,
      "title": "맥도날드 광주진월DT점 주차장",
      "description": "광주 남구 서문대로 697"
    },
    {
      "latitude": 35.1458542899179,
      "longitude": 126.889754731511,
      "title": "맥도날드 광주월산DT점 주차장",
      "description": "광주 남구 대남대로 393"
    },
    {
      "latitude": 35.211662618789,
      "longitude": 126.871761893329,
      "title": "맥도날드 광주첨단DT점 주차장",
      "description": "광주 북구 임방울대로 1048"
    },
    {
      "latitude": 35.1850440723334,
      "longitude": 126.870271042254,
      "title": "맥도날드 광주운암DT점 주차장",
      "description": "광주 북구 운암동 1078-2"
    },
    {
      "latitude": 35.172340539393,
      "longitude": 126.862268956568,
      "title": "맥도날드 광주동림DT점 주차장",
      "description": "광주 북구 하남대로 635"
    },
    {
      "latitude": 36.3543866426275,
      "longitude": 127.340379186801,
      "title": "맥도날드 대전유성DT점",
      "description": "대전 유성구 계룡로87번길 3"
    },
    {
      "latitude": 36.33439279748231,
      "longitude": 127.38892773742452,
      "title": "맥도날드 대전가장DT점",
      "description": "대전 서구 도산로 324"
    },
    {
      "latitude": 36.432674179533095,
      "longitude": 127.42316371004583,
      "title": "맥도날드 대전신탄진DT점",
      "description": "대전 대덕구 신탄진로 605"
    },
    {
      "latitude": 36.319822360697664,
      "longitude": 127.43177233174892,
      "title": "맥도날드 대전부사DT점",
      "description": "대전 중구 충무로 139"
    },
    {
      "latitude": 36.358447555501,
      "longitude": 127.421186136201,
      "title": "맥도날드 대전한남대DT점",
      "description": "대전 대덕구 한밭대로 1102"
    },
    {
      "latitude": 36.3242167464405,
      "longitude": 127.4193001819,
      "title": "맥도날드 대전센트럴DT점",
      "description": "대전 중구 중앙로 64"
    },
    {
      "latitude": 36.303660591306,
      "longitude": 127.3483630592118,
      "title": "맥도날드 대전가수원DT점",
      "description": "대전 서구 계백로 1124"
    },
    {
      "latitude": 36.3805073124227,
      "longitude": 127.378371441189,
      "title": "맥도날드 대전카이스트DT점",
      "description": "대전 유성구 대덕대로 535"
    },
    {
      "latitude": 36.31742206388121,
      "longitude": 127.39243354837863,
      "title": "맥도날드 대전유천DT점",
      "description": "대전 중구 계백로 1549"
    },
    {
      "latitude": 36.3499088178479,
      "longitude": 127.437030615592,
      "title": "맥도날드 대전터미널점",
      "description": "대전 동구 동서대로 1689"
    },
    {
      "latitude": 36.3516646722561,
      "longitude": 127.39553529928,
      "title": "맥도날드 세이브존대전점",
      "description": "대전 서구 둔산로 201"
    },
    {
      "latitude": 36.3302892752187,
      "longitude": 127.337797356846,
      "title": "맥도날드 목원대점",
      "description": "대전 유성구 도안북로 81"
    },
    {
      "latitude": 36.3343673310192,
      "longitude": 127.388445332393,
      "title": "맥도날드 대전가장DT점 주차장",
      "description": "대전 서구 가장동 54-9"
    },
    {
      "latitude": 36.3174721452026,
      "longitude": 127.392550723895,
      "title": "맥도날드 대전유천DT점 주차장",
      "description": "대전 중구 유천동 327-33"
    },
    {
      "latitude": 36.3806590173337,
      "longitude": 127.378274102967,
      "title": "맥도날드 대전카이스트점 주차장",
      "description": "대전 유성구 가정동 2-23"
    },
    {
      "latitude": 36.4327755897477,
      "longitude": 127.423282472767,
      "title": "맥도날드 대전신탄진DT점 주차장",
      "description": "대전 대덕구 상서동 834-5"
    },
    {
      "latitude": 36.3196913586255,
      "longitude": 127.431864037691,
      "title": "맥도날드 대전부사DT점 주차장",
      "description": "대전 중구 부사동 87-14"
    },
    {
      "latitude": 36.3583757144021,
      "longitude": 127.42111444367,
      "title": "맥도날드 대전한남대DT점 주차장",
      "description": "대전 대덕구 중리동 230-15"
    },
    {
      "latitude": 36.3034629784796,
      "longitude": 127.348450136486,
      "title": "맥도날드 대전가수원DT점 주차장",
      "description": "대전 서구 가수원동 655-4"
    },
    {
      "latitude": 36.3288664012632,
      "longitude": 127.337447072077,
      "title": "투루카 목원대학교 정문(맥도날드 옆 방문자주차장)",
      "description": "대전 서구 도안북로 88"
    },
    {
      "latitude": 36.3300007647451,
      "longitude": 127.337525470958,
      "title": "투루카 목원대학교 정문(맥도날드 옆 공한지 주차장)",
      "description": "대전 서구 도안동 1557"
    },
    {
      "latitude": 35.5380394065796,
      "longitude": 129.332323633917,
      "title": "맥도날드 울산삼산로DT점",
      "description": "울산 남구 삼산로 230"
    },
    {
      "latitude": 35.542633924505004,
      "longitude": 129.339157488091,
      "title": "맥도날드 울산삼산DT점",
      "description": "울산 남구 화합로 201"
    },
    {
      "latitude": 35.556549927425735,
      "longitude": 129.26241308831584,
      "title": "맥도날드 울산굴화DT점",
      "description": "울산 울주군 범서읍 울밀로 2877"
    },
    {
      "latitude": 35.5351613504821,
      "longitude": 129.321966267469,
      "title": "맥도날드 달동점",
      "description": "울산 남구 신정로 37"
    },
    {
      "latitude": 35.568512707673015,
      "longitude": 129.34502028601,
      "title": "맥도날드 울산병영점",
      "description": "울산 중구 번영로 576"
    },
    {
      "latitude": 35.53387145204353,
      "longitude": 129.29994825157087,
      "title": "맥도날드 울산옥동DT점",
      "description": "울산 남구 문수로423번길 2"
    },
    {
      "latitude": 35.541137376286514,
      "longitude": 129.261869702937,
      "title": "맥도날드 울산옥현점",
      "description": "울산 남구 옥현로58번길 4"
    },
    {
      "latitude": 35.5809561280662,
      "longitude": 129.347477746384,
      "title": "맥도날드 울산서동DT점",
      "description": "울산 중구 북부순환도로 891"
    },
    {
      "latitude": 35.635771097353214,
      "longitude": 129.34527031247157,
      "title": "맥도날드 울산호계SKDT점",
      "description": "울산 북구 신천동 451-2"
    },
    {
      "latitude": 35.5326826200616,
      "longitude": 129.31563797999445,
      "title": "맥도날드 울산SKDT점",
      "description": "울산 남구 중앙로 126"
    },
    {
      "latitude": 35.49837812327498,
      "longitude": 129.42828378004776,
      "title": "맥도날드 울산일산DT점",
      "description": "울산 동구 방어진순환도로 634"
    },
    {
      "latitude": 35.5564254916894,
      "longitude": 129.262561758421,
      "title": "맥도날드 울산굴화DT점 주차장",
      "description": "울산 울주군 범서읍 굴화리 28-8"
    },
    {
      "latitude": 35.5425936440972,
      "longitude": 129.3389115715,
      "title": "맥도날드 울산삼산DT점 주차장",
      "description": "울산 남구 삼산동 1550-7"
    },
    {
      "latitude": 35.4981928869109,
      "longitude": 129.42826498021,
      "title": "맥도날드 울산일산DT점 주차장",
      "description": "울산 동구 일산동 951-5"
    },
    {
      "latitude": 35.5325949384861,
      "longitude": 129.315277201946,
      "title": "맥도날드 울산SK DT점 주차장",
      "description": "울산 남구 달동 819"
    },
    {
      "latitude": 35.5380331401913,
      "longitude": 129.332274946819,
      "title": "맥도날드 울산삼산로DT점 주차장",
      "description": "울산 남구 삼산로 230"
    },
    {
      "latitude": 35.5339017568247,
      "longitude": 129.3002489566,
      "title": "맥도날드 울산옥동점 주차장",
      "description": "울산 남구 신정동 1639-60"
    },
    {
      "latitude": 37.3128490362349,
      "longitude": 126.82858841254358,
      "title": "맥도날드 안산고잔DT점",
      "description": "경기 안산시 단원구 광덕3로 145-3"
    },
    {
      "latitude": 37.33025662804653,
      "longitude": 127.10241439947927,
      "title": "맥도날드 용인수지DT점",
      "description": "경기 용인시 수지구 신수로 677"
    },
    {
      "latitude": 37.5022284464248,
      "longitude": 126.77421679898411,
      "title": "맥도날드 중동DT점",
      "description": "경기 부천시 원미구 중동로262번길 94"
    },
    {
      "latitude": 37.3934234430109,
      "longitude": 126.94186850962,
      "title": "맥도날드 안양비산DT점",
      "description": "경기 안양시 동안구 경수대로 839"
    },
    {
      "latitude": 37.29485605773896,
      "longitude": 127.04840933182666,
      "title": "맥도날드 동수원GS DT점",
      "description": "경기 수원시 영통구 창룡대로 370-1"
    },
    {
      "latitude": 37.26962389595868,
      "longitude": 127.09730721533113,
      "title": "맥도날드 용인신갈DT점",
      "description": "경기 용인시 기흥구 중부대로 266"
    },
    {
      "latitude": 37.8457794158473,
      "longitude": 127.16034792176,
      "title": "맥도날드 포천DT점",
      "description": "경기 포천시 호국로 894"
    },
    {
      "latitude": 37.27062910464837,
      "longitude": 127.03509772239204,
      "title": "맥도날드 수원인계DT점",
      "description": "경기 수원시 팔달구 권광로 261"
    },
    {
      "latitude": 37.39890083284121,
      "longitude": 126.92307260688195,
      "title": "맥도날드 안양점",
      "description": "경기 안양시 만안구 안양로292번길 22"
    },
    {
      "latitude": 37.27513811641288,
      "longitude": 127.4465072326838,
      "title": "맥도날드 이천DT점",
      "description": "경기 이천시 경충대로 2578"
    },
    {
      "latitude": 37.3782857761783,
      "longitude": 127.11343951134,
      "title": "맥도날드 수내역점",
      "description": "경기 성남시 분당구 백현로101번길 29"
    },
    {
      "latitude": 37.61026555070321,
      "longitude": 127.13769140134039,
      "title": "맥도날드 구리인창DT점",
      "description": "경기 구리시 동구릉로 130"
    },
    {
      "latitude": 37.48368129744206,
      "longitude": 126.80953641175573,
      "title": "맥도날드 부천역곡역DT점",
      "description": "경기 부천시 소사구 경인로 487"
    },
    {
      "latitude": 37.2446685925617,
      "longitude": 127.017244166685,
      "title": "맥도날드 수원세류DT점",
      "description": "경기 수원시 권선구 경수대로 195"
    },
    {
      "latitude": 37.2903454402524,
      "longitude": 127.001578850981,
      "title": "맥도날드 수원정자DT점",
      "description": "경기 수원시 장안구 수성로 267"
    },
    {
      "latitude": 37.67394804715797,
      "longitude": 126.76441843309561,
      "title": "맥도날드 강선점",
      "description": "경기 고양시 일산서구 대산로 113"
    },
    {
      "latitude": 37.646314013701385,
      "longitude": 126.67067878962445,
      "title": "맥도날드 김포장기DT점",
      "description": "경기 김포시 김포한강1로 77-40"
    },
    {
      "latitude": 37.1399372574714,
      "longitude": 127.073860733653,
      "title": "맥도날드 오산DT점",
      "description": "경기 오산시 경기대로 170"
    },
    {
      "latitude": 37.00542368996969,
      "longitude": 127.0844701955455,
      "title": "맥도날드 평택세교DT점",
      "description": "경기 평택시 경기대로 570"
    },
    {
      "latitude": 37.3842402318307,
      "longitude": 126.959124575703,
      "title": "맥도날드 평촌호계점",
      "description": "경기 안양시 동안구 평촌대로 137"
    },
    {
      "latitude": 37.1218030497675,
      "longitude": 126.918748273327,
      "title": "맥도날드 화성향남DT점",
      "description": "경기 화성시 향남읍 행정남로 120"
    },
    {
      "latitude": 37.682862325027,
      "longitude": 126.778848998197,
      "title": "맥도날드 중산DT점",
      "description": "경기 고양시 일산동구 고양대로 745"
    },
    {
      "latitude": 37.4513733614279,
      "longitude": 127.148688818186,
      "title": "맥도날드 성남신흥DT점",
      "description": "경기 성남시 수정구 수정로 306"
    },
    {
      "latitude": 37.356627187347904,
      "longitude": 126.96713668835201,
      "title": "맥도날드 의왕오전DT점",
      "description": "경기 의왕시 경수대로 351"
    },
    {
      "latitude": 37.65932793179938,
      "longitude": 126.77039183011871,
      "title": "맥도날드 정발산점",
      "description": "경기 고양시 일산동구 중앙로1275번길 38-5"
    },
    {
      "latitude": 37.2055549517371,
      "longitude": 127.037083978208,
      "title": "맥도날드 병점DT점",
      "description": "경기 화성시 경기대로 1004"
    },
    {
      "latitude": 37.2096346285437,
      "longitude": 127.105109208258,
      "title": "맥도날드 동탄2DT점",
      "description": "경기 화성시 동탄순환대로 754-9"
    },
    {
      "latitude": 37.6990258142764,
      "longitude": 126.75951431141168,
      "title": "맥도날드 고양덕이DT점",
      "description": "경기 고양시 일산서구 경의로 914"
    },
    {
      "latitude": 37.4755048555974,
      "longitude": 126.868555915074,
      "title": "맥도날드 철산역점",
      "description": "경기 광명시 오리로856번길 17"
    },
    {
      "latitude": 37.178580822307445,
      "longitude": 127.05596315165953,
      "title": "맥도날드 오산세교DT점",
      "description": "경기 오산시 경기대로 651"
    },
    {
      "latitude": 37.660104556108635,
      "longitude": 127.30234119841614,
      "title": "맥도날드 마석DT점",
      "description": "경기 남양주시 화도읍 비룡로 89"
    },
    {
      "latitude": 37.7566115264977,
      "longitude": 127.038637363705,
      "title": "맥도날드 의정부녹양DT점",
      "description": "경기 의정부시 서부로 717"
    },
    {
      "latitude": 37.4476883399368,
      "longitude": 126.881736448508,
      "title": "맥도날드 광명소하DT점",
      "description": "경기 광명시 오리로 512"
    },
    {
      "latitude": 37.23995113202097,
      "longitude": 127.21065297945259,
      "title": "맥도날드 용인DT점",
      "description": "경기 용인시 처인구 백옥대로 1176"
    },
    {
      "latitude": 37.3023137828645,
      "longitude": 127.106481029444,
      "title": "맥도날드 용인마북DT점",
      "description": "경기 용인시 기흥구 용구대로 2420"
    },
    {
      "latitude": 37.40135138557924,
      "longitude": 127.27113769131121,
      "title": "맥도날드 경기광주DT점",
      "description": "경기 광주시 경충대로 1477"
    },
    {
      "latitude": 37.2665583853828,
      "longitude": 126.97241149579,
      "title": "맥도날드 수원탑동DT점",
      "description": "경기 수원시 권선구 서부로 1766"
    },
    {
      "latitude": 37.25912064701299,
      "longitude": 127.02597039195815,
      "title": "맥도날드 수원GS DT점",
      "description": "경기 수원시 권선구 권선로 684"
    },
    {
      "latitude": 37.27891570780273,
      "longitude": 127.04398690068008,
      "title": "맥도날드 수원아주대점",
      "description": "경기 수원시 영통구 아주로 46"
    },
    {
      "latitude": 36.996022240367495,
      "longitude": 127.14245700150327,
      "title": "맥도날드 평택GSDT점",
      "description": "경기 평택시 서동대로 3929"
    },
    {
      "latitude": 37.6920519375668,
      "longitude": 126.76380560711166,
      "title": "맥도날드 탄현점",
      "description": "경기 고양시 일산서구 일현로 56"
    },
    {
      "latitude": 37.7399687994896,
      "longitude": 127.048508258549,
      "title": "맥도날드 의정부역점",
      "description": "경기 의정부시 행복로 11"
    },
    {
      "latitude": 37.24605036849585,
      "longitude": 127.05439901113824,
      "title": "맥도날드 수원망포DT점",
      "description": "경기 수원시 영통구 덕영대로 1495"
    },
    {
      "latitude": 37.4447607316095,
      "longitude": 126.798355962044,
      "title": "맥도날드 시흥은행점",
      "description": "경기 시흥시 대은로 90"
    },
    {
      "latitude": 37.345812239772336,
      "longitude": 126.7367962728756,
      "title": "맥도날드 시화점",
      "description": "경기 시흥시 정왕대로 210"
    },
    {
      "latitude": 37.859125937655,
      "longitude": 127.731116003722,
      "title": "맥도날드 춘천퇴계DT점",
      "description": "강원특별자치도 춘천시 영서로 2173"
    },
    {
      "latitude": 37.75490102920019,
      "longitude": 128.89614437151116,
      "title": "맥도날드 강릉점",
      "description": "강원특별자치도 강릉시 경강로 2097"
    },
    {
      "latitude": 37.52084566036642,
      "longitude": 129.11403096648644,
      "title": "맥도날드 동해DT점",
      "description": "강원특별자치도 동해시 한섬로 93"
    },
    {
      "latitude": 38.189843251508,
      "longitude": 128.583979426431,
      "title": "맥도날드 속초DT점",
      "description": "강원특별자치도 속초시 동해대로 4118"
    },
    {
      "latitude": 37.34416555297362,
      "longitude": 127.9286658315286,
      "title": "맥도날드 원주단계DT점",
      "description": "강원특별자치도 원주시 서원대로 154"
    },
    {
      "latitude": 37.88085699106636,
      "longitude": 127.74950274221112,
      "title": "맥도날드 춘천후평DT점",
      "description": "강원특별자치도 춘천시 후석로 334"
    },
    {
      "latitude": 37.3291356856915,
      "longitude": 127.951382819129,
      "title": "맥도날드 원주단구DT점",
      "description": "강원특별자치도 원주시 서원대로 426"
    },
    {
      "latitude": 37.7722813801324,
      "longitude": 128.923842230386,
      "title": "맥도날드 강릉송정DT점",
      "description": "강원특별자치도 강릉시 경강로 2412"
    },
    {
      "latitude": 37.8591587078974,
      "longitude": 127.731061783191,
      "title": "맥도날드 춘천퇴계DT점 주차장",
      "description": "강원특별자치도 춘천시 영서로 2173"
    },
    {
      "latitude": 38.1898620088116,
      "longitude": 128.584124787597,
      "title": "맥도날드 속초DT점 주차장",
      "description": "강원특별자치도 속초시 동해대로 4118"
    },
    {
      "latitude": 37.8807013321235,
      "longitude": 127.749612558163,
      "title": "맥도날드 춘천후평DT점 주차장",
      "description": "강원특별자치도 춘천시 후평동 702-5"
    },
    {
      "latitude": 37.329016085442,
      "longitude": 127.951465932462,
      "title": "맥도날드 원주단구DT점 주차장",
      "description": "강원특별자치도 원주시 단구동 1026-16"
    },
    {
      "latitude": 37.5208310411767,
      "longitude": 129.114092759385,
      "title": "맥도날드 동해DT점 주차장",
      "description": "강원특별자치도 동해시 한섬로 93"
    },
    {
      "latitude": 37.77228316251018,
      "longitude": 128.92384341144276,
      "title": "맥도날드 강릉송정DT점 전기차충전소",
      "description": "강원특별자치도 강릉시 경강로 2412"
    },
    {
      "latitude": 36.6707777379263,
      "longitude": 127.483999710452,
      "title": "맥도날드 청주율량GSDT점",
      "description": "충북 청주시 청원구 공항로 156"
    },
    {
      "latitude": 36.6387052765101,
      "longitude": 127.422299669649,
      "title": "맥도날드 청주비하DT점",
      "description": "충북 청주시 흥덕구 2순환로 1076"
    },
    {
      "latitude": 36.646192409295914,
      "longitude": 127.46428716588396,
      "title": "맥도날드 청주봉명DT점",
      "description": "충북 청주시 흥덕구 1순환로 518"
    },
    {
      "latitude": 36.610281183495125,
      "longitude": 127.48383936276895,
      "title": "맥도날드 청주분평DT점",
      "description": "충북 청주시 서원구 청남로 1991"
    },
    {
      "latitude": 36.9793481291882,
      "longitude": 127.92801601481,
      "title": "맥도날드 충주교현DT점",
      "description": "충북 충주시 국원대로 87"
    },
    {
      "latitude": 36.62781116609862,
      "longitude": 127.50822986676262,
      "title": "맥도날드 청주금천DT점",
      "description": "충북 청주시 상당구 중고개로 281"
    },
    {
      "latitude": 36.6171372799031,
      "longitude": 127.447566357729,
      "title": "맥도날드 청주성화점",
      "description": "충북 청주시 서원구 서부로 1344"
    },
    {
      "latitude": 37.14526341702215,
      "longitude": 128.2141073500897,
      "title": "맥도날드 제천DT점",
      "description": "충북 제천시 의림대로 202"
    },
    {
      "latitude": 36.6388044147642,
      "longitude": 127.422295738054,
      "title": "맥도날드 청주비하DT점 주차장",
      "description": "충북 청주시 흥덕구 비하동 671-16"
    },
    {
      "latitude": 37.1452038958384,
      "longitude": 128.214376524102,
      "title": "맥도날드 제천DT점 주차장",
      "description": "충북 제천시 청전동 165-7"
    },
    {
      "latitude": 36.610440648083,
      "longitude": 127.48384818325,
      "title": "맥도날드 청주분평DT점 주차장",
      "description": "충북 청주시 서원구 분평동 241-4"
    },
    {
      "latitude": 36.9794649772037,
      "longitude": 127.927937693466,
      "title": "맥도날드 충주교현DT점 주차장",
      "description": "충북 충주시 교현동 624-1"
    },
    {
      "latitude": 36.6277801232102,
      "longitude": 127.507902086207,
      "title": "맥도날드 청주금천DT점 주차장",
      "description": "충북 청주시 상당구 금천동 44-1"
    },
    {
      "latitude": 36.6463113509908,
      "longitude": 127.46428899809,
      "title": "맥도날드 청주봉명DT점 주차장",
      "description": "충북 청주시 흥덕구 봉명동 1405"
    },
    {
      "latitude": 37.1450040859826,
      "longitude": 128.214883189781,
      "title": "G car zone 맥도날드 제천DT점 뒤",
      "description": "충북 제천시 칠성로13가길 6"
    },
    {
      "latitude": 36.825603037769255,
      "longitude": 127.12864827101649,
      "title": "맥도날드 천안두정DT점",
      "description": "충남 천안시 서북구 동서대로 49"
    },
    {
      "latitude": 36.79373351868333,
      "longitude": 127.12606503463718,
      "title": "맥도날드 천안쌍용역DT점",
      "description": "충남 천안시 서북구 충무로 166"
    },
    {
      "latitude": 36.810600657064064,
      "longitude": 127.16433903433334,
      "title": "맥도날드 천안원성DT점",
      "description": "충남 천안시 동남구 천안대로 699"
    },
    {
      "latitude": 36.7846106508628,
      "longitude": 127.00507718205,
      "title": "맥도날드 충남아산DT점",
      "description": "충남 아산시 충무로 37"
    },
    {
      "latitude": 36.7940420601455,
      "longitude": 127.085040889672,
      "title": "맥도날드 아산탕정DT점",
      "description": "충남 아산시 탕정면 이순신대로 748"
    },
    {
      "latitude": 36.89733312798789,
      "longitude": 126.62699781576455,
      "title": "맥도날드 충남당진DT점",
      "description": "충남 당진시 서해로 5754"
    },
    {
      "latitude": 36.18857864346654,
      "longitude": 127.09543344360449,
      "title": "맥도날드 충남논산DT점",
      "description": "충남 논산시 시민로 247"
    },
    {
      "latitude": 36.832930208908,
      "longitude": 127.152086063146,
      "title": "맥도날드 천안두정역DT점",
      "description": "충남 천안시 서북구 천안대로 1022"
    },
    {
      "latitude": 36.81909992036221,
      "longitude": 127.1542498533037,
      "title": "맥도날드 천안고속버스터미널점",
      "description": "충남 천안시 동남구 만남로 43"
    },
    {
      "latitude": 36.7729049115732,
      "longitude": 126.440813344491,
      "title": "맥도날드 서산DT점",
      "description": "충남 서산시 충의로 3"
    },
    {
      "latitude": 36.60468450812717,
      "longitude": 126.66144707965779,
      "title": "맥도날드 충남홍성DT점",
      "description": "충남 홍성군 홍성읍 충서로 1528"
    },
    {
      "latitude": 36.3416779673186,
      "longitude": 126.589009572502,
      "title": "맥도날드 충남보령DT점",
      "description": "충남 보령시 터미널길 3"
    },
    {
      "latitude": 36.7936992324992,
      "longitude": 127.126106434282,
      "title": "맥도날드 천안쌍용역DT점 주차장",
      "description": "충남 천안시 서북구 충무로 166"
    },
    {
      "latitude": 36.8106415117756,
      "longitude": 127.164118348881,
      "title": "맥도날드 천안원성DT점 주차장",
      "description": "충남 천안시 동남구 원성동 442-1"
    },
    {
      "latitude": 36.7847683462006,
      "longitude": 127.00507271126,
      "title": "맥도날드 충남아산DT점 주차장",
      "description": "충남 아산시 온천동 36-28"
    },
    {
      "latitude": 36.7727710400303,
      "longitude": 126.441088743372,
      "title": "맥도날드 서산DT점 주차장",
      "description": "충남 서산시 예천동 524-26"
    },
    {
      "latitude": 36.6047099960452,
      "longitude": 126.661220078548,
      "title": "맥도날드 충남홍성DT점 주차장",
      "description": "충남 홍성군 홍성읍 소향리 72-4"
    },
    {
      "latitude": 36.1886181731514,
      "longitude": 127.09558802438,
      "title": "맥도날드 충남논산DT점 주차장",
      "description": "충남 논산시 내동 343-1"
    },
    {
      "latitude": 36.8972965634657,
      "longitude": 126.626831947432,
      "title": "맥도날드 충남당진DT점 주차장",
      "description": "충남 당진시 읍내동 423-2"
    },
    {
      "latitude": 36.3417607272366,
      "longitude": 126.589228578196,
      "title": "맥도날드 충남보령DT점 주차장",
      "description": "충남 보령시 궁촌동 345-4"
    },
    {
      "latitude": 35.843846168153,
      "longitude": 127.123102297522,
      "title": "맥도날드 전주덕진DT점",
      "description": "전북특별자치도 전주시 덕진구 기린대로 503"
    },
    {
      "latitude": 35.81430068479507,
      "longitude": 127.12350813006225,
      "title": "맥도날드 전주중화산점",
      "description": "전북특별자치도 전주시 완산구 백제대로 238"
    },
    {
      "latitude": 35.95817640794555,
      "longitude": 126.97301889303796,
      "title": "맥도날드 익산영등DT점",
      "description": "전북특별자치도 익산시 무왕로 1046"
    },
    {
      "latitude": 35.86502320966616,
      "longitude": 127.12197136104217,
      "title": "맥도날드 전주송천DT점",
      "description": "전북특별자치도 전주시 덕진구 송천중앙로 200"
    },
    {
      "latitude": 35.80566274927069,
      "longitude": 127.11178366970874,
      "title": "맥도날드 전주효자DT점",
      "description": "전북특별자치도 전주시 완산구 용머리로 13"
    },
    {
      "latitude": 35.96217634229503,
      "longitude": 126.69604305733172,
      "title": "맥도날드 군산나운DT점",
      "description": "전북특별자치도 군산시 나운로 132"
    },
    {
      "latitude": 35.84402266857521,
      "longitude": 127.14504388612126,
      "title": "맥도날드 전주인후DT점",
      "description": "전북특별자치도 전주시 덕진구 백제대로 692"
    },
    {
      "latitude": 35.5696527587701,
      "longitude": 126.851593528026,
      "title": "맥도날드 전북정읍DT점",
      "description": "전북특별자치도 정읍시 남북로 51"
    },
    {
      "latitude": 35.7939566418529,
      "longitude": 127.132667138049,
      "title": "맥도날드 전주평화DT점",
      "description": "전북특별자치도 전주시 완산구 모악로 4758"
    },
    {
      "latitude": 35.9769697464762,
      "longitude": 126.737097224365,
      "title": "맥도날드 군산조촌DT점",
      "description": "전북특별자치도 군산시 조촌로 143"
    },
    {
      "latitude": 35.9620934996219,
      "longitude": 126.696071088763,
      "title": "맥도날드 군산나운DT점 주차장",
      "description": "전북특별자치도 군산시 나운로 132"
    },
    {
      "latitude": 35.8439553243064,
      "longitude": 127.123000629869,
      "title": "맥도날드 전주덕진DT점 주차장",
      "description": "전북특별자치도 전주시 덕진구 덕진동1가 1401-18"
    },
    {
      "latitude": 35.9581691509939,
      "longitude": 126.972810495854,
      "title": "맥도날드 익산영등DT점 주차장",
      "description": "전북특별자치도 익산시 영등동 747-8"
    },
    {
      "latitude": 35.8648339422379,
      "longitude": 127.121975499868,
      "title": "맥도날드 전주송천DT점 주차장",
      "description": "전북특별자치도 전주시 덕진구 송천동2가 527-12"
    },
    {
      "latitude": 35.844016558748,
      "longitude": 127.144878944348,
      "title": "맥도날드 전주인후DT점 주차장",
      "description": "전북특별자치도 전주시 덕진구 인후동2가 1529-3"
    },
    {
      "latitude": 35.7938161034992,
      "longitude": 127.132613805851,
      "title": "맥도날드 전주평화DT점 주차장",
      "description": "전북특별자치도 전주시 완산구 평화동1가 732-5"
    },
    {
      "latitude": 35.8141519826409,
      "longitude": 127.123502367263,
      "title": "맥도날드 전주중화산점 \\ 주차장",
      "description": "전북특별자치도 전주시 완산구 중화산동2가 648-11"
    },
    {
      "latitude": 35.8061828356342,
      "longitude": 127.11172133409,
      "title": "맥도날드 전주효자DT점 주차장",
      "description": "전북특별자치도 전주시 완산구 효자동1가 411-25"
    },
    {
      "latitude": 35.5697375918563,
      "longitude": 126.851683828389,
      "title": "맥도날드 전북정읍DT점 주차장",
      "description": "전북특별자치도 정읍시 수성동 524-17"
    },
    {
      "latitude": 34.761019247120714,
      "longitude": 127.6643491874859,
      "title": "맥도날드 여수학동DT점",
      "description": "전남 여수시 망마로 9"
    },
    {
      "latitude": 34.80071238023557,
      "longitude": 126.43394600938173,
      "title": "맥도날드 목포하당DT점",
      "description": "전남 목포시 통일대로 88"
    },
    {
      "latitude": 34.94158414805894,
      "longitude": 127.50895195978657,
      "title": "맥도날드 순천덕암DT점",
      "description": "전남 순천시 구암원길 1"
    },
    {
      "latitude": 34.9393055717801,
      "longitude": 127.69972831984641,
      "title": "맥도날드 광양DT점",
      "description": "전남 광양시 동광길 5"
    },
    {
      "latitude": 34.95739128792131,
      "longitude": 127.528656226279,
      "title": "맥도날드 순천조례DT점",
      "description": "전남 순천시 순광로 75"
    },
    {
      "latitude": 34.81078770467344,
      "longitude": 126.46062923493527,
      "title": "맥도날드 목포남악DT점",
      "description": "전남 무안군 삼향읍 남악3로 58"
    },
    {
      "latitude": 34.7637175197284,
      "longitude": 127.705773452139,
      "title": "맥도날드 여수미평DT점",
      "description": "전남 여수시 좌수영로 387"
    },
    {
      "latitude": 34.817094700896455,
      "longitude": 126.4202350409801,
      "title": "맥도날드 목포석현DT점",
      "description": "전남 목포시 영산로 577"
    },
    {
      "latitude": 34.8006342304942,
      "longitude": 126.434004460382,
      "title": "맥도날드 목포하당DT점 주차장",
      "description": "전남 목포시 상동 1126-1"
    },
    {
      "latitude": 34.9574832119911,
      "longitude": 127.52886702778,
      "title": "맥도날드 순천조례DT점 주차장",
      "description": "전남 순천시 조례동 382-1"
    },
    {
      "latitude": 34.9392780150346,
      "longitude": 127.699817842638,
      "title": "맥도날드 광양DT점 주차장",
      "description": "전남 광양시 중동 1309-3"
    },
    {
      "latitude": 34.8106735211189,
      "longitude": 126.46069555318,
      "title": "맥도날드 목포남악DT점 주차장",
      "description": "전남 무안군 삼향읍 남악리 2148"
    },
    {
      "latitude": 34.817038774083,
      "longitude": 126.420415775347,
      "title": "맥도날드 목포석현DT점 주차장",
      "description": "전남 목포시 석현동 816-85"
    },
    {
      "latitude": 34.7609753859655,
      "longitude": 127.664458060069,
      "title": "맥도날드 여수학동DT점 주차장",
      "description": "전남 여수시 학동 82-3"
    },
    {
      "latitude": 35.8437848493208,
      "longitude": 129.2881935006104,
      "title": "맥도날드 경주보문DT점",
      "description": "경북 경주시 보문로 445"
    },
    {
      "latitude": 35.83888372666109,
      "longitude": 129.20491994951567,
      "title": "맥도날드 경주황남DT점",
      "description": "경북 경주시 태종로 701"
    },
    {
      "latitude": 36.01730813789854,
      "longitude": 129.34724913292374,
      "title": "맥도날드 포항남부DT점",
      "description": "경북 포항시 남구 새천년대로 470"
    },
    {
      "latitude": 36.056403342948705,
      "longitude": 129.37749038492314,
      "title": "맥도날드 포항북부DT점",
      "description": "경북 포항시 북구 해안로 85"
    },
    {
      "latitude": 36.560070246563406,
      "longitude": 128.70344355463243,
      "title": "맥도날드 안동DT점",
      "description": "경북 안동시 경북대로 335"
    },
    {
      "latitude": 35.869008073647,
      "longitude": 129.225059634608,
      "title": "맥도날드 경주용강DT점",
      "description": "경북 경주시 산업로 4364"
    },
    {
      "latitude": 36.1280807386767,
      "longitude": 128.117732109263,
      "title": "맥도날드 김천평화DT점",
      "description": "경북 김천시 자산로 199"
    },
    {
      "latitude": 36.07468714954422,
      "longitude": 129.38496188566094,
      "title": "맥도날드 포항장성DT점",
      "description": "경북 포항시 북구 새천년대로 1261"
    },
    {
      "latitude": 35.8346436964874,
      "longitude": 128.727002189846,
      "title": "맥도날드 경산정평DT점",
      "description": "경북 경산시 대학로 37"
    },
    {
      "latitude": 36.1111101933739,
      "longitude": 128.335613022237,
      "title": "맥도날드 구미형곡점",
      "description": "경북 구미시 형곡중앙로 31"
    },
    {
      "latitude": 36.13622796490966,
      "longitude": 128.33202600730786,
      "title": "맥도날드 구미도량DT점",
      "description": "경북 구미시 야은로 447"
    },
    {
      "latitude": 36.095299367773386,
      "longitude": 128.43153895883094,
      "title": "맥도날드 구미인동DT점",
      "description": "경북 구미시 인동북길 155"
    },
    {
      "latitude": 36.14039362652168,
      "longitude": 128.41821536049466,
      "title": "맥도날드 구미옥계DT점",
      "description": "경북 구미시 옥계2공단로 390"
    },
    {
      "latitude": 35.97627992115066,
      "longitude": 128.9526445770487,
      "title": "맥도날드 영천DT점",
      "description": "경북 영천시 호국로 141"
    },
    {
      "latitude": 36.0389492262444,
      "longitude": 129.365800876913,
      "title": "맥도날드 포항2점",
      "description": "경북 포항시 북구 중앙로 291"
    },
    {
      "latitude": 35.9918360696895,
      "longitude": 129.398375807694,
      "title": "맥도날드 이마트포항점",
      "description": "경북 포항시 남구 냉천로 10"
    },
    {
      "latitude": 36.0563024250926,
      "longitude": 129.377536169627,
      "title": "맥도날드 포항북부DT점 주차장",
      "description": "경북 포항시 북구 해안로 85"
    },
    {
      "latitude": 35.8389130820864,
      "longitude": 129.205087856962,
      "title": "맥도날드 경주황남DT점 주차장",
      "description": "경북 경주시 노서동 169-4"
    },
    {
      "latitude": 36.1279535561806,
      "longitude": 128.117841388484,
      "title": "맥도날드 김천평화DT점 주차장",
      "description": "경북 김천시 평화동 2-2"
    },
    {
      "latitude": 36.0172866133688,
      "longitude": 129.347244058119,
      "title": "맥도날드 포항남부DT점 주차장",
      "description": "경북 포항시 남구 새천년대로 470"
    },
    {
      "latitude": 35.84389685183275,
      "longitude": 129.28836824804245,
      "title": "맥도날드 경주보문DT점 주차장",
      "description": "경북 경주시 보문로 445"
    },
    {
      "latitude": 36.1362226225264,
      "longitude": 128.33185816875,
      "title": "맥도날드 구미도량DT점 주차장",
      "description": "경북 구미시 도량동 524-3"
    },
    {
      "latitude": 35.86899772085,
      "longitude": 129.224937574847,
      "title": "맥도날드 경주용강DT점 주차장",
      "description": "경북 경주시 용강동 875"
    },
    {
      "latitude": 36.0952598149394,
      "longitude": 128.43183247717903,
      "title": "맥도날드 구미인동DT 주차장",
      "description": "경북 구미시 인의동 1004-6"
    },
    {
      "latitude": 35.9762853215037,
      "longitude": 128.952810994244,
      "title": "맥도날드 영천DT점 주차장",
      "description": "경북 영천시 망정동 206-11"
    },
    {
      "latitude": 36.0747502605777,
      "longitude": 129.385231264977,
      "title": "맥도날드 포항장성DT점 주차장",
      "description": "경북 포항시 북구 장성동 1576-6"
    },
    {
      "latitude": 36.1401752516112,
      "longitude": 128.418164769228,
      "title": "맥도날드 구미옥계DT점 주차장",
      "description": "경북 구미시 옥계동 362-1"
    },
    {
      "latitude": 36.1110436862681,
      "longitude": 128.335839560818,
      "title": "맥도날드 구미형곡점 주차장",
      "description": "경북 구미시 형곡중앙로 31"
    },
    {
      "latitude": 35.2218375008099,
      "longitude": 128.700356307732,
      "title": "맥도날드 창원사파DT점",
      "description": "경남 창원시 성산구 창이대로706번길 2"
    },
    {
      "latitude": 35.32802590887138,
      "longitude": 129.03343842851467,
      "title": "맥도날드 양산DT점",
      "description": "경남 양산시 동면 남양산길 7"
    },
    {
      "latitude": 35.1927831248356,
      "longitude": 128.804396646226,
      "title": "맥도날드 김해장유DT점",
      "description": "경남 김해시 삼문로 34"
    },
    {
      "latitude": 35.22809356637,
      "longitude": 128.896938723093,
      "title": "맥도날드 김해삼정DT점",
      "description": "경남 김해시 김해대로 2471"
    },
    {
      "latitude": 35.25592383558077,
      "longitude": 128.60674928494393,
      "title": "맥도날드 창원역DT점",
      "description": "경남 창원시 의창구 의창대로 50"
    },
    {
      "latitude": 35.2199685526843,
      "longitude": 128.682934720316,
      "title": "맥도날드 창원상남점",
      "description": "경남 창원시 성산구 단정로 22"
    },
    {
      "latitude": 35.197984947776,
      "longitude": 128.570601570171,
      "title": "맥도날드 마산신포DT점",
      "description": "경남 창원시 마산합포구 서성로 8"
    },
    {
      "latitude": 35.14498620672838,
      "longitude": 128.70680173939388,
      "title": "맥도날드 진해자은DT",
      "description": "경남 창원시 진해구 진해대로 950"
    },
    {
      "latitude": 35.17546737089349,
      "longitude": 128.09314652937965,
      "title": "맥도날드 진주칠암DT점",
      "description": "경남 진주시 진주대로 838"
    },
    {
      "latitude": 35.2626901166141,
      "longitude": 128.872051622858,
      "title": "맥도날드 김해삼계DT점",
      "description": "경남 김해시 가야로 167"
    },
    {
      "latitude": 35.2276833586861,
      "longitude": 128.573866941525,
      "title": "맥도날드 마산석전DT점",
      "description": "경남 창원시 마산회원구 3.15대로 601"
    },
    {
      "latitude": 35.352971996588465,
      "longitude": 129.03757261171472,
      "title": "맥도날드 양산북정DT점",
      "description": "경남 양산시 양산대로 925"
    },
    {
      "latitude": 35.2295480973758,
      "longitude": 128.862476889055,
      "title": "맥도날드 김해외동DT점",
      "description": "경남 김해시 분성로 144"
    },
    {
      "latitude": 35.4911559971648,
      "longitude": 128.745972006512,
      "title": "맥도날드 밀양DT점",
      "description": "경남 밀양시 밀양대로 1872"
    },
    {
      "latitude": 35.3294993359727,
      "longitude": 129.004577032269,
      "title": "맥도날드 양산물금DT점",
      "description": "경남 양산시 물금읍 황산로 651"
    },
    {
      "latitude": 35.1614951178098,
      "longitude": 128.10716808488428,
      "title": "맥도날드 진주가좌DT점",
      "description": "경남 진주시 진주대로 612"
    },
    {
      "latitude": 35.1011277406221,
      "longitude": 128.810598517325,
      "title": "맥도날드 진해용원DT점",
      "description": "경남 창원시 진해구 용원로7번길 10"
    },
    {
      "latitude": 35.1792737641277,
      "longitude": 128.154510702717,
      "title": "맥도날드 진주혁신GSDT점",
      "description": "경남 진주시 동진로 581"
    },
    {
      "latitude": 35.1783804521138,
      "longitude": 128.064298136144,
      "title": "맥도날드 진주신안점",
      "description": "경남 진주시 진양호로 280"
    },
    {
      "latitude": 35.180047989932454,
      "longitude": 128.56031995364344,
      "title": "맥도날드 신마산점",
      "description": "경남 창원시 마산합포구 월영동서로 20"
    },
    {
      "latitude": 35.08078052354274,
      "longitude": 128.08349294645703,
      "title": "맥도날드 사천DT점",
      "description": "경남 사천시 사천읍 사천대로 1838"
    },
    {
      "latitude": 34.888730500877,
      "longitude": 128.691704459596,
      "title": "맥도날드 옥포SK DT점",
      "description": "경남 거제시 거제대로 3714"
    },
    {
      "latitude": 35.24047402235671,
      "longitude": 128.6536472399686,
      "title": "맥도날드 창원시티세븐점",
      "description": "경남 창원시 성산구 원이대로 320"
    },
    {
      "latitude": 35.410521795482275,
      "longitude": 129.16476184639168,
      "title": "맥도날드 웅상DT점",
      "description": "경남 양산시 웅상대로 1259"
    },
    {
      "latitude": 35.248458064447924,
      "longitude": 128.5103391532563,
      "title": "맥도날드 창원내서DT점",
      "description": "경남 창원시 마산회원구 내서읍 광려천서로 77"
    },
    {
      "latitude": 34.88422564890384,
      "longitude": 128.4176302912916,
      "title": "맥도날드 통영죽림DT점",
      "description": "경남 통영시 광도면 죽림4로 36"
    },
    {
      "latitude": 35.1514114863965,
      "longitude": 128.663560918871,
      "title": "맥도날드 진해점",
      "description": "경남 창원시 진해구 벚꽃로 68-1"
    },
    {
      "latitude": 35.3806095329837,
      "longitude": 129.155333668648,
      "title": "맥도날드 양산덕계DT점",
      "description": "경남 양산시 웅상대로 910"
    },
    {
      "latitude": 34.89080305656224,
      "longitude": 128.61650622262363,
      "title": "맥도날드 거제점",
      "description": "경남 거제시 장평로 12"
    },
    {
      "latitude": 35.255847689088,
      "longitude": 128.606714820289,
      "title": "맥도날드 창원역DT점 주차장",
      "description": "경남 창원시 의창구 팔용동 149-4"
    },
    {
      "latitude": 35.2281190543388,
      "longitude": 128.896979953134,
      "title": "맥도날드 김해삼정DT점 주차장",
      "description": "경남 김해시 김해대로 2471"
    },
    {
      "latitude": 35.1753369852135,
      "longitude": 128.093112950169,
      "title": "맥도날드 진주칠암DT점 주차장",
      "description": "경남 진주시 주약동 97-5"
    },
    {
      "latitude": 35.1926483990565,
      "longitude": 128.804426601258,
      "title": "맥도날드 김해장유DT점 주차장",
      "description": "경남 김해시 대청동 316-1"
    },
    {
      "latitude": 35.3293791348525,
      "longitude": 129.004761001114,
      "title": "맥도날드 양산물금DT점 주차장",
      "description": "경남 양산시 물금읍 황산로 651"
    },
    {
      "latitude": 35.2217471587714,
      "longitude": 128.700371994686,
      "title": "맥도날드 창원사파DT점 주차장",
      "description": "경남 창원시 성산구 사파동 97-5"
    },
    {
      "latitude": 35.197800937581,
      "longitude": 128.570544228125,
      "title": "맥도날드 마산신포DT점 주차장",
      "description": "경남 창원시 마산합포구 신포동1가 25-1"
    },
    {
      "latitude": 35.35317442819246,
      "longitude": 129.03732471008846,
      "title": "맥도날드 양산북정DT점 주차장",
      "description": "경남 양산시 신기동 545-7"
    },
    {
      "latitude": 35.1794596360035,
      "longitude": 128.154489180563,
      "title": "맥도날드 진주혁신GS DT점 주차장",
      "description": "경남 진주시 동진로 581"
    },
    {
      "latitude": 35.32814208365463,
      "longitude": 129.03349631950948,
      "title": "맥도날드 양산DT점 주차장",
      "description": "경남 양산시 동면 남양산길 7"
    },
    {
      "latitude": 35.1614248779147,
      "longitude": 128.106964091288,
      "title": "맥도날드 진주가좌DT점 주차장",
      "description": "경남 진주시 가좌동 644-5"
    },
    {
      "latitude": 35.1011547192104,
      "longitude": 128.810662716645,
      "title": "맥도날드 진해용원DT점 주차장",
      "description": "경남 창원시 진해구 용원동 1213-19"
    },
    {
      "latitude": 35.4107041594671,
      "longitude": 129.164793142211,
      "title": "맥도날드 웅상DT점 주차장",
      "description": "경남 양산시 삼호동 1016-9"
    },
    {
      "latitude": 35.1446931517902,
      "longitude": 128.70687681239,
      "title": "맥도날드 진해자은DT 주차장",
      "description": "경남 창원시 진해구 진해대로 950"
    },
    {
      "latitude": 35.4910044324282,
      "longitude": 128.746170372228,
      "title": "맥도날드 밀양DT점 주차장",
      "description": "경남 밀양시 삼문동 397"
    },
    {
      "latitude": 35.0808110863078,
      "longitude": 128.083502122142,
      "title": "맥도날드 사천DT점 주차장",
      "description": "경남 사천시 사천읍 사천대로 1838"
    },
    {
      "latitude": 33.49564757301492,
      "longitude": 126.53310748990975,
      "title": "맥도날드 제주시청DT점",
      "description": "제주특별자치도 제주시 중앙로 277"
    },
    {
      "latitude": 33.49503922565894,
      "longitude": 126.49257450526439,
      "title": "맥도날드 제주공항DT점",
      "description": "제주특별자치도 제주시 도령로 159"
    },
    {
      "latitude": 33.2548296416294,
      "longitude": 126.41376387302635,
      "title": "맥도날드 제주중문DT점",
      "description": "제주특별자치도 서귀포시 중문관광로 38"
    },
    {
      "latitude": 33.51669691341759,
      "longitude": 126.5266611576094,
      "title": "맥도날드 탑동점",
      "description": "제주특별자치도 제주시 임항로 17"
    },
    {
      "latitude": 33.4863393944831,
      "longitude": 126.480731372056,
      "title": "맥도날드 제주노형DT점",
      "description": "제주특별자치도 제주시 노연로 7"
    },
    {
      "latitude": 33.4933904434179,
      "longitude": 126.431174191634,
      "title": "맥도날드 제주외도DT점",
      "description": "제주특별자치도 제주시 일주서로 7339"
    },
    {
      "latitude": 33.2532713838143,
      "longitude": 126.562683781373,
      "title": "맥도날드 제주서귀포DT점",
      "description": "제주특별자치도 서귀포시 일주동로 8665"
    },
    {
      "latitude": 33.507577402909135,
      "longitude": 126.54105930902068,
      "title": "맥도날드 제주일도DT점",
      "description": "제주특별자치도 제주시 동광로 134"
    },
    {
      "latitude": 33.2493741309339,
      "longitude": 126.50735001074776,
      "title": "맥도날드 제주월드컵스타디움DT점",
      "description": "제주특별자치도 서귀포시 일주서로 7"
    },
    {
      "latitude": 33.4802095874374,
      "longitude": 126.527875347874,
      "title": "맥도날드 제주도남DT점",
      "description": "제주특별자치도 제주시 연북로 434"
    },
    {
      "latitude": 33.2531943050571,
      "longitude": 126.562558610622,
      "title": "맥도날드 제주서귀포DT점 주차장",
      "description": "제주특별자치도 서귀포시 서귀동 284-29"
    },
    {
      "latitude": 33.2547360136011,
      "longitude": 126.413602456266,
      "title": "맥도날드 제주중문DT점 주차장",
      "description": "제주특별자치도 서귀포시 중문관광로 38"
    },
    {
      "latitude": 33.4863180316009,
      "longitude": 126.48101232992,
      "title": "맥도날드 제주노형DT점 주차장",
      "description": "제주특별자치도 제주시 노형동 903-6"
    },
    {
      "latitude": 33.2494380772901,
      "longitude": 126.507104992475,
      "title": "맥도날드 제주월드컵스타디움DT점 주차장",
      "description": "제주특별자치도 서귀포시 강정동 231-1"
    },
    {
      "latitude": 33.5075194270454,
      "longitude": 126.540985354177,
      "title": "맥도날드 제주일도DT점 주차장",
      "description": "제주특별자치도 제주시 일도이동 369-11"
    },
    {
      "latitude": 33.4956623895753,
      "longitude": 126.533450685443,
      "title": "맥도날드 제주시청DT점 주차장",
      "description": "제주특별자치도 제주시 이도이동 1057-4"
    },
    {
      "latitude": 33.4933904434179,
      "longitude": 126.431174191634,
      "title": "맥도날드 외도DT점 전기차충전소",
      "description": "제주특별자치도 제주시 일주서로 7339"
    },
    {
      "latitude": 33.495033741257366,
      "longitude": 126.49255624378071,
      "title": "맥도날드 제주공항DT점 전기차충전소",
      "description": "제주특별자치도 제주시 도령로 159"
    }
  ]
}