{
  "pins": [
    {
      "title": "맥도날드 강남2호점",
      "description": "서울 강남구 테헤란로 107",
      "url": "http://place.map.kakao.com/22318989",
      "region": "서울특별시",
      "lat": 37.49864658673187,
      "lng": 127.02873329209403
    },
    {
      "title": "맥도날드 강남구청점",
      "description": "서울 강남구 선릉로 667",
      "url": "http://place.map.kakao.com/25002367",
      "region": "서울특별시",
      "lat": 37.5162457553437,
      "lng": 127.041413345131
    },
    {
      "title": "맥도날드 강남삼성DT점",
      "description": "서울 강남구 봉은사로 432",
      "url": "http://place.map.kakao.com/2091772039",
      "region": "서울특별시",
      "lat": 37.5109122911237,
      "lng": 127.04733263226441
    },
    {
      "title": "맥도날드 신사역점",
      "description": "서울 강남구 도산대로 123",
      "url": "http://place.map.kakao.com/24999700",
      "region": "서울특별시",
      "lat": 37.51741507668443,
      "lng": 127.02192751652281
    },
    {
      "title": "맥도날드 선릉점",
      "description": "서울 강남구 테헤란로 326",
      "url": "http://place.map.kakao.com/13050161",
      "region": "서울특별시",
      "lat": 37.5035719753543,
      "lng": 127.04690276073
    },
    {
      "title": "맥도날드 삼성역점",
      "description": "서울 강남구 삼성로92길 29",
      "url": "http://place.map.kakao.com/18606490",
      "region": "서울특별시",
      "lat": 37.508318524270145,
      "lng": 127.0588583663039
    },
    {
      "title": "맥도날드 압구정CGV점",
      "description": "서울 강남구 논현로 848",
      "url": "http://place.map.kakao.com/12119337",
      "region": "서울특별시",
      "lat": 37.524500878091644,
      "lng": 127.02884728131978
    },
    {
      "title": "맥도날드 한티역점",
      "description": "서울 강남구 도곡로 409",
      "url": "http://place.map.kakao.com/13050164",
      "region": "서울특별시",
      "lat": 37.4973154064777,
      "lng": 127.055203851041
    },
    {
      "title": "맥도날드 코엑스점",
      "description": "서울 강남구 삼성동 159-9",
      "url": "http://place.map.kakao.com/1646977759",
      "region": "서울특별시",
      "lat": 37.50944125601357,
      "lng": 127.06221843210947
    },
    {
      "title": "맥도날드 송파잠실DT점",
      "description": "서울 송파구 도곡로 434",
      "url": "http://place.map.kakao.com/26458836",
      "region": "서울특별시",
      "lat": 37.50435990313616,
      "lng": 127.0769766588255
    },
    {
      "title": "맥도날드 양재SK DT점",
      "description": "서울 서초구 바우뫼로 178",
      "url": "http://place.map.kakao.com/21555292",
      "region": "서울특별시",
      "lat": 37.4781698603516,
      "lng": 127.039547238523
    },
    {
      "title": "맥도날드 양재점",
      "description": "서울 서초구 강남대로 213",
      "url": "http://place.map.kakao.com/10349441",
      "region": "서울특별시",
      "lat": 37.48232289779557,
      "lng": 127.03582400254028
    },
    {
      "title": "맥도날드 서초뱅뱅점",
      "description": "서울 서초구 강남대로 305",
      "url": "http://place.map.kakao.com/12119340",
      "region": "서울특별시",
      "lat": 37.4900981996362,
      "lng": 127.030851298504
    },
    {
      "title": "맥도날드 신천점",
      "description": "서울 송파구 올림픽로 108",
      "url": "http://place.map.kakao.com/7861688",
      "region": "서울특별시",
      "lat": 37.5114234178882,
      "lng": 127.082839452637
    },
    {
      "title": "맥도날드 서울교대점",
      "description": "서울 서초구 서초대로 316",
      "url": "http://place.map.kakao.com/22266714",
      "region": "서울특별시",
      "lat": 37.49416826383995,
      "lng": 127.01620222091923
    },
    {
      "title": "맥도날드 잠실역점",
      "description": "서울 송파구 송파대로 558",
      "url": "http://place.map.kakao.com/26618775",
      "region": "서울특별시",
      "lat": 37.5149209776624,
      "lng": 127.099371257798
    },
    {
      "title": "맥도날드 서초GS점",
      "description": "서울 서초구 반포대로 69",
      "url": "http://place.map.kakao.com/13050166",
      "region": "서울특별시",
      "lat": 37.48656717239016,
      "lng": 127.00973866478523
    },
    {
      "title": "맥도날드 석촌역점",
      "description": "서울 송파구 백제고분로 390",
      "url": "http://place.map.kakao.com/20809733",
      "region": "서울특별시",
      "lat": 37.5060176551338,
      "lng": 127.109126654708
    },
    {
      "title": "맥도날드 구의역점",
      "description": "서울 광진구 아차산로 376",
      "url": "http://place.map.kakao.com/8349863",
      "region": "서울특별시",
      "lat": 37.536477341920204,
      "lng": 127.08445684155768
    },
    {
      "title": "맥도날드 방배점",
      "description": "서울 서초구 방배로 81",
      "url": "http://place.map.kakao.com/8331014",
      "region": "서울특별시",
      "lat": 37.48166605186262,
      "lng": 126.99710900507553
    },
    {
      "title": "맥도날드 어린이대공원점",
      "description": "서울 광진구 광나루로 392",
      "url": "http://place.map.kakao.com/10347873",
      "region": "서울특별시",
      "lat": 37.5473004981961,
      "lng": 127.073129185972
    },
    {
      "title": "맥도날드 가락DT점",
      "description": "서울 송파구 동남로 196",
      "url": "http://place.map.kakao.com/8291984",
      "region": "서울특별시",
      "lat": 37.494895348221,
      "lng": 127.130718150999
    },
    {
      "title": "맥도날드 강남삼성DT점 주차장",
      "description": "서울 강남구 봉은사로 432",
      "url": "http://place.map.kakao.com/1146962773",
      "region": "서울특별시",
      "lat": 37.5110222385403,
      "lng": 127.047270493262
    },
    {
      "title": "한국로날드맥도날드하우스",
      "description": "서울 서초구 신반포로43길 42",
      "url": "http://place.map.kakao.com/1398351206",
      "region": "서울특별시",
      "lat": 37.5118638048472,
      "lng": 127.017667394389
    },
    {
      "title": "맥도날드 서울둔촌DT점",
      "description": "서울 강동구 양재대로 1382",
      "url": "http://place.map.kakao.com/27336044",
      "region": "서울특별시",
      "lat": 37.5293314748911,
      "lng": 127.137276627444
    },
    {
      "title": "맥도날드 굽은다리역DT점",
      "description": "서울 강동구 양재대로 1587",
      "url": "http://place.map.kakao.com/27316244",
      "region": "서울특별시",
      "lat": 37.5472508507001,
      "lng": 127.143098792431
    },
    {
      "title": "맥도날드 상일동점",
      "description": "서울 강동구 상일로6길 39",
      "url": "http://place.map.kakao.com/26461719",
      "region": "서울특별시",
      "lat": 37.5496691686604,
      "lng": 127.175160657454
    },
    {
      "title": "맥도날드 굽은다리역DT점 주차장",
      "description": "서울 강동구 양재대로 1587",
      "url": "http://place.map.kakao.com/1553383386",
      "region": "서울특별시",
      "lat": 37.5472157995974,
      "lng": 127.143026302501
    },
    {
      "title": "맥도날드 서울둔촌DT점 주차장",
      "description": "서울 강동구 둔촌동 517-2",
      "url": "http://place.map.kakao.com/1066177486",
      "region": "서울특별시",
      "lat": 37.5292870890569,
      "lng": 127.137480186828
    },
    {
      "title": "맥도날드 수유점",
      "description": "서울 강북구 도봉로 342",
      "url": "http://place.map.kakao.com/7862195",
      "region": "서울특별시",
      "lat": 37.63789160449129,
      "lng": 127.02595210704666
    },
    {
      "title": "맥도날드 서울번동DT점",
      "description": "서울 강북구 월계로 191",
      "url": "http://place.map.kakao.com/27020183",
      "region": "서울특별시",
      "lat": 37.62117067513775,
      "lng": 127.04527518257626
    },
    {
      "title": "맥도날드 미아DT점",
      "description": "서울 강북구 삼양로 158",
      "url": "http://place.map.kakao.com/27177671",
      "region": "서울특별시",
      "lat": 37.6181644702265,
      "lng": 127.021656909035
    },
    {
      "title": "맥도날드 미아역점",
      "description": "서울 강북구 도봉로 204",
      "url": "http://place.map.kakao.com/22564754",
      "region": "서울특별시",
      "lat": 37.62696259653743,
      "lng": 127.0261771357211
    },
    {
      "title": "맥도날드 중계역점",
      "description": "서울 노원구 동일로 1341",
      "url": "http://place.map.kakao.com/8331701",
      "region": "서울특별시",
      "lat": 37.648313276817916,
      "lng": 127.06216979074941
    },
    {
      "title": "맥도날드 방학역DT점",
      "description": "서울 도봉구 도봉로 735",
      "url": "http://place.map.kakao.com/26458599",
      "region": "서울특별시",
      "lat": 37.670084898982644,
      "lng": 127.04337004516637
    },
    {
      "title": "맥도날드 세이브존노원점",
      "description": "서울 노원구 한글비석로 57",
      "url": "http://place.map.kakao.com/1372576235",
      "region": "서울특별시",
      "lat": 37.636849433687495,
      "lng": 127.0681876218237
    },
    {
      "title": "맥도날드 상계DT점",
      "description": "서울 노원구 동일로 1612",
      "url": "http://place.map.kakao.com/26357904",
      "region": "서울특별시",
      "lat": 37.6724679835578,
      "lng": 127.056194811732
    },
    {
      "title": "맥도날드 과학기술대점",
      "description": "서울 노원구 공릉로 231",
      "url": "http://place.map.kakao.com/26518032",
      "region": "서울특별시",
      "lat": 37.6298221908143,
      "lng": 127.076291347229
    },
    {
      "title": "맥도날드 종암SKDT점",
      "description": "서울 성북구 종암로 58",
      "url": "http://place.map.kakao.com/7860480",
      "region": "서울특별시",
      "lat": 37.5957515749764,
      "lng": 127.035917942119
    },
    {
      "title": "맥도날드 중계점",
      "description": "서울 노원구 중계로 218",
      "url": "http://place.map.kakao.com/7860478",
      "region": "서울특별시",
      "lat": 37.650844084418154,
      "lng": 127.07609867619487
    },
    {
      "title": "맥도날드 서울태릉입구역DT점",
      "description": "서울 노원구 동일로 1010",
      "url": "http://place.map.kakao.com/2041118942",
      "region": "서울특별시",
      "lat": 37.6202553581845,
      "lng": 127.075128466422
    },
    {
      "title": "맥도날드 외대점",
      "description": "서울 동대문구 휘경로 15",
      "url": "http://place.map.kakao.com/22561704",
      "region": "서울특별시",
      "lat": 37.59588048726777,
      "lng": 127.06185211449433
    },
    {
      "title": "맥도날드 삼선점",
      "description": "서울 성북구 동소문로 13",
      "url": "http://place.map.kakao.com/10338297",
      "region": "서울특별시",
      "lat": 37.58935074566599,
      "lng": 127.00755208575038
    },
    {
      "title": "맥도날드 안암점",
      "description": "서울 성북구 고려대로24길 42",
      "url": "http://place.map.kakao.com/21324889",
      "region": "서울특별시",
      "lat": 37.58440451300253,
      "lng": 127.02926437691879
    },
    {
      "title": "맥도날드 대학로점",
      "description": "서울 종로구 대학로 130",
      "url": "http://place.map.kakao.com/8291988",
      "region": "서울특별시",
      "lat": 37.582865621277,
      "lng": 127.002101267647
    },
    {
      "title": "맥도날드 중랑점",
      "description": "서울 중랑구 망우로 202",
      "url": "http://place.map.kakao.com/7862271",
      "region": "서울특별시",
      "lat": 37.5935308967985,
      "lng": 127.075457137376
    },
    {
      "title": "맥도날드 신내점",
      "description": "서울 중랑구 봉화산로 194",
      "url": "http://place.map.kakao.com/7862196",
      "region": "서울특별시",
      "lat": 37.60656489834167,
      "lng": 127.09503889557504
    },
    {
      "title": "맥도날드 전농점",
      "description": "서울 동대문구 전농로 146",
      "url": "http://place.map.kakao.com/7862374",
      "region": "서울특별시",
      "lat": 37.578114986560344,
      "lng": 127.05775628061532
    },
    {
      "title": "맥도날드 동묘점",
      "description": "서울 종로구 종로 339",
      "url": "http://place.map.kakao.com/457867179",
      "region": "서울특별시",
      "lat": 37.5731735765721,
      "lng": 127.015132599751
    },
    {
      "title": "맥도날드 미아DT점 주차장",
      "description": "서울 강북구 미아동 682-12",
      "url": "http://place.map.kakao.com/1662816938",
      "region": "서울특별시",
      "lat": 37.6180166982048,
      "lng": 127.021711234874
    },
    {
      "title": "맥도날드 수유점 주차장",
      "description": "서울 강북구 번동 418-22",
      "url": "http://place.map.kakao.com/345786191",
      "region": "서울특별시",
      "lat": 37.637878026569744,
      "lng": 127.02623761396579
    },
    {
      "title": "맥도날드 서울번동DT점 주차장",
      "description": "서울 강북구 월계로 191",
      "url": "http://place.map.kakao.com/779130561",
      "region": "서울특별시",
      "lat": 37.6211526614751,
      "lng": 127.045259313449
    },
    {
      "title": "맥도날드 방학역DT점 주차장",
      "description": "서울 도봉구 도봉동 620-25",
      "url": "http://place.map.kakao.com/13941201",
      "region": "서울특별시",
      "lat": 37.6702200730293,
      "lng": 127.043296448011
    },
    {
      "title": "맥도날드 상계DT점 주차장",
      "description": "서울 노원구 상계동 1022",
      "url": "http://place.map.kakao.com/990843631",
      "region": "서울특별시",
      "lat": 37.6722418166794,
      "lng": 127.05623884787
    },
    {
      "title": "맥도날드삼선점 개방화장실",
      "description": "서울 성북구 동소문로 11-1",
      "url": "http://place.map.kakao.com/26860977",
      "region": "서울특별시",
      "lat": 37.58944985786768,
      "lng": 127.00750454133863
    },
    {
      "title": "맥도날드 등촌DT점",
      "description": "서울 강서구 양천로 546",
      "url": "http://place.map.kakao.com/21937079",
      "region": "서울특별시",
      "lat": 37.5583040736413,
      "lng": 126.859727620441
    },
    {
      "title": "맥도날드 염창DT점",
      "description": "서울 강서구 공항대로71길 3",
      "url": "http://place.map.kakao.com/26227122",
      "region": "서울특별시",
      "lat": 37.5476569432952,
      "lng": 126.871566161306
    },
    {
      "title": "맥도날드 우장산DT점",
      "description": "서울 강서구 강서로 216",
      "url": "http://place.map.kakao.com/27176968",
      "region": "서울특별시",
      "lat": 37.545125488746436,
      "lng": 126.83747836513412
    },
    {
      "title": "맥도날드 송정역점",
      "description": "서울 강서구 공항대로 21",
      "url": "http://place.map.kakao.com/7869636",
      "region": "서울특별시",
      "lat": 37.5616938247956,
      "lng": 126.809676409986
    },
    {
      "title": "맥도날드 신월DT점",
      "description": "서울 양천구 남부순환로 404",
      "url": "http://place.map.kakao.com/22379077",
      "region": "서울특별시",
      "lat": 37.53142203806361,
      "lng": 126.83095181926853
    },
    {
      "title": "맥도날드 목동점",
      "description": "서울 양천구 목동로 221",
      "url": "http://place.map.kakao.com/8331009",
      "region": "서울특별시",
      "lat": 37.528149629058746,
      "lng": 126.86373241338259
    },
    {
      "title": "맥도날드 신월남부DT점",
      "description": "서울 양천구 남부순환로 553",
      "url": "http://place.map.kakao.com/18945448",
      "region": "서울특별시",
      "lat": 37.51972888782668,
      "lng": 126.83871442940706
    },
    {
      "title": "맥도날드 양평SK DT점",
      "description": "서울 영등포구 선유로 195",
      "url": "http://place.map.kakao.com/22264679",
      "region": "서울특별시",
      "lat": 37.5308588619941,
      "lng": 126.893457396957
    },
    {
      "title": "맥도날드 서울상암DMC점",
      "description": "서울 마포구 월드컵북로 400",
      "url": "http://place.map.kakao.com/1509297288",
      "region": "서울특별시",
      "lat": 37.580469959324276,
      "lng": 126.88995304722175
    },
    {
      "title": "맥도날드 망원점",
      "description": "서울 마포구 월드컵로 81",
      "url": "http://place.map.kakao.com/7861587",
      "region": "서울특별시",
      "lat": 37.556096830594846,
      "lng": 126.90977742489936
    },
    {
      "title": "맥도날드 합정메세나폴리스점",
      "description": "서울 마포구 양화로 45",
      "url": "http://place.map.kakao.com/18941653",
      "region": "서울특별시",
      "lat": 37.5507188385582,
      "lng": 126.913473125232
    },
    {
      "title": "맥도날드 부천원종DT점",
      "description": "경기 부천시 오정구 소사로 689",
      "url": "http://place.map.kakao.com/27225176",
      "region": "경기도",
      "lat": 37.5177741429459,
      "lng": 126.804408201853
    },
    {
      "title": "맥도날드 고척DT점",
      "description": "서울 구로구 경인로 393",
      "url": "http://place.map.kakao.com/27347577",
      "region": "서울특별시",
      "lat": 37.497200859037186,
      "lng": 126.86355910584498
    },
    {
      "title": "맥도날드 영등포점",
      "description": "서울 영등포구 경인로 855",
      "url": "http://place.map.kakao.com/7861591",
      "region": "서울특별시",
      "lat": 37.516982785480984,
      "lng": 126.90767534775247
    },
    {
      "title": "맥도날드 신도림테크노점",
      "description": "서울 구로구 새말로 97",
      "url": "http://place.map.kakao.com/7860957",
      "region": "서울특별시",
      "lat": 37.506907688694334,
      "lng": 126.8907012687388
    },
    {
      "title": "맥도날드 여의도점",
      "description": "서울 영등포구 국제금융로 10",
      "url": "http://place.map.kakao.com/18285093",
      "region": "서울특별시",
      "lat": 37.52598765293301,
      "lng": 126.925934554003
    },
    {
      "title": "맥도날드 행신점",
      "description": "경기 고양시 덕양구 충경로 38",
      "url": "http://place.map.kakao.com/7862277",
      "region": "경기도",
      "lat": 37.61528795725437,
      "lng": 126.83384631720284
    },
    {
      "title": "맥도날드 명지대점",
      "description": "서울 서대문구 거북골로 25",
      "url": "http://place.map.kakao.com/26308146",
      "region": "서울특별시",
      "lat": 37.5799332429118,
      "lng": 126.924742252567
    },
    {
      "title": "맥도날드 연세대점",
      "description": "서울 서대문구 연세로 33",
      "url": "http://place.map.kakao.com/18606733",
      "region": "서울특별시",
      "lat": 37.55856058625979,
      "lng": 126.9367843937591
    },
    {
      "title": "맥도날드 광명역점",
      "description": "경기 광명시 광명로 895-1",
      "url": "http://place.map.kakao.com/7861857",
      "region": "경기도",
      "lat": 37.479012492637,
      "lng": 126.853983391728
    },
    {
      "title": "맥도날드 우장산DT점 주차장",
      "description": "서울 강서구 강서로 216",
      "url": "http://place.map.kakao.com/2021554225",
      "region": "서울특별시",
      "lat": 37.5451109700039,
      "lng": 126.837403712629
    },
    {
      "title": "맥도날드 등촌DT점 주차장",
      "description": "서울 강서구 등촌동 630",
      "url": "http://place.map.kakao.com/786336747",
      "region": "서울특별시",
      "lat": 37.5583841949073,
      "lng": 126.859670881388
    },
    {
      "title": "맥도날드 신월DT점 주차장",
      "description": "서울 양천구 남부순환로 404",
      "url": "http://place.map.kakao.com/1846478789",
      "region": "서울특별시",
      "lat": 37.5314247264802,
      "lng": 126.830941630878
    },
    {
      "title": "맥도날드 신월남부DT점 주차장",
      "description": "서울 양천구 남부순환로 553",
      "url": "http://place.map.kakao.com/194784232",
      "region": "서울특별시",
      "lat": 37.5197044217737,
      "lng": 126.838612674756
    },
    {
      "title": "맥도날드 부천원종DT점 주차장",
      "description": "경기 부천시 오정구 원종동 376-20",
      "url": "http://place.map.kakao.com/1008663104",
      "region": "경기도",
      "lat": 37.5178683485188,
      "lng": 126.804167018018
    },
    {
      "title": "맥도날드 고척DT점 주차장",
      "description": "서울 구로구 고척동 73-20",
      "url": "http://place.map.kakao.com/1847898269",
      "region": "서울특별시",
      "lat": 37.4973297913953,
      "lng": 126.863635769416
    },
    {
      "title": "맥도날드 명지대점 개방화장실",
      "description": "서울 서대문구 거북골로 25",
      "url": "http://place.map.kakao.com/257906977",
      "region": "서울특별시",
      "lat": 37.5799332544584,
      "lng": 126.924760366217
    },
    {
      "title": "맥도날드 연대점 개방화장실",
      "description": "서울 서대문구 연세로 33",
      "url": "http://place.map.kakao.com/26334449",
      "region": "서울특별시",
      "lat": 37.558582168947645,
      "lng": 126.93670741442966
    },
    {
      "title": "맥도날드 신림점",
      "description": "서울 관악구 신림로 310",
      "url": "http://place.map.kakao.com/21325935",
      "region": "서울특별시",
      "lat": 37.48197881673212,
      "lng": 126.93015567293818
    },
    {
      "title": "맥도날드 숭실대점",
      "description": "서울 동작구 사당로 22",
      "url": "http://place.map.kakao.com/26357892",
      "region": "서울특별시",
      "lat": 37.4951364047689,
      "lng": 126.956906603023
    },
    {
      "title": "맥도날드 이수점",
      "description": "서울 동작구 사당로 300",
      "url": "http://place.map.kakao.com/18941648",
      "region": "서울특별시",
      "lat": 37.48464233587453,
      "lng": 126.98064641265356
    },
    {
      "title": "맥도날드 중앙대점",
      "description": "서울 동작구 흑석로 84",
      "url": "http://place.map.kakao.com/14091840",
      "region": "서울특별시",
      "lat": 37.5061330138949,
      "lng": 126.958963206106
    },
    {
      "title": "맥도날드 보라매점",
      "description": "서울 영등포구 여의대방로 145",
      "url": "http://place.map.kakao.com/27440997",
      "region": "서울특별시",
      "lat": 37.50025117773754,
      "lng": 126.92009852892339
    },
    {
      "title": "맥도날드 노량진점",
      "description": "서울 동작구 노량진로 158",
      "url": "http://place.map.kakao.com/7861686",
      "region": "서울특별시",
      "lat": 37.5135184986792,
      "lng": 126.943558104375
    },
    {
      "title": "맥도날드 구로디지털점",
      "description": "서울 구로구 디지털로31길 12",
      "url": "http://place.map.kakao.com/12513113",
      "region": "서울특별시",
      "lat": 37.4852189404974,
      "lng": 126.894978549527
    },
    {
      "title": "맥도날드 서울시흥DT점",
      "description": "서울 금천구 시흥대로 184",
      "url": "http://place.map.kakao.com/27168594",
      "region": "서울특별시",
      "lat": 37.4504681915593,
      "lng": 126.902734772323
    },
    {
      "title": "맥도날드 마리오아울렛점",
      "description": "서울 금천구 디지털로 185",
      "url": "http://place.map.kakao.com/22273606",
      "region": "서울특별시",
      "lat": 37.47829532960229,
      "lng": 126.88688658553701
    },
    {
      "title": "맥도날드 가산디지털점",
      "description": "서울 금천구 벚꽃로 298",
      "url": "http://place.map.kakao.com/25003435",
      "region": "서울특별시",
      "lat": 37.4814023893401,
      "lng": 126.883569199241
    },
    {
      "title": "맥도날드 가산비지니스센터점",
      "description": "서울 금천구 가산디지털1로 165",
      "url": "http://place.map.kakao.com/19952814",
      "region": "서울특별시",
      "lat": 37.48018918586002,
      "lng": 126.8813098877346
    },
    {
      "title": "맥도날드 공덕점",
      "description": "서울 마포구 마포대로 53",
      "url": "http://place.map.kakao.com/14536202",
      "region": "서울특별시",
      "lat": 37.541068262776854,
      "lng": 126.9470846462646
    },
    {
      "title": "맥도날드 이태원점",
      "description": "서울 용산구 이태원로 142-1",
      "url": "http://place.map.kakao.com/16988033",
      "region": "서울특별시",
      "lat": 37.5340167272809,
      "lng": 126.989699646402
    },
    {
      "title": "맥도날드 과천이마트점",
      "description": "경기 과천시 별양상가3로 11",
      "url": "http://place.map.kakao.com/7861855",
      "region": "경기도",
      "lat": 37.42626428170148,
      "lng": 126.99146446522997
    },
    {
      "title": "맥도날드 광명소하DT점",
      "description": "경기 광명시 오리로 512",
      "url": "http://place.map.kakao.com/27020187",
      "region": "경기도",
      "lat": 37.4476883399368,
      "lng": 126.881736448508
    },
    {
      "title": "맥도날드 세이브존광명점",
      "description": "경기 광명시 철망산로 87",
      "url": "http://place.map.kakao.com/24999047",
      "region": "경기도",
      "lat": 37.4704653627268,
      "lng": 126.877649039257
    },
    {
      "title": "맥도날드 철산역점",
      "description": "경기 광명시 오리로856번길 17",
      "url": "http://place.map.kakao.com/8356483",
      "region": "경기도",
      "lat": 37.4755048555974,
      "lng": 126.868555915074
    },
    {
      "title": "맥도날드 서울시흥DT점 주차장",
      "description": "서울 금천구 시흥동 903-9",
      "url": "http://place.map.kakao.com/541516834",
      "region": "서울특별시",
      "lat": 37.4504827620033,
      "lng": 126.902922358343
    },
    {
      "title": "맥도날드 광명소하DT점 주차장",
      "description": "경기 광명시 오리로 512",
      "url": "http://place.map.kakao.com/2021584114",
      "region": "경기도",
      "lat": 37.4476631342092,
      "lng": 126.881759090331
    },
    {
      "title": "맥도날드 장안사거리점",
      "description": "서울 동대문구 답십리로 291-1",
      "url": "http://place.map.kakao.com/22400622",
      "region": "서울특별시",
      "lat": 37.5724638396628,
      "lng": 127.072637595858
    },
    {
      "title": "맥도날드 한양대점",
      "description": "서울 성동구 왕십리로 227",
      "url": "http://place.map.kakao.com/8330325",
      "region": "서울특별시",
      "lat": 37.5572699478379,
      "lng": 127.041866107633
    },
    {
      "title": "맥도날드 광명DT점",
      "description": "경기 광명시 광명로 765",
      "url": "http://place.map.kakao.com/27392287",
      "region": "경기도",
      "lat": 37.4685529931432,
      "lng": 126.847809029472
    },
    {
      "title": "맥도날드 부천역곡역DT점",
      "description": "경기 부천시 소사구 경인로 487",
      "url": "http://place.map.kakao.com/27120996",
      "region": "경기도",
      "lat": 37.48368129744206,
      "lng": 126.80953641175573
    },
    {
      "title": "맥도날드 광명DT점 주차장",
      "description": "경기 광명시 광명동 754-4",
      "url": "http://place.map.kakao.com/1238974171",
      "region": "경기도",
      "lat": 37.4685729273861,
      "lng": 126.84789603152
    },
    {
      "title": "맥도날드 부천역곡역DT점 주차장",
      "description": "경기 부천시 소사구 경인로 487",
      "url": "http://place.map.kakao.com/1125343089",
      "region": "경기도",
      "lat": 37.4836921003722,
      "lng": 126.809530731089
    },
    {
      "title": "맥도날드 의정부GS DT점",
      "description": "경기 의정부시 평화로 315",
      "url": "http://place.map.kakao.com/8357987",
      "region": "경기도",
      "lat": 37.7201227586572,
      "lng": 127.047165992205
    },
    {
      "title": "맥도날드 의정부만가대DT점",
      "description": "경기 의정부시 민락로 11",
      "url": "http://place.map.kakao.com/22352740",
      "region": "경기도",
      "lat": 37.7308859656636,
      "lng": 127.08653189522852
    },
    {
      "title": "맥도날드 의정부역점",
      "description": "경기 의정부시 행복로 11",
      "url": "http://place.map.kakao.com/18606544",
      "region": "경기도",
      "lat": 37.7399687994896,
      "lng": 127.048508258549
    },
    {
      "title": "맥도날드 의정부GSDT점 주차장",
      "description": "경기 의정부시 호원동 435",
      "url": "http://place.map.kakao.com/2036040066",
      "region": "경기도",
      "lat": 37.7201399672108,
      "lng": 127.046940290484
    },
    {
      "title": "맥도날드 만가대DT점 주차장",
      "description": "경기 의정부시 민락로 11",
      "url": "http://place.map.kakao.com/1007815495",
      "region": "경기도",
      "lat": 37.7311320260891,
      "lng": 127.086401725361
    },
    {
      "title": "맥도날드 종로3가점",
      "description": "서울 종로구 종로 115",
      "url": "http://place.map.kakao.com/8350550",
      "region": "서울특별시",
      "lat": 37.57056758352427,
      "lng": 126.9904779328265
    },
    {
      "title": "맥도날드 서울시청점",
      "description": "서울 중구 남대문로9길 51",
      "url": "http://place.map.kakao.com/11902329",
      "region": "서울특별시",
      "lat": 37.5668369438027,
      "lng": 126.979367619692
    },
    {
      "title": "맥도날드 명동점",
      "description": "서울 중구 명동7길 8",
      "url": "http://place.map.kakao.com/12674579",
      "region": "서울특별시",
      "lat": 37.5641779925965,
      "lng": 126.984529660329
    },
    {
      "title": "맥도날드 명동2호점",
      "description": "서울 중구 퇴계로 116-1",
      "url": "http://place.map.kakao.com/18938863",
      "region": "서울특별시",
      "lat": 37.5605920452162,
      "lng": 126.98467527366
    },
    {
      "title": "맥도날드 서울역점",
      "description": "서울 중구 한강대로 405",
      "url": "http://place.map.kakao.com/10346282",
      "region": "서울특별시",
      "lat": 37.554271552328366,
      "lng": 126.9704644811706
    },
    {
      "title": "맥도날드 종로3가 개방화장실",
      "description": "서울 종로구 종로 115",
      "url": "http://place.map.kakao.com/26334540",
      "region": "서울특별시",
      "lat": 37.57060182216758,
      "lng": 126.99048811613325
    },
    {
      "title": "한국맥도날드 본사",
      "description": "서울 종로구 종로 51",
      "url": "http://place.map.kakao.com/7936635",
      "region": "서울특별시",
      "lat": 37.570744325762846,
      "lng": 126.98360914667553
    },
    {
      "title": "모트맥도날드코리아",
      "description": "서울 종로구 종로 1",
      "url": "http://place.map.kakao.com/1091432584",
      "region": "서울특별시",
      "lat": 37.5708560191617,
      "lng": 126.977898350266
    },
    {
      "title": "맥도날드 홍제역점",
      "description": "서울 서대문구 통일로 442-1",
      "url": "http://place.map.kakao.com/371363260",
      "region": "서울특별시",
      "lat": 37.5886442379462,
      "lng": 126.944633659981
    },
    {
      "title": "맥도날드 구산점",
      "description": "서울 은평구 연서로 131",
      "url": "http://place.map.kakao.com/11075106",
      "region": "서울특별시",
      "lat": 37.61063001156582,
      "lng": 126.9166859478842
    },
    {
      "title": "맥도날드 연신내점",
      "description": "서울 은평구 연서로 213",
      "url": "http://place.map.kakao.com/10346361",
      "region": "서울특별시",
      "lat": 37.617587448962,
      "lng": 126.919285602014
    },
    {
      "title": "맥도날드 연신내점 개방화장실",
      "description": "서울 은평구 연서로 213",
      "url": "http://place.map.kakao.com/419526128",
      "region": "서울특별시",
      "lat": 37.6176594162657,
      "lng": 126.919122418934
    },
    {
      "title": "맥도날드 위례신도시점",
      "description": "서울 송파구 위례광장로 290",
      "url": "http://place.map.kakao.com/1582982515",
      "region": "서울특별시",
      "lat": 37.4751386037791,
      "lng": 127.142698907091
    },
    {
      "title": "맥도날드 성남신흥DT점",
      "description": "경기 성남시 수정구 수정로 306",
      "url": "http://place.map.kakao.com/24094124",
      "region": "경기도",
      "lat": 37.4513733614279,
      "lng": 127.148688818186
    },
    {
      "title": "맥도날드 고양삼송DT점",
      "description": "경기 고양시 덕양구 고양대로 1948",
      "url": "http://place.map.kakao.com/248878535",
      "region": "경기도",
      "lat": 37.6453625800086,
      "lng": 126.895717752927
    },
    {
      "title": "맥도날드 고양삼송DT점 주차장",
      "description": "경기 고양시 덕양구 고양대로 1948",
      "url": "http://place.map.kakao.com/723047488",
      "region": "경기도",
      "lat": 37.6453590031176,
      "lng": 126.895748351516
    },
    {
      "title": "맥도날드 구리인창DT점",
      "description": "경기 구리시 동구릉로 130",
      "url": "http://place.map.kakao.com/1875972329",
      "region": "경기도",
      "lat": 37.61026555070321,
      "lng": 127.13769140134039
    },
    {
      "title": "맥도날드 구리수택점",
      "description": "경기 구리시 검배로 7",
      "url": "http://place.map.kakao.com/26308964",
      "region": "경기도",
      "lat": 37.60035422959322,
      "lng": 127.1418653249553
    },
    {
      "title": "맥도날드 구리인창DT점 주차장",
      "description": "경기 구리시 인창동 410-5",
      "url": "http://place.map.kakao.com/652012621",
      "region": "경기도",
      "lat": 37.6103718274794,
      "lng": 127.137725574206
    },
    {
      "title": "맥도날드 동수원GS DT점",
      "description": "경기 수원시 영통구 창룡대로 370-1",
      "url": "http://place.map.kakao.com/18685405",
      "region": "경기도",
      "lat": 37.29485605773896,
      "lng": 127.04840933182666
    },
    {
      "title": "맥도날드 수원인계DT점",
      "description": "경기 수원시 팔달구 권광로 261",
      "url": "http://place.map.kakao.com/25070674",
      "region": "경기도",
      "lat": 37.27062910464837,
      "lng": 127.03509772239204
    },
    {
      "title": "맥도날드 수원세류DT점",
      "description": "경기 수원시 권선구 경수대로 195",
      "url": "http://place.map.kakao.com/26314184",
      "region": "경기도",
      "lat": 37.2446685925617,
      "lng": 127.017244166685
    },
    {
      "title": "맥도날드 수원정자DT점",
      "description": "경기 수원시 장안구 수성로 267",
      "url": "http://place.map.kakao.com/27061627",
      "region": "경기도",
      "lat": 37.2903454402524,
      "lng": 127.001578850981
    },
    {
      "title": "맥도날드 수원탑동DT점",
      "description": "경기 수원시 권선구 서부로 1766",
      "url": "http://place.map.kakao.com/677253395",
      "region": "경기도",
      "lat": 37.2665583853828,
      "lng": 126.97241149579
    },
    {
      "title": "맥도날드 수원GS DT점",
      "description": "경기 수원시 권선구 권선로 684",
      "url": "http://place.map.kakao.com/25005779",
      "region": "경기도",
      "lat": 37.25912064701299,
      "lng": 127.02597039195815
    },
    {
      "title": "맥도날드 수원아주대점",
      "description": "경기 수원시 영통구 아주로 46",
      "url": "http://place.map.kakao.com/25001083",
      "region": "경기도",
      "lat": 37.27891570780273,
      "lng": 127.04398690068008
    },
    {
      "title": "맥도날드 수원망포DT점",
      "description": "경기 수원시 영통구 덕영대로 1495",
      "url": "http://place.map.kakao.com/25854115",
      "region": "경기도",
      "lat": 37.24605036849585,
      "lng": 127.05439901113824
    },
    {
      "title": "맥도날드 수원화성DT점",
      "description": "경기 수원시 팔달구 경수대로 676",
      "url": "http://place.map.kakao.com/7860829",
      "region": "경기도",
      "lat": 37.2856495406429,
      "lng": 127.027957457645
    },
    {
      "title": "맥도날드 북수원DT점",
      "description": "경기 수원시 장안구 경수대로 991",
      "url": "http://place.map.kakao.com/13580015",
      "region": "경기도",
      "lat": 37.3051692819128,
      "lng": 127.002662014003
    },
    {
      "title": "맥도날드 수원성균관대점",
      "description": "경기 수원시 장안구 서부로 2127",
      "url": "http://place.map.kakao.com/22757823",
      "region": "경기도",
      "lat": 37.29849093975064,
      "lng": 126.97123925664664
    },
    {
      "title": "맥도날드 경희대국제캠퍼스점",
      "description": "경기 수원시 영통구 덕영대로 1703",
      "url": "http://place.map.kakao.com/25006253",
      "region": "경기도",
      "lat": 37.2479278436141,
      "lng": 127.077577289366
    },
    {
      "title": "맥도날드 용인중부DT점",
      "description": "경기 용인시 기흥구 중부대로 1-2",
      "url": "http://place.map.kakao.com/1123646495",
      "region": "경기도",
      "lat": 37.2690385244886,
      "lng": 127.067003330317
    },
    {
      "title": "맥도날드 동탄SK점",
      "description": "경기 화성시 효행로 1260",
      "url": "http://place.map.kakao.com/13571577",
      "region": "경기도",
      "lat": 37.22113631855547,
      "lng": 127.06021075983276
    },
    {
      "title": "맥도날드 용인신갈DT점",
      "description": "경기 용인시 기흥구 중부대로 266",
      "url": "http://place.map.kakao.com/26647420",
      "region": "경기도",
      "lat": 37.26962389595868,
      "lng": 127.09730721533113
    },
    {
      "title": "맥도날드 병점DT점",
      "description": "경기 화성시 경기대로 1004",
      "url": "http://place.map.kakao.com/21853693",
      "region": "경기도",
      "lat": 37.2055549517371,
      "lng": 127.037083978208
    },
    {
      "title": "맥도날드 화성봉담DT점",
      "description": "경기 화성시 효행로 269",
      "url": "http://place.map.kakao.com/26932559",
      "region": "경기도",
      "lat": 37.223830993561194,
      "lng": 126.97311889709835
    },
    {
      "title": "맥도날드 용인보라DT점",
      "description": "경기 용인시 기흥구 용구대로 1861",
      "url": "http://place.map.kakao.com/1176881324",
      "region": "경기도",
      "lat": 37.25444141771982,
      "lng": 127.1046089450861
    },
    {
      "title": "맥도날드 용인마북DT점",
      "description": "경기 용인시 기흥구 용구대로 2420",
      "url": "http://place.map.kakao.com/25000755",
      "region": "경기도",
      "lat": 37.3023137828645,
      "lng": 127.106481029444
    },
    {
      "title": "맥도날드 동탄2DT점",
      "description": "경기 화성시 동탄순환대로 754-9",
      "url": "http://place.map.kakao.com/677696490",
      "region": "경기도",
      "lat": 37.2096346285437,
      "lng": 127.105109208258
    },
    {
      "title": "맥도날드 수원GS DT점 주차장",
      "description": "경기 수원시 권선구 권선동 1029",
      "url": "http://place.map.kakao.com/2005139883",
      "region": "경기도",
      "lat": 37.2591296858055,
      "lng": 127.025840757273
    },
    {
      "title": "맥도날드 수원정자DT점 주차장",
      "description": "경기 수원시 장안구 정자동 76-18",
      "url": "http://place.map.kakao.com/2075123670",
      "region": "경기도",
      "lat": 37.2903877872932,
      "lng": 127.001705160015
    },
    {
      "title": "맥도날드 수원화성DT점 주차장",
      "description": "경기 수원시 팔달구 우만동 490-4",
      "url": "http://place.map.kakao.com/1586524878",
      "region": "경기도",
      "lat": 37.2855251756837,
      "lng": 127.028048753614
    },
    {
      "title": "맥도날드 동수원GS DT점 주차장",
      "description": "경기 수원시 영통구 이의동 835",
      "url": "http://place.map.kakao.com/1065613921",
      "region": "경기도",
      "lat": 37.29505157956615,
      "lng": 127.04841735186162
    },
    {
      "title": "맥도날드 수원세류DT점 주차장",
      "description": "경기 수원시 권선구 경수대로 195",
      "url": "http://place.map.kakao.com/2005889696",
      "region": "경기도",
      "lat": 37.2446866259059,
      "lng": 127.017158513476
    },
    {
      "title": "맥도날드 수원망포DT 주차장",
      "description": "경기 수원시 영통구 영통동 1068-2",
      "url": "http://place.map.kakao.com/1874665347",
      "region": "경기도",
      "lat": 37.2459854528722,
      "lng": 127.054486877434
    },
    {
      "title": "맥도날드 북수원DT점 주차장",
      "description": "경기 수원시 장안구 송죽동 451-1",
      "url": "http://place.map.kakao.com/2032127601",
      "region": "경기도",
      "lat": 37.3052774084096,
      "lng": 127.002562756133
    },
    {
      "title": "맥도날드 수원인계DT점 주차장",
      "description": "경기 수원시 팔달구 인계동 363-3",
      "url": "http://place.map.kakao.com/1874048645",
      "region": "경기도",
      "lat": 37.2707985303916,
      "lng": 127.034996329722
    },
    {
      "title": "맥도날드 동탄SK점 주차장",
      "description": "경기 화성시 능동 1051-1",
      "url": "http://place.map.kakao.com/991581357",
      "region": "경기도",
      "lat": 37.2210111031942,
      "lng": 127.060150944277
    },
    {
      "title": "맥도날드 용인신갈DT점 주차장",
      "description": "경기 용인시 기흥구 중부대로 266",
      "url": "http://place.map.kakao.com/2032505040",
      "region": "경기도",
      "lat": 37.2695879145694,
      "lng": 127.097233885388
    },
    {
      "title": "맥도날드 용인보라DT점 주차장",
      "description": "경기 용인시 기흥구 하갈동 142-8",
      "url": "http://place.map.kakao.com/697301618",
      "region": "경기도",
      "lat": 37.2545604657549,
      "lng": 127.104483988653
    },
    {
      "title": "맥도날드 병점DT점 주차장",
      "description": "경기 화성시 경기대로 1004",
      "url": "http://place.map.kakao.com/951495933",
      "region": "경기도",
      "lat": 37.2055513178737,
      "lng": 127.037178601397
    },
    {
      "title": "맥도날드 용인마북DT점 주차장",
      "description": "경기 용인시 기흥구 용구대로 2420",
      "url": "http://place.map.kakao.com/1663626289",
      "region": "경기도",
      "lat": 37.3025551748951,
      "lng": 127.106576116103
    },
    {
      "title": "맥도날드 수내역점",
      "description": "경기 성남시 분당구 백현로101번길 29",
      "url": "http://place.map.kakao.com/25000081",
      "region": "경기도",
      "lat": 37.3782857761783,
      "lng": 127.11343951134
    },
    {
      "title": "맥도날드 분당효자점",
      "description": "경기 성남시 분당구 불정로 379",
      "url": "http://place.map.kakao.com/21228096",
      "region": "경기도",
      "lat": 37.374278139985414,
      "lng": 127.13636131613725
    },
    {
      "title": "맥도날드 동판교점",
      "description": "경기 성남시 분당구 대왕판교로606번길 58",
      "url": "http://place.map.kakao.com/21608198",
      "region": "경기도",
      "lat": 37.39517744476525,
      "lng": 127.11324022886245
    },
    {
      "title": "맥도날드 오리역점",
      "description": "경기 성남시 분당구 성남대로 45",
      "url": "http://place.map.kakao.com/18685292",
      "region": "경기도",
      "lat": 37.3401228007832,
      "lng": 127.108606300027
    },
    {
      "title": "맥도날드 야탑뉴코아점",
      "description": "경기 성남시 분당구 야탑로81번길 11",
      "url": "http://place.map.kakao.com/11079249",
      "region": "경기도",
      "lat": 37.41117113901369,
      "lng": 127.12770232067533
    },
    {
      "title": "맥도날드 판교테크노밸리점",
      "description": "경기 성남시 분당구 판교역로 231",
      "url": "http://place.map.kakao.com/27459958",
      "region": "경기도",
      "lat": 37.4013492258553,
      "lng": 127.108667492824
    },
    {
      "title": "맥도날드 서판교DT점",
      "description": "경기 성남시 분당구 운중로 190",
      "url": "http://place.map.kakao.com/891860550",
      "region": "경기도",
      "lat": 37.39065797274724,
      "lng": 127.0840050217258
    },
    {
      "title": "맥도날드 강선점",
      "description": "경기 고양시 일산서구 대산로 113",
      "url": "http://place.map.kakao.com/7860655",
      "region": "경기도",
      "lat": 37.67394804715797,
      "lng": 126.76441843309561
    },
    {
      "title": "맥도날드 중산DT점",
      "description": "경기 고양시 일산동구 고양대로 745",
      "url": "http://place.map.kakao.com/21604485",
      "region": "경기도",
      "lat": 37.682862325027,
      "lng": 126.778848998197
    },
    {
      "title": "맥도날드 정발산점",
      "description": "경기 고양시 일산동구 중앙로1275번길 38-5",
      "url": "http://place.map.kakao.com/11079252",
      "region": "경기도",
      "lat": 37.65932793179938,
      "lng": 126.77039183011871
    },
    {
      "title": "맥도날드 고양덕이DT점",
      "description": "경기 고양시 일산서구 경의로 914",
      "url": "http://place.map.kakao.com/556882931",
      "region": "경기도",
      "lat": 37.6990258142764,
      "lng": 126.75951431141168
    },
    {
      "title": "맥도날드 탄현점",
      "description": "경기 고양시 일산서구 일현로 56",
      "url": "http://place.map.kakao.com/14533663",
      "region": "경기도",
      "lat": 37.6920519375668,
      "lng": 126.76380560711166
    },
    {
      "title": "맥도날드 고양풍동DT점",
      "description": "경기 고양시 일산동구 백마로 493",
      "url": "http://place.map.kakao.com/27288704",
      "region": "경기도",
      "lat": 37.66283264920262,
      "lng": 126.80270332614232
    },
    {
      "title": "맥도날드 고양원당DT점",
      "description": "경기 고양시 덕양구 호국로 777",
      "url": "http://place.map.kakao.com/2058391591",
      "region": "경기도",
      "lat": 37.6560115679516,
      "lng": 126.835142719072
    },
    {
      "title": "맥도날드 고양DT점",
      "description": "경기 고양시 덕양구 호국로 1699",
      "url": "http://place.map.kakao.com/7869817",
      "region": "경기도",
      "lat": 37.70280252533898,
      "lng": 126.90399809448202
    },
    {
      "title": "맥도날드 화정역점",
      "description": "경기 고양시 덕양구 화신로272번길 67",
      "url": "http://place.map.kakao.com/11075113",
      "region": "경기도",
      "lat": 37.63385235099023,
      "lng": 126.83163998016542
    },
    {
      "title": "맥도날드 중산DT점 주차장",
      "description": "경기 고양시 일산동구 중산동 1667-5",
      "url": "http://place.map.kakao.com/607771565",
      "region": "경기도",
      "lat": 37.682799518421,
      "lng": 126.778988625266
    },
    {
      "title": "맥도날드 고양풍동DT점 주차장",
      "description": "경기 고양시 일산동구 풍동 148-3",
      "url": "http://place.map.kakao.com/651942583",
      "region": "경기도",
      "lat": 37.6628491055362,
      "lng": 126.802846086002
    },
    {
      "title": "맥도날드 고양원당DT점 주차장",
      "description": "경기 고양시 덕양구 호국로 777",
      "url": "http://place.map.kakao.com/196903240",
      "region": "경기도",
      "lat": 37.6560079640375,
      "lng": 126.83514272704
    },
    {
      "title": "맥도날드 고양DT점 주차장",
      "description": "경기 고양시 덕양구 벽제동 262-1",
      "url": "http://place.map.kakao.com/778830014",
      "region": "경기도",
      "lat": 37.702906178862,
      "lng": 126.904048989511
    },
    {
      "title": "맥도날드 용인수지DT점",
      "description": "경기 용인시 수지구 신수로 677",
      "url": "http://place.map.kakao.com/18606597",
      "region": "경기도",
      "lat": 37.33025662804653,
      "lng": 127.10241439947927
    },
    {
      "title": "맥도날드 용인DT점",
      "description": "경기 용인시 처인구 백옥대로 1176",
      "url": "http://place.map.kakao.com/1424013006",
      "region": "경기도",
      "lat": 37.23995113202097,
      "lng": 127.21065297945259
    },
    {
      "title": "맥도날드 용인동백DT점",
      "description": "경기 용인시 기흥구 어정로 106",
      "url": "http://place.map.kakao.com/27192263",
      "region": "경기도",
      "lat": 37.27477109337835,
      "lng": 127.14152042520124
    },
    {
      "title": "맥도날드 용인시청DT점",
      "description": "경기 용인시 처인구 중부대로 1166",
      "url": "http://place.map.kakao.com/26832435",
      "region": "경기도",
      "lat": 37.2387708515566,
      "lng": 127.174591964109
    },
    {
      "title": "맥도날드 용인수지DT점 주차장",
      "description": "경기 용인시 수지구 풍덕천동 43-5",
      "url": "http://place.map.kakao.com/2066312126",
      "region": "경기도",
      "lat": 37.33030020408439,
      "lng": 127.10203646233127
    },
    {
      "title": "맥도날드 용인동백DT점 주차장",
      "description": "경기 용인시 기흥구 상하동 455-3",
      "url": "http://place.map.kakao.com/512285564",
      "region": "경기도",
      "lat": 37.2746856456849,
      "lng": 127.141393983442
    },
    {
      "title": "맥도날드 용인시청DT점 주차장",
      "description": "경기 용인시 처인구 삼가동 250-34",
      "url": "http://place.map.kakao.com/1611648676",
      "region": "경기도",
      "lat": 37.2388008466615,
      "lng": 127.17441509728
    },
    {
      "title": "맥도날드 중동DT점",
      "description": "경기 부천시 원미구 중동로262번길 94",
      "url": "http://place.map.kakao.com/7862270",
      "region": "경기도",
      "lat": 37.5022284464248,
      "lng": 126.77421679898411
    },
    {
      "title": "맥도날드 부천북부역점",
      "description": "경기 부천시 원미구 부천로 11",
      "url": "http://place.map.kakao.com/26337951",
      "region": "경기도",
      "lat": 37.48573893462121,
      "lng": 126.78226259477137
    },
    {
      "title": "맥도날드 부천심곡DT점",
      "description": "경기 부천시 소사구 경인로 170",
      "url": "http://place.map.kakao.com/27237285",
      "region": "경기도",
      "lat": 37.4836090196061,
      "lng": 126.77460977382509
    },
    {
      "title": "맥도날드 인천구산DT점",
      "description": "인천 부평구 경인로 1191",
      "url": "http://place.map.kakao.com/18385136",
      "region": "인천광역시",
      "lat": 37.4840570246106,
      "lng": 126.751785059807
    },
    {
      "title": "맥도날드 인천삼산DT점",
      "description": "인천 부평구 장제로 380",
      "url": "http://place.map.kakao.com/25770904",
      "region": "인천광역시",
      "lat": 37.5195150712948,
      "lng": 126.732767768495
    },
    {
      "title": "맥도날드 부평SK DT점",
      "description": "인천 부평구 부평대로 96",
      "url": "http://place.map.kakao.com/18949571",
      "region": "인천광역시",
      "lat": 37.50010572558211,
      "lng": 126.72262271603255
    },
    {
      "title": "맥도날드 부평중앙점",
      "description": "인천 부평구 부평문화로 65",
      "url": "http://place.map.kakao.com/7860826",
      "region": "인천광역시",
      "lat": 37.49414481635693,
      "lng": 126.72344763391355
    },
    {
      "title": "맥도날드 부평역점",
      "description": "인천 부평구 광장로 16",
      "url": "http://place.map.kakao.com/8357294",
      "region": "인천광역시",
      "lat": 37.4901034896745,
      "lng": 126.723695467163
    },
    {
      "title": "맥도날드 인천계산DT점",
      "description": "인천 계양구 오조산로 39",
      "url": "http://place.map.kakao.com/462393894",
      "region": "인천광역시",
      "lat": 37.5343180359027,
      "lng": 126.738195512467
    },
    {
      "title": "맥도날드 만수DT점",
      "description": "인천 남동구 백범로 229",
      "url": "http://place.map.kakao.com/25007089",
      "region": "인천광역시",
      "lat": 37.4600422591238,
      "lng": 126.723684042399
    },
    {
      "title": "맥도날드 인천간석DT점",
      "description": "인천 부평구 경원대로 1122",
      "url": "http://place.map.kakao.com/661335092",
      "region": "인천광역시",
      "lat": 37.4803150097872,
      "lng": 126.698650378511
    },
    {
      "title": "맥도날드 시흥은행점",
      "description": "경기 시흥시 대은로 90",
      "url": "http://place.map.kakao.com/11296960",
      "region": "경기도",
      "lat": 37.4447607316095,
      "lng": 126.798355962044
    },
    {
      "title": "맥도날드 부천심곡DT점 주차장",
      "description": "경기 부천시 소사구 심곡본동 559",
      "url": "http://place.map.kakao.com/628407997",
      "region": "경기도",
      "lat": 37.4836041715177,
      "lng": 126.774430015556
    },
    {
      "title": "맥도날드 인천삼산DT점 주차장",
      "description": "인천 부평구 삼산동 226-2",
      "url": "http://place.map.kakao.com/1746644220",
      "region": "인천광역시",
      "lat": 37.519241220505,
      "lng": 126.732791368791
    },
    {
      "title": "맥도날드 인천계산DT점 주차장",
      "description": "인천 계양구 오조산로 39",
      "url": "http://place.map.kakao.com/1565858609",
      "region": "인천광역시",
      "lat": 37.5343142814248,
      "lng": 126.738127640927
    },
    {
      "title": "맥도날드 만수DT점 주차장",
      "description": "인천 남동구 만수동 904-4",
      "url": "http://place.map.kakao.com/652777640",
      "region": "인천광역시",
      "lat": 37.460075128242,
      "lng": 126.723483859907
    },
    {
      "title": "LG유플러스 은행동 시흥맥도날드점",
      "description": "경기 시흥시 대은로 86",
      "url": "http://place.map.kakao.com/15228071",
      "region": "경기도",
      "lat": 37.4445651483514,
      "lng": 126.797791457193
    },
    {
      "title": "맥도날드 안산고잔DT점",
      "description": "경기 안산시 단원구 광덕3로 145-3",
      "url": "http://place.map.kakao.com/1990959495",
      "region": "경기도",
      "lat": 37.3128490362349,
      "lng": 126.82858841254358
    },
    {
      "title": "맥도날드 안산고잔DT점 주차장",
      "description": "경기 안산시 단원구 광덕3로 145-3",
      "url": "http://place.map.kakao.com/1649055233",
      "region": "경기도",
      "lat": 37.3128365459579,
      "lng": 126.828674175379
    },
    {
      "title": "맥도날드 안양비산DT점",
      "description": "경기 안양시 동안구 경수대로 839",
      "url": "http://place.map.kakao.com/15265331",
      "region": "경기도",
      "lat": 37.3934234430109,
      "lng": 126.94186850962
    },
    {
      "title": "맥도날드 안양점",
      "description": "경기 안양시 만안구 안양로292번길 22",
      "url": "http://place.map.kakao.com/7867270",
      "region": "경기도",
      "lat": 37.39890083284121,
      "lng": 126.92307260688195
    },
    {
      "title": "맥도날드 평촌호계점",
      "description": "경기 안양시 동안구 평촌대로 137",
      "url": "http://place.map.kakao.com/8292806",
      "region": "경기도",
      "lat": 37.3842402318307,
      "lng": 126.959124575703
    },
    {
      "title": "맥도날드 군포산본DT점",
      "description": "경기 군포시 고산로 715",
      "url": "http://place.map.kakao.com/26318572",
      "region": "경기도",
      "lat": 37.37332441512737,
      "lng": 126.93681372195832
    },
    {
      "title": "맥도날드 의왕오전DT점",
      "description": "경기 의왕시 경수대로 351",
      "url": "http://place.map.kakao.com/25003667",
      "region": "경기도",
      "lat": 37.356627187347904,
      "lng": 126.96713668835201
    },
    {
      "title": "맥도날드 군포당동SKDT점",
      "description": "경기 군포시 고산로 259",
      "url": "http://place.map.kakao.com/27347576",
      "region": "경기도",
      "lat": 37.3461672888052,
      "lng": 126.943629437696
    },
    {
      "title": "맥도날드 평촌호계점 주차장",
      "description": "경기 안양시 동안구 호계동 1058-3",
      "url": "http://place.map.kakao.com/1194011570",
      "region": "경기도",
      "lat": 37.3841356285418,
      "lng": 126.958880735275
    },
    {
      "title": "맥도날드 군포산본DT점 주차장",
      "description": "경기 군포시 산본동 51-1",
      "url": "http://place.map.kakao.com/651908993",
      "region": "경기도",
      "lat": 37.3734461282012,
      "lng": 126.936953615049
    },
    {
      "title": "맥도날드 의왕오전DT점 주차장",
      "description": "경기 의왕시 오전동 207-1",
      "url": "http://place.map.kakao.com/1749130748",
      "region": "경기도",
      "lat": 37.3565326185329,
      "lng": 126.967277822101
    },
    {
      "title": "맥도날드 마석DT점",
      "description": "경기 남양주시 화도읍 비룡로 89",
      "url": "http://place.map.kakao.com/25006468",
      "region": "경기도",
      "lat": 37.660104556108635,
      "lng": 127.30234119841614
    },
    {
      "title": "맥도날드 진접DT점",
      "description": "경기 남양주시 진접읍 금강로 1467",
      "url": "http://place.map.kakao.com/19767743",
      "region": "경기도",
      "lat": 37.7219652527947,
      "lng": 127.189739302739
    },
    {
      "title": "맥도날드 평내DT점",
      "description": "경기 남양주시 경춘로 1273",
      "url": "http://place.map.kakao.com/21567808",
      "region": "경기도",
      "lat": 37.6480255687826,
      "lng": 127.234876440517
    },
    {
      "title": "맥도날드 덕소점",
      "description": "경기 남양주시 와부읍 덕소로 93",
      "url": "http://place.map.kakao.com/10346152",
      "region": "경기도",
      "lat": 37.5858387595903,
      "lng": 127.2124401419
    },
    {
      "title": "맥도날드 마석DT점 주차장",
      "description": "경기 남양주시 화도읍 마석우리 481-2",
      "url": "http://place.map.kakao.com/1663101395",
      "region": "경기도",
      "lat": 37.66010080698,
      "lng": 127.302397849028
    },
    {
      "title": "맥도날드 진접DT점 주차장",
      "description": "경기 남양주시 진접읍 장현리 218-5",
      "url": "http://place.map.kakao.com/901590998",
      "region": "경기도",
      "lat": 37.7221650666393,
      "lng": 127.189864581428
    },
    {
      "title": "맥도날드 화성향남DT점",
      "description": "경기 화성시 향남읍 행정남로 120",
      "url": "http://place.map.kakao.com/973880183",
      "region": "경기도",
      "lat": 37.1218030497675,
      "lng": 126.918748273327
    },
    {
      "title": "맥도날드 시화점",
      "description": "경기 시흥시 정왕대로 210",
      "url": "http://place.map.kakao.com/25005417",
      "region": "경기도",
      "lat": 37.345812239772336,
      "lng": 126.7367962728756
    },
    {
      "title": "맥도날드 화성향남DT점 주차장",
      "description": "경기 화성시 향남읍 방축리 297-75",
      "url": "http://place.map.kakao.com/1066184869",
      "region": "경기도",
      "lat": 37.1218722524141,
      "lng": 126.918487142221
    },
    {
      "title": "맥도날드 평택세교DT점",
      "description": "경기 평택시 경기대로 570",
      "url": "http://place.map.kakao.com/7862546",
      "region": "경기도",
      "lat": 37.00542368996969,
      "lng": 127.0844701955455
    },
    {
      "title": "맥도날드 평택GSDT점",
      "description": "경기 평택시 서동대로 3929",
      "url": "http://place.map.kakao.com/19208772",
      "region": "경기도",
      "lat": 36.996022240367495,
      "lng": 127.14245700150327
    },
    {
      "title": "맥도날드 평택서정DT점",
      "description": "경기 평택시 경기대로 1395",
      "url": "http://place.map.kakao.com/18101760",
      "region": "경기도",
      "lat": 37.0697391321438,
      "lng": 127.06396918551
    },
    {
      "title": "맥도날드 송탄점",
      "description": "경기 평택시 쇼핑로 13",
      "url": "http://place.map.kakao.com/7860828",
      "region": "경기도",
      "lat": 37.08076012849163,
      "lng": 127.0509506308829
    },
    {
      "title": "맥도날드 평택소사벌점",
      "description": "경기 평택시 평남로 862",
      "url": "http://place.map.kakao.com/181770582",
      "region": "경기도",
      "lat": 37.0003824823411,
      "lng": 127.111361215004
    },
    {
      "title": "맥도날드 평택안중DT점",
      "description": "경기 평택시 안중읍 서동대로 1465",
      "url": "http://place.map.kakao.com/1921793119",
      "region": "경기도",
      "lat": 36.99063314069314,
      "lng": 126.91402070791887
    },
    {
      "title": "맥도날드 안성공도DT점",
      "description": "경기 안성시 공도읍 서동대로 4475",
      "url": "http://place.map.kakao.com/303980118",
      "region": "경기도",
      "lat": 37.0091121132603,
      "lng": 127.19947506519762
    },
    {
      "title": "맥도날드 오산DT점",
      "description": "경기 오산시 경기대로 170",
      "url": "http://place.map.kakao.com/7862202",
      "region": "경기도",
      "lat": 37.1399372574714,
      "lng": 127.073860733653
    },
    {
      "title": "맥도날드 천안두정역DT점",
      "description": "충남 천안시 서북구 천안대로 1022",
      "url": "http://place.map.kakao.com/122705113",
      "region": "충청남도",
      "lat": 36.832930208908,
      "lng": 127.152086063146
    },
    {
      "title": "맥도날드 천안두정DT점",
      "description": "충남 천안시 서북구 동서대로 49",
      "url": "http://place.map.kakao.com/13050156",
      "region": "충청남도",
      "lat": 36.825603037769255,
      "lng": 127.12864827101649
    },
    {
      "title": "맥도날드 천안고속버스터미널점",
      "description": "충남 천안시 동남구 만남로 43",
      "url": "http://place.map.kakao.com/26821820",
      "region": "충청남도",
      "lat": 36.81909992036221,
      "lng": 127.1542498533037
    },
    {
      "title": "맥도날드 평택GS 주차장",
      "description": "경기 평택시 서동대로 3929",
      "url": "http://place.map.kakao.com/528853648",
      "region": "경기도",
      "lat": 36.9962723600472,
      "lng": 127.142774264704
    },
    {
      "title": "맥도날드 평택서정DT점 주차장",
      "description": "경기 평택시 서정동 779-5",
      "url": "http://place.map.kakao.com/1194218677",
      "region": "경기도",
      "lat": 37.069761593369,
      "lng": 127.064090647794
    },
    {
      "title": "맥도날드 오산DT점 주차장",
      "description": "경기 오산시 원동 372-5",
      "url": "http://place.map.kakao.com/606719143",
      "region": "경기도",
      "lat": 37.1397787738268,
      "lng": 127.073695129382
    },
    {
      "title": "맥도날드 의정부녹양DT점",
      "description": "경기 의정부시 서부로 717",
      "url": "http://place.map.kakao.com/13571581",
      "region": "경기도",
      "lat": 37.7566115264977,
      "lng": 127.038637363705
    },
    {
      "title": "맥도날드 의정부금오DT점",
      "description": "경기 의정부시 호국로 1604",
      "url": "http://place.map.kakao.com/15274234",
      "region": "경기도",
      "lat": 37.755492437636605,
      "lng": 127.0786500394337
    },
    {
      "title": "맥도날드 의정부녹양DT점 주차장",
      "description": "경기 의정부시 가능동 106-1",
      "url": "http://place.map.kakao.com/2031401138",
      "region": "경기도",
      "lat": 37.7568754817838,
      "lng": 127.038722610605
    },
    {
      "title": "맥도날드 의정부금오DT점 주차장",
      "description": "경기 의정부시 금오동 99-6",
      "url": "http://place.map.kakao.com/1245707791",
      "region": "경기도",
      "lat": 37.7556618450133,
      "lng": 127.078611636379
    },
    {
      "title": "맥도날드 의정부금오DT점 전기차충전소",
      "description": "경기 의정부시 호국로 1604",
      "url": "http://place.map.kakao.com/728649917",
      "region": "경기도",
      "lat": 37.7554924376366,
      "lng": 127.078650039434
    },
    {
      "title": "맥도날드 파주운정교하점",
      "description": "경기 파주시 동패동 495-17",
      "url": "http://place.map.kakao.com/641514209",
      "region": "경기도",
      "lat": 37.71294809489949,
      "lng": 126.7212573561137
    },
    {
      "title": "맥도날드 김포장기DT점",
      "description": "경기 김포시 김포한강1로 77-40",
      "url": "http://place.map.kakao.com/26308458",
      "region": "경기도",
      "lat": 37.646314013701385,
      "lng": 126.67067878962445
    },
    {
      "title": "맥도날드 김포고촌SK DT점",
      "description": "경기 김포시 고촌읍 김포대로 336",
      "url": "http://place.map.kakao.com/24998683",
      "region": "경기도",
      "lat": 37.60116263445044,
      "lng": 126.77108709167605
    },
    {
      "title": "맥도날드 김포구래DT점",
      "description": "경기 김포시 김포한강10로 213",
      "url": "http://place.map.kakao.com/1728340865",
      "region": "경기도",
      "lat": 37.646042035978,
      "lng": 126.619225867667
    },
    {
      "title": "맥도날드 김포감정DT점",
      "description": "경기 김포시 중봉로 19",
      "url": "http://place.map.kakao.com/26414786",
      "region": "경기도",
      "lat": 37.62423468845827,
      "lng": 126.69660340303324
    },
    {
      "title": "맥도날드 연희DT점",
      "description": "인천 서구 서곶로 265",
      "url": "http://place.map.kakao.com/8357985",
      "region": "인천광역시",
      "lat": 37.541304250681165,
      "lng": 126.67635637129021
    },
    {
      "title": "맥도날드 김포감정DT점 주차장",
      "description": "경기 김포시 감정동 506-2",
      "url": "http://place.map.kakao.com/1611967462",
      "region": "경기도",
      "lat": 37.6244015580249,
      "lng": 126.696676355133
    },
    {
      "title": "맥도날드 김포고촌SK DT점 주차장",
      "description": "경기 김포시 고촌읍 신곡리 532-25",
      "url": "http://place.map.kakao.com/1068756009",
      "region": "경기도",
      "lat": 37.6010785881352,
      "lng": 126.770955988225
    },
    {
      "title": "맥도날드 연희DT점 주차장",
      "description": "인천 서구 심곡동 255-2",
      "url": "http://place.map.kakao.com/1616355962",
      "region": "인천광역시",
      "lat": 37.5415122077236,
      "lng": 126.676293238876
    },
    {
      "title": "맥도날드 경기광주DT점",
      "description": "경기 광주시 경충대로 1477",
      "url": "http://place.map.kakao.com/403960846",
      "region": "경기도",
      "lat": 37.40135138557924,
      "lng": 127.27113769131121
    },
    {
      "title": "맥도날드 경기광주DT점 주차장",
      "description": "경기 광주시 쌍령동 155-18",
      "url": "http://place.map.kakao.com/1586657155",
      "region": "경기도",
      "lat": 37.4015119338678,
      "lng": 127.271064858037
    },
    {
      "title": "맥도날드 이천DT점",
      "description": "경기 이천시 경충대로 2578",
      "url": "http://place.map.kakao.com/27123621",
      "region": "경기도",
      "lat": 37.27513811641288,
      "lng": 127.4465072326838
    },
    {
      "title": "맥도날드 여주DT점",
      "description": "경기 여주시 세종로 200",
      "url": "http://place.map.kakao.com/1514393273",
      "region": "경기도",
      "lat": 37.28021954150095,
      "lng": 127.63613856815644
    },
    {
      "title": "맥도날드 이천DT점 주차장",
      "description": "경기 이천시 중리동 461-4",
      "url": "http://place.map.kakao.com/1019656056",
      "region": "경기도",
      "lat": 37.2751284810228,
      "lng": 127.446672920399
    },
    {
      "title": "맥도날드 양주덕계DT점",
      "description": "경기 양주시 평화로 1511",
      "url": "http://place.map.kakao.com/19952816",
      "region": "경기도",
      "lat": 37.8248493161232,
      "lng": 127.050858150219
    },
    {
      "title": "맥도날드 양주옥정DT점",
      "description": "경기 양주시 고덕로 341",
      "url": "http://place.map.kakao.com/446910797",
      "region": "경기도",
      "lat": 37.8031085855642,
      "lng": 127.078281505855
    },
    {
      "title": "맥도날드 양주휴게소DT점",
      "description": "경기 양주시 장흥면 수도권제1순환고속도로 58",
      "url": "http://place.map.kakao.com/26414850",
      "region": "경기도",
      "lat": 37.679296025494104,
      "lng": 126.91576127691651
    },
    {
      "title": "맥도날드 포천DT점",
      "description": "경기 포천시 호국로 894",
      "url": "http://place.map.kakao.com/8357991",
      "region": "경기도",
      "lat": 37.8457794158473,
      "lng": 127.16034792176
    },
    {
      "title": "맥도날드 동두천지행DT점",
      "description": "경기 동두천시 평화로 2290",
      "url": "http://place.map.kakao.com/26337919",
      "region": "경기도",
      "lat": 37.89219244103823,
      "lng": 127.05732547735019
    },
    {
      "title": "맥도날드 양주덕계DT점 주차장",
      "description": "경기 양주시 덕계동 495-13",
      "url": "http://place.map.kakao.com/1140326225",
      "region": "경기도",
      "lat": 37.8248710896015,
      "lng": 127.050508327886
    },
    {
      "title": "맥도날드 동두천지행DT점 주차장",
      "description": "경기 동두천시 지행동 340-15",
      "url": "http://place.map.kakao.com/1257441361",
      "region": "경기도",
      "lat": 37.891878054167,
      "lng": 127.057236558184
    },
    {
      "title": "맥도날드 포천DT점 주차장",
      "description": "경기 포천시 설운동 13-7",
      "url": "http://place.map.kakao.com/1565573394",
      "region": "경기도",
      "lat": 37.845760957961,
      "lng": 127.160008171554
    },
    {
      "title": "맥도날드 오산세교DT점",
      "description": "경기 오산시 경기대로 651",
      "url": "http://place.map.kakao.com/20851108",
      "region": "경기도",
      "lat": 37.178580822307445,
      "lng": 127.05596315165953
    },
    {
      "title": "맥도날드 오산세교DT점 주차장",
      "description": "경기 오산시 내삼미동 466-1",
      "url": "http://place.map.kakao.com/696991820",
      "region": "경기도",
      "lat": 37.1787061692467,
      "lng": 127.055750413324
    },
    {
      "title": "맥도날드 하남시청DT점",
      "description": "경기 하남시 대청로 25",
      "url": "http://place.map.kakao.com/26558187",
      "region": "경기도",
      "lat": 37.54103217328089,
      "lng": 127.21499237165045
    },
    {
      "title": "맥도날드 춘천퇴계DT점",
      "description": "강원특별자치도 춘천시 영서로 2173",
      "url": "http://place.map.kakao.com/24927312",
      "region": "강원특별자치도",
      "lat": 37.859125937655,
      "lng": 127.731116003722
    },
    {
      "title": "맥도날드 춘천퇴계DT점 주차장",
      "description": "강원특별자치도 춘천시 영서로 2173",
      "url": "http://place.map.kakao.com/848765402",
      "region": "강원특별자치도",
      "lat": 37.8591587078974,
      "lng": 127.731061783191
    },
    {
      "title": "맥도날드 동인천점",
      "description": "인천 중구 우현로 85-1",
      "url": "http://place.map.kakao.com/8357291",
      "region": "인천광역시",
      "lat": 37.4746216607089,
      "lng": 126.630453827523
    },
    {
      "title": "맥도날드 신흥DT점",
      "description": "인천 중구 인항로 38",
      "url": "http://place.map.kakao.com/7862198",
      "region": "인천광역시",
      "lat": 37.4569960330556,
      "lng": 126.634464774561
    },
    {
      "title": "맥도날드 인천영종하늘도시점",
      "description": "인천 중구 하늘중앙로 197",
      "url": "http://place.map.kakao.com/499911493",
      "region": "인천광역시",
      "lat": 37.49010499071525,
      "lng": 126.56010661837682
    },
    {
      "title": "맥도날드 인천청라DT점",
      "description": "인천 서구 원창로 8",
      "url": "http://place.map.kakao.com/1150560161",
      "region": "인천광역시",
      "lat": 37.5174496391993,
      "lng": 126.649589982095
    },
    {
      "title": "맥도날드 인천옥련DT점",
      "description": "인천 연수구 비류대로 176",
      "url": "http://place.map.kakao.com/26337913",
      "region": "인천광역시",
      "lat": 37.42814012852682,
      "lng": 126.65417679628052
    },
    {
      "title": "맥도날드 인천구월DT점",
      "description": "인천 남동구 인주대로 514",
      "url": "http://place.map.kakao.com/16146745",
      "region": "인천광역시",
      "lat": 37.450006237925805,
      "lng": 126.69383668749326
    },
    {
      "title": "맥도날드 문학DT점",
      "description": "인천 미추홀구 매소홀로 600",
      "url": "http://place.map.kakao.com/25743374",
      "region": "인천광역시",
      "lat": 37.438205436282,
      "lng": 126.688907288716
    },
    {
      "title": "맥도날드 씨앤씨점",
      "description": "인천 남동구 예술로 198",
      "url": "http://place.map.kakao.com/25003402",
      "region": "인천광역시",
      "lat": 37.451896682898294,
      "lng": 126.70199331233653
    },
    {
      "title": "맥도날드 신흥DT점 주차장",
      "description": "인천 중구 인항로 38",
      "url": "http://place.map.kakao.com/652907453",
      "region": "인천광역시",
      "lat": 37.4570393646807,
      "lng": 126.634491689489
    },
    {
      "title": "맥도날드 구월DT점 주차장",
      "description": "인천 남동구 인주대로 514",
      "url": "http://place.map.kakao.com/1185159776",
      "region": "인천광역시",
      "lat": 37.4499818962641,
      "lng": 126.693831136007
    },
    {
      "title": "맥도날드 문학DT점 주차장",
      "description": "인천 미추홀구 문학동 381-7",
      "url": "http://place.map.kakao.com/1254689497",
      "region": "인천광역시",
      "lat": 37.4382342439351,
      "lng": 126.688555751371
    },
    {
      "title": "맥도날드 구월아시아드DT점",
      "description": "인천 남동구 남동대로 724",
      "url": "http://place.map.kakao.com/27284849",
      "region": "인천광역시",
      "lat": 37.44691268063027,
      "lng": 126.7075595776843
    },
    {
      "title": "맥도날드 연수GS DT점",
      "description": "인천 연수구 먼우금로 200",
      "url": "http://place.map.kakao.com/7862200",
      "region": "인천광역시",
      "lat": 37.4148731951995,
      "lng": 126.676966685397
    },
    {
      "title": "맥도날드 구월아시아드DT점 주차장",
      "description": "인천 남동구 구월동 1185-1",
      "url": "http://place.map.kakao.com/937944379",
      "region": "인천광역시",
      "lat": 37.4468198633937,
      "lng": 126.707554288515
    },
    {
      "title": "맥도날드 연수이마트점",
      "description": "인천 연수구 경원대로 184",
      "url": "http://place.map.kakao.com/24998768",
      "region": "인천광역시",
      "lat": 37.4039703012009,
      "lng": 126.680727117911
    },
    {
      "title": "맥도날드 송도GS DT점",
      "description": "인천 연수구 하모니로 128",
      "url": "http://place.map.kakao.com/25070670",
      "region": "인천광역시",
      "lat": 37.3850862860298,
      "lng": 126.644556560233
    },
    {
      "title": "맥도날드 부산초량DT점",
      "description": "부산 동구 중앙대로 228",
      "url": "http://place.map.kakao.com/1203718040",
      "region": "부산광역시",
      "lat": 35.11728014176137,
      "lng": 129.04130994018306
    },
    {
      "title": "맥도날드 부산영도DT점",
      "description": "부산 영도구 태종로 150",
      "url": "http://place.map.kakao.com/26415168",
      "region": "부산광역시",
      "lat": 35.09284225115668,
      "lng": 129.04541954443434
    },
    {
      "title": "맥도날드 범일SK DT점",
      "description": "부산 동구 자성로 127",
      "url": "http://place.map.kakao.com/18211925",
      "region": "부산광역시",
      "lat": 35.1375280951125,
      "lng": 129.064043509071
    },
    {
      "title": "맥도날드 서면3호점",
      "description": "부산 부산진구 중앙대로692번길 33",
      "url": "http://place.map.kakao.com/27377002",
      "region": "부산광역시",
      "lat": 35.154568093052134,
      "lng": 129.0610856313016
    },
    {
      "title": "맥도날드 주례점",
      "description": "부산 사상구 가야대로 368",
      "url": "http://place.map.kakao.com/11079253",
      "region": "부산광역시",
      "lat": 35.15100019477056,
      "lng": 129.01271041587623
    },
    {
      "title": "맥도날드 가야점",
      "description": "부산 부산진구 가야대로 607",
      "url": "http://place.map.kakao.com/7869812",
      "region": "부산광역시",
      "lat": 35.1553119789163,
      "lng": 129.038377714581
    },
    {
      "title": "맥도날드 부산하단DT점",
      "description": "부산 사하구 낙동대로 431",
      "url": "http://place.map.kakao.com/65324332",
      "region": "부산광역시",
      "lat": 35.10418318308523,
      "lng": 128.97098868444778
    },
    {
      "title": "맥도날드 부산엄궁DT점",
      "description": "부산 사상구 낙동대로 745",
      "url": "http://place.map.kakao.com/1200421619",
      "region": "부산광역시",
      "lat": 35.1280015295568,
      "lng": 128.969157056321
    },
    {
      "title": "맥도날드 부산동명대DT점",
      "description": "부산 남구 신선로 424",
      "url": "http://place.map.kakao.com/26781637",
      "region": "부산광역시",
      "lat": 35.1228775635728,
      "lng": 129.099566305057
    },
    {
      "title": "맥도날드 동아대점",
      "description": "부산 사하구 낙동대로 548",
      "url": "http://place.map.kakao.com/8349865",
      "region": "부산광역시",
      "lat": 35.11288692500131,
      "lng": 128.96432299127707
    },
    {
      "title": "맥도날드 당감DT점",
      "description": "부산 부산진구 동평로 91",
      "url": "http://place.map.kakao.com/7869983",
      "region": "부산광역시",
      "lat": 35.1656672884015,
      "lng": 129.039500939566
    },
    {
      "title": "맥도날드 경성대점",
      "description": "부산 남구 수영로 304",
      "url": "http://place.map.kakao.com/7869816",
      "region": "부산광역시",
      "lat": 35.1368260432761,
      "lng": 129.09944182685
    },
    {
      "title": "맥도날드 부산범전DT점",
      "description": "부산 부산진구 중앙대로 823",
      "url": "http://place.map.kakao.com/27296402",
      "region": "부산광역시",
      "lat": 35.1653481027459,
      "lng": 129.064294341814
    },
    {
      "title": "맥도날드 부산황령DT점",
      "description": "부산 남구 황령대로 374",
      "url": "http://place.map.kakao.com/21603901",
      "region": "부산광역시",
      "lat": 35.1449532734474,
      "lng": 129.097846939407
    },
    {
      "title": "맥도날드 부산다대DT점",
      "description": "부산 사하구 다대로 532-1",
      "url": "http://place.map.kakao.com/27336045",
      "region": "부산광역시",
      "lat": 35.05874408081043,
      "lng": 128.97150348697065
    },
    {
      "title": "맥도날드 부산초량DT점 주차장",
      "description": "부산 동구 중앙대로 228",
      "url": "http://place.map.kakao.com/2005940583",
      "region": "부산광역시",
      "lat": 35.1172147306294,
      "lng": 129.041341210779
    },
    {
      "title": "맥도날드 부산영도DT점 주차장",
      "description": "부산 영도구 봉래동3가 82-2",
      "url": "http://place.map.kakao.com/1873962148",
      "region": "부산광역시",
      "lat": 35.0926925584303,
      "lng": 129.045371947673
    },
    {
      "title": "맥도날드 범일SK DT점 주차장",
      "description": "부산 동구 범일동 828-8",
      "url": "http://place.map.kakao.com/1663282275",
      "region": "부산광역시",
      "lat": 35.1374681922347,
      "lng": 129.064280051585
    },
    {
      "title": "맥도날드 부산하단DT점 주차장",
      "description": "부산 사하구 하단동 619-21",
      "url": "http://place.map.kakao.com/1663378675",
      "region": "부산광역시",
      "lat": 35.1040982120883,
      "lng": 128.971170867263
    },
    {
      "title": "맥도날드 부산엄궁DT점 주차장",
      "description": "부산 사상구 엄궁동 367-3",
      "url": "http://place.map.kakao.com/1131448562",
      "region": "부산광역시",
      "lat": 35.1281248364067,
      "lng": 128.969166607177
    },
    {
      "title": "맥도날드 부산동명대DT점 주차장",
      "description": "부산 남구 신선로 424",
      "url": "http://place.map.kakao.com/1235293691",
      "region": "부산광역시",
      "lat": 35.1227557945407,
      "lng": 129.099728799172
    },
    {
      "title": "맥도날드 부산범전DT점 주차장",
      "description": "부산 부산진구 범전동 383-29",
      "url": "http://place.map.kakao.com/1569279002",
      "region": "부산광역시",
      "lat": 35.16547829715645,
      "lng": 129.06453357517756
    },
    {
      "title": "맥도날드 부산황령DT점 주차장",
      "description": "부산 남구 대연동 201",
      "url": "http://place.map.kakao.com/1755335543",
      "region": "부산광역시",
      "lat": 35.1450860781642,
      "lng": 129.097671517778
    },
    {
      "title": "맥도날드 부산다대DT점 주차장",
      "description": "부산 사하구 다대동 1160-12",
      "url": "http://place.map.kakao.com/204285834",
      "region": "부산광역시",
      "lat": 35.0586898824866,
      "lng": 128.971289561012
    },
    {
      "title": "맥도날드 시청DT점",
      "description": "부산 연제구 중앙대로 1031",
      "url": "http://place.map.kakao.com/7867267",
      "region": "부산광역시",
      "lat": 35.18073760162053,
      "lng": 129.07707444209333
    },
    {
      "title": "맥도날드 초읍DT점",
      "description": "부산 부산진구 성지로 152",
      "url": "http://place.map.kakao.com/18605202",
      "region": "부산광역시",
      "lat": 35.1820074465085,
      "lng": 129.048027310929
    },
    {
      "title": "맥도날드 부산남천DT점",
      "description": "부산 수영구 수영로 470",
      "url": "http://place.map.kakao.com/1096944516",
      "region": "부산광역시",
      "lat": 35.14786625257804,
      "lng": 129.1106849704894
    },
    {
      "title": "맥도날드 사직점",
      "description": "부산 동래구 사직북로 1",
      "url": "http://place.map.kakao.com/7862193",
      "region": "부산광역시",
      "lat": 35.1959096739023,
      "lng": 129.060610396071
    },
    {
      "title": "맥도날드 부산수영SK DT점",
      "description": "부산 수영구 연수로 411",
      "url": "http://place.map.kakao.com/22670939",
      "region": "부산광역시",
      "lat": 35.16823352060923,
      "lng": 129.11417881288622
    },
    {
      "title": "맥도날드 부산사직DT점",
      "description": "부산 동래구 아시아드대로 110",
      "url": "http://place.map.kakao.com/26895920",
      "region": "부산광역시",
      "lat": 35.194378856207,
      "lng": 129.06709701169314
    },
    {
      "title": "맥도날드 부산교대DT점",
      "description": "부산 연제구 중앙대로 1179",
      "url": "http://place.map.kakao.com/18604908",
      "region": "부산광역시",
      "lat": 35.1925772390369,
      "lng": 129.079473695928
    },
    {
      "title": "맥도날드 부산남천DT점 주차장",
      "description": "부산 수영구 수영로 470",
      "url": "http://place.map.kakao.com/1243611936",
      "region": "부산광역시",
      "lat": 35.1478210456762,
      "lng": 129.110745243462
    },
    {
      "title": "맥도날드 시청DT점 주차장",
      "description": "부산 연제구 중앙대로 1031",
      "url": "http://place.map.kakao.com/1068718015",
      "region": "부산광역시",
      "lat": 35.1807746296928,
      "lng": 129.077017211296
    },
    {
      "title": "맥도날드 부산사직DT점 주차장",
      "description": "부산 동래구 사직동 105-10",
      "url": "http://place.map.kakao.com/1785832590",
      "region": "부산광역시",
      "lat": 35.1943632566241,
      "lng": 129.066902306984
    },
    {
      "title": "맥도날드 부산수영SK DT점 주차장",
      "description": "부산 수영구 수영동 450-9",
      "url": "http://place.map.kakao.com/1746015034",
      "region": "부산광역시",
      "lat": 35.1684268563391,
      "lng": 129.114357213566
    },
    {
      "title": "맥도날드 부산온천SK DT점",
      "description": "부산 동래구 충렬대로 121",
      "url": "http://place.map.kakao.com/19298930",
      "region": "부산광역시",
      "lat": 35.2063597252226,
      "lng": 129.073891822183
    },
    {
      "title": "맥도날드 토곡점",
      "description": "부산 연제구 과정로 226",
      "url": "http://place.map.kakao.com/8292804",
      "region": "부산광역시",
      "lat": 35.18788545522356,
      "lng": 129.102503507519
    },
    {
      "title": "맥도날드 원동점",
      "description": "부산 동래구 충렬대로 486",
      "url": "http://place.map.kakao.com/7861135",
      "region": "부산광역시",
      "lat": 35.194400902496305,
      "lng": 129.11093555764816
    },
    {
      "title": "맥도날드 부산구남DT점",
      "description": "부산 북구 백양대로 1045",
      "url": "http://place.map.kakao.com/24926900",
      "region": "부산광역시",
      "lat": 35.1987391049499,
      "lng": 128.99608813002
    },
    {
      "title": "맥도날드 부산덕천DT점",
      "description": "부산 북구 금곡대로 107",
      "url": "http://place.map.kakao.com/26911204",
      "region": "부산광역시",
      "lat": 35.21942464187784,
      "lng": 129.00648785496045
    },
    {
      "title": "맥도날드 부산온천SK DT점 주차장",
      "description": "부산 동래구 온천동 1431-4",
      "url": "http://place.map.kakao.com/674709106",
      "region": "부산광역시",
      "lat": 35.2063594580973,
      "lng": 129.074012590245
    },
    {
      "title": "맥도날드 부산구남DT점 주차장",
      "description": "부산 북구 구포동 920-16",
      "url": "http://place.map.kakao.com/2032192475",
      "region": "부산광역시",
      "lat": 35.1988813416992,
      "lng": 128.996097100554
    },
    {
      "title": "맥도날드 부산덕천DT점 주차장",
      "description": "부산 북구 금곡대로 107",
      "url": "http://place.map.kakao.com/414981071",
      "region": "부산광역시",
      "lat": 35.2194785350719,
      "lng": 129.006444157892
    },
    {
      "title": "맥도날드 부산대2점",
      "description": "부산 금정구 금정로60번길 24",
      "url": "http://place.map.kakao.com/21338573",
      "region": "부산광역시",
      "lat": 35.22957414776247,
      "lng": 129.08747293016128
    },
    {
      "title": "맥도날드 부곡점",
      "description": "부산 금정구 수림로 6",
      "url": "http://place.map.kakao.com/16219294",
      "region": "부산광역시",
      "lat": 35.2395339885718,
      "lng": 129.092042720968
    },
    {
      "title": "맥도날드 부산구서DT점",
      "description": "부산 금정구 중앙대로 1957",
      "url": "http://place.map.kakao.com/26309623",
      "region": "부산광역시",
      "lat": 35.258939230231,
      "lng": 129.091104453018
    },
    {
      "title": "맥도날드 화명DT점",
      "description": "부산 북구 금곡대로 360",
      "url": "http://place.map.kakao.com/9761233",
      "region": "부산광역시",
      "lat": 35.240434199394244,
      "lng": 129.0143604717426
    },
    {
      "title": "맥도날드 부산구서DT점 주차장",
      "description": "부산 금정구 구서동 163-2",
      "url": "http://place.map.kakao.com/1845508297",
      "region": "부산광역시",
      "lat": 35.2590489141529,
      "lng": 129.09101498418
    },
    {
      "title": "맥도날드 화명DT점 주차장",
      "description": "부산 북구 화명동 193-1",
      "url": "http://place.map.kakao.com/305260153",
      "region": "부산광역시",
      "lat": 35.2404885957009,
      "lng": 129.014557337447
    },
    {
      "title": "LG유플러스 장전동 맥도날드점",
      "description": "부산 금정구 금정로60번길 20",
      "url": "http://place.map.kakao.com/264952178",
      "region": "부산광역시",
      "lat": 35.2296130564311,
      "lng": 129.087306991118
    },
    {
      "title": "맥도날드 해운대DT점",
      "description": "부산 해운대구 해운대로570번길 51",
      "url": "http://place.map.kakao.com/26932557",
      "region": "부산광역시",
      "lat": 35.1601742668249,
      "lng": 129.159643755784
    },
    {
      "title": "맥도날드 달맞이DT점",
      "description": "부산 해운대구 좌동순환로 455",
      "url": "http://place.map.kakao.com/7862025",
      "region": "부산광역시",
      "lat": 35.16182200235073,
      "lng": 129.17090754329152
    },
    {
      "title": "맥도날드 부산송정DT점",
      "description": "부산 해운대구 해운대로 1114",
      "url": "http://place.map.kakao.com/19824937",
      "region": "부산광역시",
      "lat": 35.1845217591654,
      "lng": 129.201739000939
    },
    {
      "title": "맥도날드 좌동1점",
      "description": "부산 해운대구 좌동순환로 181",
      "url": "http://place.map.kakao.com/11075112",
      "region": "부산광역시",
      "lat": 35.177905492004335,
      "lng": 129.17602947154964
    },
    {
      "title": "맥도날드 부산송정DT점 주차장",
      "description": "부산 해운대구 송정동 135-2",
      "url": "http://place.map.kakao.com/1875458275",
      "region": "부산광역시",
      "lat": 35.184350970331,
      "lng": 129.20176512589
    },
    {
      "title": "맥도날드 부산명지DT점",
      "description": "부산 강서구 명지국제8로 272",
      "url": "http://place.map.kakao.com/1326759026",
      "region": "부산광역시",
      "lat": 35.09742655281154,
      "lng": 128.92259677701662
    },
    {
      "title": "맥도날드 김해삼정DT점",
      "description": "경남 김해시 김해대로 2471",
      "url": "http://place.map.kakao.com/15228665",
      "region": "경상남도",
      "lat": 35.22809356637,
      "lng": 128.896938723093
    },
    {
      "title": "맥도날드 김해삼정DT점 주차장",
      "description": "경남 김해시 김해대로 2471",
      "url": "http://place.map.kakao.com/220018550",
      "region": "경상남도",
      "lat": 35.2281190543388,
      "lng": 128.896979953134
    },
    {
      "title": "맥도날드 부산기장DT점",
      "description": "부산 기장군 기장읍 기장대로 500",
      "url": "http://place.map.kakao.com/21604729",
      "region": "부산광역시",
      "lat": 35.239665158988025,
      "lng": 129.22048331290264
    },
    {
      "title": "맥도날드 부산정관DT점",
      "description": "부산 기장군 정관읍 정관로 584",
      "url": "http://place.map.kakao.com/1894310103",
      "region": "부산광역시",
      "lat": 35.3206323289449,
      "lng": 129.177383316455
    },
    {
      "title": "맥도날드 부산정관DT점 주차장",
      "description": "부산 기장군 정관읍 매학리 720-3",
      "url": "http://place.map.kakao.com/271939719",
      "region": "부산광역시",
      "lat": 35.3203181788023,
      "lng": 129.177314420003
    },
    {
      "title": "맥도날드 부산기장DT점 주차장",
      "description": "부산 기장군 기장읍 청강리 112-1",
      "url": "http://place.map.kakao.com/1851567769",
      "region": "부산광역시",
      "lat": 35.2395423376199,
      "lng": 129.220399782895
    },
    {
      "title": "맥도날드 대구수성DT점",
      "description": "대구 수성구 달구벌대로 2345",
      "url": "http://place.map.kakao.com/20355117",
      "region": "대구광역시",
      "lat": 35.85999184248239,
      "lng": 128.61913001031894
    },
    {
      "title": "맥도날드 대구진천DT점",
      "description": "대구 달서구 월배로 67",
      "url": "http://place.map.kakao.com/18720734",
      "region": "대구광역시",
      "lat": 35.81388998304996,
      "lng": 128.52177112362122
    },
    {
      "title": "맥도날드 대구침산DT점",
      "description": "대구 북구 침산로 120",
      "url": "http://place.map.kakao.com/14516015",
      "region": "대구광역시",
      "lat": 35.886872359560925,
      "lng": 128.5916638476703
    },
    {
      "title": "맥도날드 동성로2호점",
      "description": "대구 중구 동성로 23-2",
      "url": "http://place.map.kakao.com/1083123513",
      "region": "대구광역시",
      "lat": 35.8690959404402,
      "lng": 128.595096792387
    },
    {
      "title": "맥도날드 대구본리DT점",
      "description": "대구 달서구 와룡로 134",
      "url": "http://place.map.kakao.com/25007096",
      "region": "대구광역시",
      "lat": 35.8446783842317,
      "lng": 128.537459283725
    },
    {
      "title": "맥도날드 대구두류DT점",
      "description": "대구 달서구 달구벌대로 1684",
      "url": "http://place.map.kakao.com/26319949",
      "region": "대구광역시",
      "lat": 35.8546914323943,
      "lng": 128.550125617374
    },
    {
      "title": "맥도날드 대구교대DT점",
      "description": "대구 남구 중앙대로 225",
      "url": "http://place.map.kakao.com/27357486",
      "region": "대구광역시",
      "lat": 35.85338794550715,
      "lng": 128.59028242692642
    },
    {
      "title": "맥도날드 대구동호DT점",
      "description": "대구 동구 안심로 403",
      "url": "http://place.map.kakao.com/645099391",
      "region": "대구광역시",
      "lat": 35.8697429484107,
      "lng": 128.728228698394
    },
    {
      "title": "맥도날드 칠곡2DT점",
      "description": "대구 북구 구암로 83",
      "url": "http://place.map.kakao.com/24998744",
      "region": "대구광역시",
      "lat": 35.9326623902593,
      "lng": 128.549550291913
    },
    {
      "title": "맥도날드 대구평리DT점",
      "description": "대구 서구 서대구로 95",
      "url": "http://place.map.kakao.com/13571586",
      "region": "대구광역시",
      "lat": 35.86632915752824,
      "lng": 128.55526336904933
    },
    {
      "title": "맥도날드 대구시지DT점",
      "description": "대구 수성구 달구벌대로 3199",
      "url": "http://place.map.kakao.com/14585153",
      "region": "대구광역시",
      "lat": 35.840767613761074,
      "lng": 128.70696174976044
    },
    {
      "title": "맥도날드 대구복현DT점",
      "description": "대구 북구 동북로 303",
      "url": "http://place.map.kakao.com/27177669",
      "region": "대구광역시",
      "lat": 35.892277351532115,
      "lng": 128.62303763857335
    },
    {
      "title": "맥도날드 대구황금DT점",
      "description": "대구 수성구 청수로 157",
      "url": "http://place.map.kakao.com/19607227",
      "region": "대구광역시",
      "lat": 35.839811328587984,
      "lng": 128.62529472982348
    },
    {
      "title": "맥도날드 대구상인DT점",
      "description": "대구 달서구 월곡로 338",
      "url": "http://place.map.kakao.com/25117299",
      "region": "대구광역시",
      "lat": 35.8228681483277,
      "lng": 128.533404742467
    },
    {
      "title": "맥도날드 방촌DT점",
      "description": "대구 동구 동촌로 243",
      "url": "http://place.map.kakao.com/8356475",
      "region": "대구광역시",
      "lat": 35.88107886840048,
      "lng": 128.6667906279562
    },
    {
      "title": "맥도날드 용산DT점",
      "description": "대구 달서구 용산로 222",
      "url": "http://place.map.kakao.com/7861928",
      "region": "대구광역시",
      "lat": 35.8574453289031,
      "lng": 128.53080269363437
    },
    {
      "title": "맥도날드 대구희망DT점",
      "description": "대구 수성구 수성로 238",
      "url": "http://place.map.kakao.com/14527174",
      "region": "대구광역시",
      "lat": 35.84672771991593,
      "lng": 128.61331845570032
    },
    {
      "title": "맥도날드 대구태전DT점",
      "description": "대구 북구 칠곡중앙대로 303",
      "url": "http://place.map.kakao.com/22565496",
      "region": "대구광역시",
      "lat": 35.92276561888502,
      "lng": 128.54650989118844
    },
    {
      "title": "맥도날드 대구이곡DT점",
      "description": "대구 달서구 이곡공원로 8",
      "url": "http://place.map.kakao.com/26309176",
      "region": "대구광역시",
      "lat": 35.8550672005419,
      "lng": 128.5082892309921
    },
    {
      "title": "맥도날드 대구만촌DT점",
      "description": "대구 수성구 달구벌대로 2634",
      "url": "http://place.map.kakao.com/26381392",
      "region": "대구광역시",
      "lat": 35.85649686854394,
      "lng": 128.65008117148685
    },
    {
      "title": "맥도날드 대구다사DT점",
      "description": "대구 달성군 다사읍 달구벌대로 825",
      "url": "http://place.map.kakao.com/27272531",
      "region": "대구광역시",
      "lat": 35.86175400278668,
      "lng": 128.4615435571177
    },
    {
      "title": "맥도날드 대구모다DT점",
      "description": "대구 달서구 달서대로 455",
      "url": "http://place.map.kakao.com/18377174",
      "region": "대구광역시",
      "lat": 35.840045306705,
      "lng": 128.491218778789
    },
    {
      "title": "맥도날드 만촌이마트점",
      "description": "대구 수성구 동원로 136",
      "url": "http://place.map.kakao.com/10346153",
      "region": "대구광역시",
      "lat": 35.87113777739087,
      "lng": 128.63689965466105
    },
    {
      "title": "맥도날드 대구현풍DT점",
      "description": "대구 달성군 현풍읍 비슬로 592",
      "url": "http://place.map.kakao.com/1379718269",
      "region": "대구광역시",
      "lat": 35.6917384388378,
      "lng": 128.444459291333
    },
    {
      "title": "맥도날드 대구시지DT점 주차장",
      "description": "대구 수성구 달구벌대로 3199",
      "url": "http://place.map.kakao.com/1565864904",
      "region": "대구광역시",
      "lat": 35.8407882015984,
      "lng": 128.707098317238
    },
    {
      "title": "맥도날드 대구수성DT점 주차장",
      "description": "대구 수성구 달구벌대로469길 13",
      "url": "http://place.map.kakao.com/402286799",
      "region": "대구광역시",
      "lat": 35.860024664968485,
      "lng": 128.61930226311475
    },
    {
      "title": "맥도날드 방촌DT점 주차장",
      "description": "대구 동구 동촌로 243",
      "url": "http://place.map.kakao.com/127528082",
      "region": "대구광역시",
      "lat": 35.8811143193099,
      "lng": 128.666833447778
    },
    {
      "title": "맥도날드 대구희망DT점 주차장",
      "description": "대구 수성구 중동 70-1",
      "url": "http://place.map.kakao.com/1141988605",
      "region": "대구광역시",
      "lat": 35.8467165838267,
      "lng": 128.613141139422
    },
    {
      "title": "맥도날드 대구황금DT점 주차장",
      "description": "대구 수성구 청수로 157",
      "url": "http://place.map.kakao.com/676941785",
      "region": "대구광역시",
      "lat": 35.8397703598984,
      "lng": 128.625458794889
    },
    {
      "title": "맥도날드 대구침산DT점 주차장",
      "description": "대구 북구 침산동 244-6",
      "url": "http://place.map.kakao.com/1185106021",
      "region": "대구광역시",
      "lat": 35.8869115856026,
      "lng": 128.591491881537
    },
    {
      "title": "맥도날드 대구본리DT점 주차장",
      "description": "대구 달서구 감삼동 346",
      "url": "http://place.map.kakao.com/1008278437",
      "region": "대구광역시",
      "lat": 35.8445448285749,
      "lng": 128.5375441427
    },
    {
      "title": "맥도날드 대구평리DT점 주차장",
      "description": "대구 서구 평리동 1407-1",
      "url": "http://place.map.kakao.com/414835502",
      "region": "대구광역시",
      "lat": 35.8664516827718,
      "lng": 128.555265763614
    },
    {
      "title": "맥도날드 대구태전DT점 주차장",
      "description": "대구 북구 태전동 409-12",
      "url": "http://place.map.kakao.com/1255254337",
      "region": "대구광역시",
      "lat": 35.9227826305678,
      "lng": 128.546308586866
    },
    {
      "title": "맥도날드 대구교대DT점 주차장",
      "description": "대구 남구 대명동 1793-5",
      "url": "http://place.map.kakao.com/1138980643",
      "region": "대구광역시",
      "lat": 35.8533928235401,
      "lng": 128.590050072516
    },
    {
      "title": "맥도날드 대구진천DT점 주차장",
      "description": "대구 달서구 진천동 599-1",
      "url": "http://place.map.kakao.com/652735209",
      "region": "대구광역시",
      "lat": 35.8140466538407,
      "lng": 128.521639135632
    },
    {
      "title": "맥도날드 대구만촌DT점 주차장",
      "description": "대구 수성구 달구벌대로 2634",
      "url": "http://place.map.kakao.com/82890723",
      "region": "대구광역시",
      "lat": 35.8564399914557,
      "lng": 128.650088848106
    },
    {
      "title": "맥도날드 대구상인DT점 주차장",
      "description": "대구 달서구 상인동 54-2",
      "url": "http://place.map.kakao.com/485152903",
      "region": "대구광역시",
      "lat": 35.822875491989,
      "lng": 128.533535450594
    },
    {
      "title": "맥도날드 대구이곡DT점 주차장",
      "description": "대구 달서구 이곡동 1244-3",
      "url": "http://place.map.kakao.com/1194048847",
      "region": "대구광역시",
      "lat": 35.8551149876069,
      "lng": 128.508430719098
    },
    {
      "title": "맥도날드 광주월산DT점",
      "description": "광주 남구 대남대로 393",
      "url": "http://place.map.kakao.com/26309527",
      "region": "광주광역시",
      "lat": 35.145899423794,
      "lng": 126.889827097919
    },
    {
      "title": "맥도날드 광주산정DT점",
      "description": "광주 광산구 용아로 251",
      "url": "http://place.map.kakao.com/25000754",
      "region": "광주광역시",
      "lat": 35.1658509418612,
      "lng": 126.801364717959
    },
    {
      "title": "맥도날드 전남대DT점",
      "description": "광주 북구 우치로 134",
      "url": "http://place.map.kakao.com/24664590",
      "region": "광주광역시",
      "lat": 35.179484316971,
      "lng": 126.912217140276
    },
    {
      "title": "맥도날드 광주쌍촌DT점",
      "description": "광주 서구 상무대로 921-1",
      "url": "http://place.map.kakao.com/1424156191",
      "region": "광주광역시",
      "lat": 35.151488905004925,
      "lng": 126.86261468332441
    },
    {
      "title": "맥도날드 광주첨단DT점",
      "description": "광주 북구 임방울대로 1048",
      "url": "http://place.map.kakao.com/18397469",
      "region": "광주광역시",
      "lat": 35.2117104298653,
      "lng": 126.87179915924328
    },
    {
      "title": "맥도날드 상무대점",
      "description": "광주 서구 치평로 72",
      "url": "http://place.map.kakao.com/27134939",
      "region": "광주광역시",
      "lat": 35.153745046913265,
      "lng": 126.84757311363052
    },
    {
      "title": "맥도날드 광주동림DT점",
      "description": "광주 북구 하남대로 635",
      "url": "http://place.map.kakao.com/21531450",
      "region": "광주광역시",
      "lat": 35.1723638697505,
      "lng": 126.862176707231
    },
    {
      "title": "맥도날드 광주진월DT점",
      "description": "광주 남구 서문대로 697",
      "url": "http://place.map.kakao.com/27336043",
      "region": "광주광역시",
      "lat": 35.12164380421147,
      "lng": 126.89813816298262
    },
    {
      "title": "맥도날드 광주운암DT점",
      "description": "광주 북구 북문대로187번길 2",
      "url": "http://place.map.kakao.com/26072829",
      "region": "광주광역시",
      "lat": 35.18493761614587,
      "lng": 126.87018118304204
    },
    {
      "title": "맥도날드 용봉DT점",
      "description": "광주 북구 설죽로 289",
      "url": "http://place.map.kakao.com/11512196",
      "region": "광주광역시",
      "lat": 35.185078901065275,
      "lng": 126.89822595298624
    },
    {
      "title": "맥도날드 전남대DT점 주차장",
      "description": "광주 북구 우치로 134",
      "url": "http://place.map.kakao.com/2005573540",
      "region": "광주광역시",
      "lat": 35.1795023790826,
      "lng": 126.91226542558
    },
    {
      "title": "맥도날드 광주산정DT점 주차장",
      "description": "광주 광산구 산정동 143-16",
      "url": "http://place.map.kakao.com/773392152",
      "region": "광주광역시",
      "lat": 35.1658529352853,
      "lng": 126.801481063943
    },
    {
      "title": "맥도날드 광주진월DT점 주차장",
      "description": "광주 남구 서문대로 697",
      "url": "http://place.map.kakao.com/741815794",
      "region": "광주광역시",
      "lat": 35.1216240175244,
      "lng": 126.89818974931
    },
    {
      "title": "맥도날드 광주월산DT점 주차장",
      "description": "광주 남구 대남대로 393",
      "url": "http://place.map.kakao.com/877824938",
      "region": "광주광역시",
      "lat": 35.1458542899179,
      "lng": 126.889754731511
    },
    {
      "title": "맥도날드 광주첨단DT점 주차장",
      "description": "광주 북구 임방울대로 1048",
      "url": "http://place.map.kakao.com/1254516925",
      "region": "광주광역시",
      "lat": 35.211662618789,
      "lng": 126.871761893329
    },
    {
      "title": "맥도날드 광주운암DT점 주차장",
      "description": "광주 북구 운암동 1078-2",
      "url": "http://place.map.kakao.com/384425917",
      "region": "광주광역시",
      "lat": 35.1850440723334,
      "lng": 126.870271042254
    },
    {
      "title": "맥도날드 광주동림DT점 주차장",
      "description": "광주 북구 하남대로 635",
      "url": "http://place.map.kakao.com/816593889",
      "region": "광주광역시",
      "lat": 35.172340539393,
      "lng": 126.862268956568
    },
    {
      "title": "맥도날드 대전유성DT점",
      "description": "대전 유성구 계룡로87번길 3",
      "url": "http://place.map.kakao.com/25070675",
      "region": "대전광역시",
      "lat": 36.3543866426275,
      "lng": 127.340379186801
    },
    {
      "title": "맥도날드 대전가장DT점",
      "description": "대전 서구 도산로 324",
      "url": "http://place.map.kakao.com/26378999",
      "region": "대전광역시",
      "lat": 36.33439279748231,
      "lng": 127.38892773742452
    },
    {
      "title": "맥도날드 대전신탄진DT점",
      "description": "대전 대덕구 신탄진로 605",
      "url": "http://place.map.kakao.com/22105346",
      "region": "대전광역시",
      "lat": 36.432674179533095,
      "lng": 127.42316371004583
    },
    {
      "title": "맥도날드 대전부사DT점",
      "description": "대전 중구 충무로 139",
      "url": "http://place.map.kakao.com/27067741",
      "region": "대전광역시",
      "lat": 36.319822360697664,
      "lng": 127.43177233174892
    },
    {
      "title": "맥도날드 대전한남대DT점",
      "description": "대전 대덕구 한밭대로 1102",
      "url": "http://place.map.kakao.com/25070665",
      "region": "대전광역시",
      "lat": 36.358447555501,
      "lng": 127.421186136201
    },
    {
      "title": "맥도날드 대전센트럴DT점",
      "description": "대전 중구 중앙로 64",
      "url": "http://place.map.kakao.com/15274378",
      "region": "대전광역시",
      "lat": 36.3242167464405,
      "lng": 127.4193001819
    },
    {
      "title": "맥도날드 대전가수원DT점",
      "description": "대전 서구 계백로 1124",
      "url": "http://place.map.kakao.com/25070673",
      "region": "대전광역시",
      "lat": 36.303660591306,
      "lng": 127.3483630592118
    },
    {
      "title": "맥도날드 대전카이스트DT점",
      "description": "대전 유성구 대덕대로 535",
      "url": "http://place.map.kakao.com/22559525",
      "region": "대전광역시",
      "lat": 36.3805073124227,
      "lng": 127.378371441189
    },
    {
      "title": "맥도날드 대전유천DT점",
      "description": "대전 중구 계백로 1549",
      "url": "http://place.map.kakao.com/24728456",
      "region": "대전광역시",
      "lat": 36.31742206388121,
      "lng": 127.39243354837863
    },
    {
      "title": "맥도날드 대전터미널점",
      "description": "대전 동구 동서대로 1689",
      "url": "http://place.map.kakao.com/15238960",
      "region": "대전광역시",
      "lat": 36.3499088178479,
      "lng": 127.437030615592
    },
    {
      "title": "맥도날드 세이브존대전점",
      "description": "대전 서구 둔산로 201",
      "url": "http://place.map.kakao.com/24999684",
      "region": "대전광역시",
      "lat": 36.3516646722561,
      "lng": 127.39553529928
    },
    {
      "title": "맥도날드 목원대점",
      "description": "대전 유성구 도안북로 81",
      "url": "http://place.map.kakao.com/21611200",
      "region": "대전광역시",
      "lat": 36.3302892752187,
      "lng": 127.337797356846
    },
    {
      "title": "맥도날드 대전가장DT점 주차장",
      "description": "대전 서구 가장동 54-9",
      "url": "http://place.map.kakao.com/1257890762",
      "region": "대전광역시",
      "lat": 36.3343673310192,
      "lng": 127.388445332393
    },
    {
      "title": "맥도날드 대전유천DT점 주차장",
      "description": "대전 중구 유천동 327-33",
      "url": "http://place.map.kakao.com/901840170",
      "region": "대전광역시",
      "lat": 36.3174721452026,
      "lng": 127.392550723895
    },
    {
      "title": "맥도날드 대전카이스트점 주차장",
      "description": "대전 유성구 가정동 2-23",
      "url": "http://place.map.kakao.com/1749680752",
      "region": "대전광역시",
      "lat": 36.3806590173337,
      "lng": 127.378274102967
    },
    {
      "title": "맥도날드 대전신탄진DT점 주차장",
      "description": "대전 대덕구 상서동 834-5",
      "url": "http://place.map.kakao.com/1184585500",
      "region": "대전광역시",
      "lat": 36.4327755897477,
      "lng": 127.423282472767
    },
    {
      "title": "맥도날드 대전부사DT점 주차장",
      "description": "대전 중구 부사동 87-14",
      "url": "http://place.map.kakao.com/2092926785",
      "region": "대전광역시",
      "lat": 36.3196913586255,
      "lng": 127.431864037691
    },
    {
      "title": "맥도날드 대전한남대DT점 주차장",
      "description": "대전 대덕구 중리동 230-15",
      "url": "http://place.map.kakao.com/1746352643",
      "region": "대전광역시",
      "lat": 36.3583757144021,
      "lng": 127.42111444367
    },
    {
      "title": "맥도날드 대전가수원DT점 주차장",
      "description": "대전 서구 가수원동 655-4",
      "url": "http://place.map.kakao.com/652036984",
      "region": "대전광역시",
      "lat": 36.3034629784796,
      "lng": 127.348450136486
    },
    {
      "title": "투루카 목원대학교 정문(맥도날드 옆 방문자주차장)",
      "description": "대전 서구 도안북로 88",
      "url": "http://place.map.kakao.com/925256084",
      "region": "대전광역시",
      "lat": 36.3288664012632,
      "lng": 127.337447072077
    },
    {
      "title": "투루카 목원대학교 정문(맥도날드 옆 공한지 주차장)",
      "description": "대전 서구 도안동 1557",
      "url": "http://place.map.kakao.com/911880093",
      "region": "대전광역시",
      "lat": 36.3300007647451,
      "lng": 127.337525470958
    },
    {
      "title": "맥도날드 울산삼산로DT점",
      "description": "울산 남구 삼산로 230",
      "url": "http://place.map.kakao.com/26414783",
      "region": "울산광역시",
      "lat": 35.5380394065796,
      "lng": 129.332323633917
    },
    {
      "title": "맥도날드 울산삼산DT점",
      "description": "울산 남구 화합로 201",
      "url": "http://place.map.kakao.com/21534400",
      "region": "울산광역시",
      "lat": 35.542633924505004,
      "lng": 129.339157488091
    },
    {
      "title": "맥도날드 울산굴화DT점",
      "description": "울산 울주군 범서읍 울밀로 2877",
      "url": "http://place.map.kakao.com/26357900",
      "region": "울산광역시",
      "lat": 35.556549927425735,
      "lng": 129.26241308831584
    },
    {
      "title": "맥도날드 달동점",
      "description": "울산 남구 신정로 37",
      "url": "http://place.map.kakao.com/8331012",
      "region": "울산광역시",
      "lat": 35.5351613504821,
      "lng": 129.321966267469
    },
    {
      "title": "맥도날드 울산병영점",
      "description": "울산 중구 번영로 576",
      "url": "http://place.map.kakao.com/18989662",
      "region": "울산광역시",
      "lat": 35.568512707673015,
      "lng": 129.34502028601
    },
    {
      "title": "맥도날드 울산옥동DT점",
      "description": "울산 남구 문수로423번길 2",
      "url": "http://place.map.kakao.com/21928324",
      "region": "울산광역시",
      "lat": 35.53387145204353,
      "lng": 129.29994825157087
    },
    {
      "title": "맥도날드 울산옥현점",
      "description": "울산 남구 옥현로58번길 4",
      "url": "http://place.map.kakao.com/15304698",
      "region": "울산광역시",
      "lat": 35.541137376286514,
      "lng": 129.261869702937
    },
    {
      "title": "맥도날드 울산서동DT점",
      "description": "울산 중구 북부순환도로 891",
      "url": "http://place.map.kakao.com/2052908861",
      "region": "울산광역시",
      "lat": 35.5809561280662,
      "lng": 129.347477746384
    },
    {
      "title": "맥도날드 울산호계SKDT점",
      "description": "울산 북구 신천동 451-2",
      "url": "http://place.map.kakao.com/17214575",
      "region": "울산광역시",
      "lat": 35.635771097353214,
      "lng": 129.34527031247157
    },
    {
      "title": "맥도날드 울산SKDT점",
      "description": "울산 남구 중앙로 126",
      "url": "http://place.map.kakao.com/12119342",
      "region": "울산광역시",
      "lat": 35.5326826200616,
      "lng": 129.31563797999445
    },
    {
      "title": "맥도날드 울산일산DT점",
      "description": "울산 동구 방어진순환도로 634",
      "url": "http://place.map.kakao.com/27284847",
      "region": "울산광역시",
      "lat": 35.49837812327498,
      "lng": 129.42828378004776
    },
    {
      "title": "맥도날드 울산굴화DT점 주차장",
      "description": "울산 울주군 범서읍 굴화리 28-8",
      "url": "http://place.map.kakao.com/1634861518",
      "region": "울산광역시",
      "lat": 35.5564254916894,
      "lng": 129.262561758421
    },
    {
      "title": "맥도날드 울산삼산DT점 주차장",
      "description": "울산 남구 삼산동 1550-7",
      "url": "http://place.map.kakao.com/231124644",
      "region": "울산광역시",
      "lat": 35.5425936440972,
      "lng": 129.3389115715
    },
    {
      "title": "맥도날드 울산일산DT점 주차장",
      "description": "울산 동구 일산동 951-5",
      "url": "http://place.map.kakao.com/1588908636",
      "region": "울산광역시",
      "lat": 35.4981928869109,
      "lng": 129.42826498021
    },
    {
      "title": "맥도날드 울산SK DT점 주차장",
      "description": "울산 남구 달동 819",
      "url": "http://place.map.kakao.com/1369140935",
      "region": "울산광역시",
      "lat": 35.5325949384861,
      "lng": 129.315277201946
    },
    {
      "title": "맥도날드 울산삼산로DT점 주차장",
      "description": "울산 남구 삼산로 230",
      "url": "http://place.map.kakao.com/547291425",
      "region": "울산광역시",
      "lat": 35.5380331401913,
      "lng": 129.332274946819
    },