{
  "pins": [
    {
      "lat": 37.47136754830765,
      "lng": 127.08875842678428,
      "title": "강남자곡힐스테이트아파트",
      "description": "서울 강남구 자곡로3길 21",
      "url": "http://place.map.kakao.com/23371196",
      "region": "서울특별시"
    },
    {
      "lat": 37.51385953949973,
      "lng": 127.05148791178168,
      "title": "삼성힐스테이트2단지아파트",
      "description": "서울 강남구 삼성로111길 8",
      "url": "http://place.map.kakao.com/8616308",
      "region": "서울특별시"
    },
    {
      "lat": 37.516307951190136,
      "lng": 127.04844908379533,
      "title": "삼성힐스테이트1단지아파트",
      "description": "서울 강남구 학동로68길 29",
      "url": "http://place.map.kakao.com/8163221",
      "region": "서울특별시"
    },
    {
      "lat": 37.48772183180859,
      "lng": 127.04597018911261,
      "title": "도곡현대힐스테이트아파트",
      "description": "서울 강남구 남부순환로379길 15",
      "url": "http://place.map.kakao.com/8620527",
      "region": "서울특별시"
    },
    {
      "lat": 37.5595258727289,
      "lng": 127.149057394089,
      "title": "래미안힐스테이트고덕아파트",
      "description": "서울 강동구 아리수로50길 50",
      "url": "http://place.map.kakao.com/24480772",
      "region": "서울특별시"
    },
    {
      "lat": 37.57287478622729,
      "lng": 127.17423128834973,
      "title": "힐스테이트리슈빌강일아파트",
      "description": "서울 강동구 아리수로93다길 80",
      "url": "http://place.map.kakao.com/35549639",
      "region": "서울특별시"
    },
    {
      "lat": 37.537190220116706,
      "lng": 127.12575243573077,
      "title": "힐스테이트천호역젠트리스아파트",
      "description": "서울 강동구 천호대로 1024",
      "url": "http://place.map.kakao.com/1751520115",
      "region": "서울특별시"
    },
    {
      "lat": 37.54881982042725,
      "lng": 127.12537024107174,
      "title": "힐스테이트강동리버뷰아파트",
      "description": "서울 강동구 올림픽로91길 30",
      "url": "http://place.map.kakao.com/2098654936",
      "region": "서울특별시"
    },
    {
      "lat": 37.5593848377067,
      "lng": 127.14872323444936,
      "title": "고덕래미안힐스테이트 커뮤니티센터",
      "description": "서울 강동구 아리수로50길 50",
      "url": "http://place.map.kakao.com/806877035",
      "region": "서울특별시"
    },
    {
      "lat": 37.61445774028558,
      "lng": 127.00767015212185,
      "title": "정릉힐스테이트3차아파트",
      "description": "서울 성북구 보국문로 116",
      "url": "http://place.map.kakao.com/11168644",
      "region": "서울특별시"
    },
    {
      "lat": 37.6064209916095,
      "lng": 127.029861902999,
      "title": "성북힐스테이트아파트",
      "description": "서울 성북구 동소문로44길 43",
      "url": "http://place.map.kakao.com/8177624",
      "region": "서울특별시"
    },
    {
      "lat": 37.60283420401172,
      "lng": 127.01552363909714,
      "title": "정릉힐스테이트아파트",
      "description": "서울 성북구 정릉로 292",
      "url": "http://place.map.kakao.com/11360323",
      "region": "서울특별시"
    },
    {
      "lat": 37.60020663623411,
      "lng": 127.01751840171438,
      "title": "정릉힐스테이트1차아파트",
      "description": "서울 성북구 북악산로 831",
      "url": "http://place.map.kakao.com/11168643",
      "region": "서울특별시"
    },
    {
      "lat": 37.5986500619914,
      "lng": 127.01506981469848,
      "title": "돈암힐스테이트아파트",
      "description": "서울 성북구 아리랑로 68",
      "url": "http://place.map.kakao.com/11307656",
      "region": "서울특별시"
    },
    {
      "lat": 37.59041128283582,
      "lng": 127.0529695166354,
      "title": "회기힐스테이트아파트",
      "description": "서울 동대문구 회기로26길 15",
      "url": "http://place.map.kakao.com/11286882",
      "region": "서울특별시"
    },
    {
      "lat": 37.54675178573402,
      "lng": 126.84011485946367,
      "title": "강서힐스테이트아파트",
      "description": "서울 강서구 우현로 67",
      "url": "http://place.map.kakao.com/13337189",
      "region": "서울특별시"
    },
    {
      "lat": 37.55629539035237,
      "lng": 126.83896612119196,
      "title": "우장산힐스테이트아파트",
      "description": "서울 강서구 강서로 348",
      "url": "http://place.map.kakao.com/11190608",
      "region": "서울특별시"
    },
    {
      "lat": 37.55125332371525,
      "lng": 126.87454307099104,
      "title": "강변힐스테이트아파트",
      "description": "서울 강서구 양천로75길 19",
      "url": "http://place.map.kakao.com/11316023",
      "region": "서울특별시"
    },
    {
      "lat": 37.564601848129286,
      "lng": 126.818000710849,
      "title": "마곡힐스테이트아파트",
      "description": "서울 강서구 마곡중앙3로 74",
      "url": "http://place.map.kakao.com/24907712",
      "region": "서울특별시"
    },
    {
      "lat": 37.55771609731765,
      "lng": 126.81777865696877,
      "title": "마곡13단지힐스테이트마스터아파트",
      "description": "서울 강서구 마곡중앙1로 71",
      "url": "http://place.map.kakao.com/26533272",
      "region": "서울특별시"
    },
    {
      "lat": 37.5491552002643,
      "lng": 126.859603312396,
      "title": "힐스테이트등촌역아파트 (2026년10월예정)",
      "description": "서울 강서구 등촌동 366-24",
      "url": "http://place.map.kakao.com/1997437660",
      "region": "서울특별시"
    },
    {
      "lat": 37.56723761949188,
      "lng": 126.81590931906521,
      "title": "힐스테이트신방화역아파트",
      "description": "서울 강서구 초원로16길 3-11",
      "url": "http://place.map.kakao.com/467945510",
      "region": "서울특별시"
    },
    {
      "lat": 37.551385613671634,
      "lng": 126.87355150504912,
      "title": "염창힐스테이트아파트",
      "description": "서울 강서구 양천로73길 24",
      "url": "http://place.map.kakao.com/11282989",
      "region": "서울특별시"
    },
    {
      "lat": 37.5473833039816,
      "lng": 126.836762811965,
      "title": "강서힐스테이트상가",
      "description": "서울 강서구 강서로 242",
      "url": "http://place.map.kakao.com/26489245",
      "region": "서울특별시"
    },
    {
      "lat": 37.5570798497202,
      "lng": 126.838081662526,
      "title": "우장산힐스테이트상가",
      "description": "서울 강서구 강서로 348",
      "url": "http://place.map.kakao.com/26450437",
      "region": "서울특별시"
    },
    {
      "lat": 37.49120629722589,
      "lng": 126.9461360769748,
      "title": "힐스테이트관악센트씨엘아파트",
      "description": "서울 관악구 구암5길 28",
      "url": "http://place.map.kakao.com/1622011907",
      "region": "서울특별시"
    },
    {
      "lat": 37.48398143558965,
      "lng": 126.90513242647481,
      "title": "힐스테이트뉴포레아파트",
      "description": "서울 관악구 조원로 25",
      "url": "http://place.map.kakao.com/485751838",
      "region": "서울특별시"
    },
    {
      "lat": 37.495407955595,
      "lng": 126.95087235480803,
      "title": "힐스테이트상도센트럴파크아파트",
      "description": "서울 동작구 상도로 346-1",
      "url": "http://place.map.kakao.com/11951329",
      "region": "서울특별시"
    },
    {
      "lat": 37.49683626864336,
      "lng": 126.94925543680915,
      "title": "힐스테이트상도프레스티지아파트",
      "description": "서울 동작구 상도로 346-2",
      "url": "http://place.map.kakao.com/11373951",
      "region": "서울특별시"
    },
    {
      "lat": 37.48597229245965,
      "lng": 126.97609732499457,
      "title": "힐스테이트이수역센트럴아파트 (2028년04월예정)",
      "description": "서울 동작구 사당동 155-4",
      "url": "http://place.map.kakao.com/1431867132",
      "region": "서울특별시"
    },
    {
      "lat": 37.49440735792371,
      "lng": 126.98004795528303,
      "title": "이수힐스테이트아파트",
      "description": "서울 동작구 동작대로39길 22",
      "url": "http://place.map.kakao.com/15101318",
      "region": "서울특별시"
    },
    {
      "lat": 37.54317982217169,
      "lng": 127.09956264336907,
      "title": "광장힐스테이트아파트",
      "description": "서울 광진구 아차산로 537-17",
      "url": "http://place.map.kakao.com/12295470",
      "region": "서울특별시"
    },
    {
      "lat": 37.54123529245703,
      "lng": 127.05214038152941,
      "title": "서울숲힐스테이트아파트",
      "description": "서울 성동구 성수일로4길 26",
      "url": "http://place.map.kakao.com/11506055",
      "region": "서울특별시"
    },
    {
      "lat": 37.531024030092624,
      "lng": 127.1185352952336,
      "title": "송파현대힐스테이트아파트",
      "description": "서울 송파구 풍성로26길 31",
      "url": "http://place.map.kakao.com/11200480",
      "region": "서울특별시"
    },
    {
      "lat": 37.575965207219284,
      "lng": 127.07534884553698,
      "title": "장안힐스테이트아파트",
      "description": "서울 동대문구 장안벚꽃로1길 7",
      "url": "http://place.map.kakao.com/8540251",
      "region": "서울특별시"
    },
    {
      "lat": 37.49673142073229,
      "lng": 126.8210277186938,
      "title": "온수힐스테이트아파트",
      "description": "서울 구로구 부일로9길 127",
      "url": "http://place.map.kakao.com/11196055",
      "region": "서울특별시"
    },
    {
      "lat": 37.503633068648256,
      "lng": 126.85814711450197,
      "title": "고척푸르지오힐스테이트아파트 (2028년08월예정)",
      "description": "서울 구로구 고척로 233",
      "url": "http://place.map.kakao.com/1201387431",
      "region": "서울특별시"
    },
    {
      "lat": 37.4824079313338,
      "lng": 126.861072618925,
      "title": "광명자이힐스테이트SKVIEW아파트 (2027년07월예정)",
      "description": "경기 광명시 광명동 78-38",
      "url": "http://place.map.kakao.com/1210619910",
      "region": "경기도"
    },
    {
      "lat": 37.4775881294885,
      "lng": 126.857784836187,
      "title": "힐스테이트광명11아파트 (2029년06월예정)",
      "description": "경기 광명시 광명동 158-403",
      "url": "http://place.map.kakao.com/1843944507",
      "region": "경기도"
    },
    {
      "lat": 37.44617350236848,
      "lng": 126.90109718872206,
      "title": "남서울힐스테이트아파트",
      "description": "서울 금천구 시흥대로 165",
      "url": "http://place.map.kakao.com/11016076",
      "region": "서울특별시"
    },
    {
      "lat": 37.4472275339529,
      "lng": 126.90199310132,
      "title": "남서울힐스테이트아파트 상가",
      "description": "서울 금천구 시흥대로 165",
      "url": "http://place.map.kakao.com/26444755",
      "region": "서울특별시"
    },
    {
      "lat": 37.43059905067776,
      "lng": 126.90499872060343,
      "title": "힐스테이트석수아파트",
      "description": "경기 안양시 만안구 경수대로1394번길 12",
      "url": "http://place.map.kakao.com/26338439",
      "region": "경기도"
    },
    {
      "lat": 37.474147852486745,
      "lng": 126.86215736799751,
      "title": "힐스테이트광명11아파트 301동",
      "description": "경기 광명시 광명동 158-403",
      "url": "http://place.map.kakao.com/363374616",
      "region": "경기도"
    },
    {
      "lat": 37.71978773014352,
      "lng": 127.04205154136015,
      "title": "힐스테이트회룡역파크뷰아파트 (2026년04월예정)",
      "description": "경기 의정부시 호원동 281-21",
      "url": "http://place.map.kakao.com/1446196000",
      "region": "경기도"
    },
    {
      "lat": 37.57152873927553,
      "lng": 127.04760981436473,
      "title": "힐스테이트청계아파트",
      "description": "서울 동대문구 천호대로55길 11",
      "url": "http://place.map.kakao.com/27037402",
      "region": "서울특별시"
    },
    {
      "lat": 37.505434814638456,
      "lng": 126.94015881584595,
      "title": "힐스테이트장승배기역아파트 (2026년02월예정)",
      "description": "서울 동작구 상도로13가길 6-2",
      "url": "http://place.map.kakao.com/1558151351",
      "region": "서울특별시"
    },
    {
      "lat": 37.5059652547434,
      "lng": 126.945210507107,
      "title": "힐스테이트동작시그니처아파트 (예정)",
      "description": "서울 동작구 상도동 23-42",
      "url": "http://place.map.kakao.com/2118295920",
      "region": "서울특별시"
    },
    {
      "lat": 37.543329085382865,
      "lng": 126.93327926727596,
      "title": "강변힐스테이트아파트",
      "description": "서울 마포구 신수로 15",
      "url": "http://place.map.kakao.com/11268973",
      "region": "서울특별시"
    },
    {
      "lat": 37.5502177126027,
      "lng": 126.95778249776,
      "title": "마포자이힐스테이트라첼스아파트 (2027년03월예정)",
      "description": "서울 마포구 공덕동 105-84",
      "url": "http://place.map.kakao.com/1295404321",
      "region": "서울특별시"
    },
    {
      "lat": 37.548270461171064,
      "lng": 126.93543513500693,
      "title": "힐스테이트마포더퍼스트아파트 (2026년07월예정)",
      "description": "서울 마포구 신수동 91-90",
      "url": "http://place.map.kakao.com/2097498309",
      "region": "서울특별시"
    },
    {
      "lat": 37.577350893749326,
      "lng": 126.90136318780453,
      "title": "힐스테이트DMC역아파트 (2027년04월예정)",
      "description": "서울 은평구 증산동 223-15",
      "url": "http://place.map.kakao.com/937535129",
      "region": "서울특별시"
    },
    {
      "lat": 37.58662397862886,
      "lng": 126.92468003893437,
      "title": "힐스테이트홍은포레스트아파트",
      "description": "서울 서대문구 가좌로4길 21",
      "url": "http://place.map.kakao.com/101479010",
      "region": "서울특별시"
    },
    {
      "lat": 37.589978385382494,
      "lng": 126.92192527666943,
      "title": "힐스테이트백련산4차아파트",
      "description": "서울 은평구 백련산로 37",
      "url": "http://place.map.kakao.com/26824327",
      "region": "서울특별시"
    },
    {
      "lat": 37.58798770406723,
      "lng": 126.9240910395727,
      "title": "백련산힐스테이트3차아파트",
      "description": "서울 은평구 백련산로 36",
      "url": "http://place.map.kakao.com/11281391",
      "region": "서울특별시"
    },
    {
      "lat": 37.59125998898949,
      "lng": 126.92390655209836,
      "title": "백련산힐스테이트2차아파트",
      "description": "서울 은평구 백련산로 38",
      "url": "http://place.map.kakao.com/11365482",
      "region": "서울특별시"
    },
    {
      "lat": 37.59248253531061,
      "lng": 126.92515988902584,
      "title": "백련산힐스테이트1차아파트",
      "description": "서울 은평구 백련산로2길 19",
      "url": "http://place.map.kakao.com/11289863",
      "region": "서울특별시"
    },
    {
      "lat": 37.5895185814508,
      "lng": 126.924233280471,
      "title": "백련산힐스테이트2차아파트(760-2)",
      "description": "서울 은평구 백련산로2길 42",
      "url": "http://place.map.kakao.com/1305927323",
      "region": "서울특별시"
    },
    {
      "lat": 37.562067722091165,
      "lng": 126.95101876524527,
      "title": "힐스테이트신촌아파트",
      "description": "서울 서대문구 이화여대8길 123",
      "url": "http://place.map.kakao.com/27025605",
      "region": "서울특별시"
    },
    {
      "lat": 37.5618781533648,
      "lng": 126.952341999501,
      "title": "힐스테이트신촌아파트 상가",
      "description": "서울 서대문구 북아현동 199-1",
      "url": "http://place.map.kakao.com/1336320803",
      "region": "서울특별시"
    },
    {
      "lat": 37.5889944153227,
      "lng": 126.924563293965,
      "title": "백련산힐스테이트3차아파트(761-1)",
      "description": "서울 은평구 백련산로2길 46",
      "url": "http://place.map.kakao.com/1305981363",
      "region": "서울특별시"
    },
    {
      "lat": 37.50126025229706,
      "lng": 126.99679272443385,
      "title": "반포힐스테이트아파트",
      "description": "서울 서초구 신반포로16길 15-20",
      "url": "http://place.map.kakao.com/12143685",
      "region": "서울특별시"
    },
    {
      "lat": 37.45615442655966,
      "lng": 127.05742953277792,
      "title": "힐스테이트서초젠트리스아파트",
      "description": "서울 서초구 헌릉로8길 10-12",
      "url": "http://place.map.kakao.com/20671228",
      "region": "서울특별시"
    },
    {
      "lat": 37.4903174034371,
      "lng": 127.00624739497167,
      "title": "마제스타시티힐스테이트서리풀아파트",
      "description": "서울 서초구 서초대로38길 12",
      "url": "http://place.map.kakao.com/26257062",
      "region": "서울특별시"
    },
    {
      "lat": 37.4555903796015,
      "lng": 127.057456226933,
      "title": "힐스테이트서초젠트리스아파트 상가",
      "description": "서울 서초구 헌릉로8길 10-12",
      "url": "http://place.map.kakao.com/26092661",
      "region": "서울특별시"
    },
    {
      "lat": 37.54667682397977,
      "lng": 127.02664354487428,
      "title": "힐스테이트서울숲리버아파트",
      "description": "서울 성동구 독서당로 344",
      "url": "http://place.map.kakao.com/27120847",
      "region": "서울특별시"
    },
    {
      "lat": 37.58212965891609,
      "lng": 127.01348602033976,
      "title": "삼선현대힐스테이트아파트",
      "description": "서울 성북구 낙산길 243-15",
      "url": "http://place.map.kakao.com/11338440",
      "region": "서울특별시"
    },
    {
      "lat": 37.4893367001114,
      "lng": 127.133438057542,
      "title": "힐스테이트e편한세상문정아파트",
      "description": "서울 송파구 송이로31길 20",
      "url": "http://place.map.kakao.com/808091645",
      "region": "서울특별시"
    },
    {
      "lat": 37.47959944141423,
      "lng": 127.14199851085776,
      "title": "힐스테이트송파위례아파트",
      "description": "서울 송파구 위례광장로 170",
      "url": "http://place.map.kakao.com/22986527",
      "region": "서울특별시"
    },
    {
      "lat": 37.52030174257242,
      "lng": 126.85600248007994,
      "title": "목동힐스테이트아파트",
      "description": "서울 양천구 중앙로36길 15",
      "url": "http://place.map.kakao.com/24993215",
      "region": "서울특별시"
    },
    {
      "lat": 37.51836139943081,
      "lng": 126.8908644214716,
      "title": "문래힐스테이트아파트",
      "description": "서울 영등포구 문래로 82",
      "url": "http://place.map.kakao.com/10984609",
      "region": "서울특별시"
    },
    {
      "lat": 37.50419156499485,
      "lng": 126.91164945806608,
      "title": "힐스테이트클래시안아파트",
      "description": "서울 영등포구 신길로28길 9",
      "url": "http://place.map.kakao.com/1150692819",
      "region": "서울특별시"
    },
    {
      "lat": 37.52844171748857,
      "lng": 127.00384650655677,
      "title": "한남힐스테이트아파트",
      "description": "서울 용산구 장문로 141",
      "url": "http://place.map.kakao.com/11328170",
      "region": "서울특별시"
    },
    {
      "lat": 37.60208270344136,
      "lng": 126.93607265162775,
      "title": "힐스테이트녹번아파트",
      "description": "서울 은평구 통일로 610",
      "url": "http://place.map.kakao.com/27538194",
      "region": "서울특별시"
    },
    {
      "lat": 37.61653271632597,
      "lng": 126.92668526757278,
      "title": "북한산힐스테이트7차아파트",
      "description": "서울 은평구 통일로 796",
      "url": "http://place.map.kakao.com/11057973",
      "region": "서울특별시"
    },
    {
      "lat": 37.59957265256036,
      "lng": 126.93462645786111,
      "title": "힐스테이트녹번역아파트",
      "description": "서울 은평구 은평로 240",
      "url": "http://place.map.kakao.com/2051166853",
      "region": "서울특별시"
    },
    {
      "lat": 37.61090068386492,
      "lng": 126.92391259475832,
      "title": "힐스테이트메디알레아파트 (2026년10월예정)",
      "description": "서울 은평구 대조동 88",
      "url": "http://place.map.kakao.com/2048249567",
      "region": "서울특별시"
    },
    {
      "lat": 37.61848006782477,
      "lng": 126.93490667114352,
      "title": "북한산현대힐스테이트3차아파트",
      "description": "서울 은평구 불광로 122-10",
      "url": "http://place.map.kakao.com/11055826",
      "region": "서울특별시"
    },
    {
      "lat": 37.61264640868765,
      "lng": 126.93700933079246,
      "title": "북한산힐스테이트1차아파트",
      "description": "서울 은평구 불광로2길 33",
      "url": "http://place.map.kakao.com/11056400",
      "region": "서울특별시"
    },
    {
      "lat": 37.6156733202615,
      "lng": 126.926921701617,
      "title": "북한산힐스테이트7차아파트(643-1)",
      "description": "서울 은평구 통일로 792",
      "url": "http://place.map.kakao.com/1201392200",
      "region": "서울특별시"
    },
    {
      "lat": 37.6336445151165,
      "lng": 126.921484225549,
      "title": "은평뉴타운박석고개1단지힐스테이트아파트(116~131동)",
      "description": "서울 은평구 진관1로 21-10",
      "url": "http://place.map.kakao.com/11316703",
      "region": "서울특별시"
    },
    {
      "lat": 37.6197870342919,
      "lng": 126.934245162944,
      "title": "북한산현대힐스테이트3차아파트(640)",
      "description": "서울 은평구 불광로14길 10-4",
      "url": "http://place.map.kakao.com/1199825092",
      "region": "서울특별시"
    },
    {
      "lat": 37.63190186127136,
      "lng": 126.91992380132392,
      "title": "은평뉴타운박석고개12단지힐스테이트아파트(101~111동)",
      "description": "서울 은평구 진관1로 21-9",
      "url": "http://place.map.kakao.com/11364649",
      "region": "서울특별시"
    },
    {
      "lat": 37.5752458345237,
      "lng": 127.004832649507,
      "title": "힐스테이트창경궁아파트",
      "description": "서울 종로구 율곡로 236",
      "url": "http://place.map.kakao.com/946945721",
      "region": "서울특별시"
    },
    {
      "lat": 37.576030606858694,
      "lng": 127.02115112917707,
      "title": "종로청계힐스테이트아파트",
      "description": "서울 종로구 숭인동길 21",
      "url": "http://place.map.kakao.com/11167210",
      "region": "서울특별시"
    },
    {
      "lat": 37.5679702646771,
      "lng": 126.994401508688,
      "title": "힐스테이트세운센트럴2단지아파트",
      "description": "서울 중구 을지로15길 32",
      "url": "http://place.map.kakao.com/1091150845",
      "region": "서울특별시"
    },
    {
      "lat": 37.56792512083483,
      "lng": 126.99268212202189,
      "title": "힐스테이트세운센트럴1단지아파트",
      "description": "서울 중구 을지로15길 31",
      "url": "http://place.map.kakao.com/359363331",
      "region": "서울특별시"
    },
    {
      "lat": 37.60135700807808,
      "lng": 127.14558385694043,
      "title": "힐스테이트구리역아파트",
      "description": "경기 구리시 경춘로276번길 34",
      "url": "http://place.map.kakao.com/1515344083",
      "region": "경기도"
    },
    {
      "lat": 37.62368088051334,
      "lng": 127.15811726210578,
      "title": "힐스테이트다산아파트",
      "description": "경기 남양주시 다산순환로 365",
      "url": "http://place.map.kakao.com/1916212833",
      "region": "경기도"
    },
    {
      "lat": 37.607778342122884,
      "lng": 127.16478247678782,
      "title": "힐스테이트황금산아파트",
      "description": "경기 남양주시 경춘로 468-40",
      "url": "http://place.map.kakao.com/11329469",
      "region": "경기도"
    },
    {
      "lat": 37.645656330850365,
      "lng": 127.14661867933538,
      "title": "퇴계원힐스테이트아파트",
      "description": "경기 남양주시 퇴계원읍 경춘북로558번길 12",
      "url": "http://place.map.kakao.com/15226954",
      "region": "경기도"
    },
    {
      "lat": 37.24360668346064,
      "lng": 127.04828186087713,
      "title": "힐스테이트영통아파트",
      "description": "경기 수원시 영통구 덕영대로 1462-14",
      "url": "http://place.map.kakao.com/26347110",
      "region": "경기도"
    },
    {
      "lat": 37.28519102047913,
      "lng": 127.06456721386466,
      "title": "힐스테이트광교아파트",
      "description": "경기 수원시 영통구 센트럴파크로 6",
      "url": "http://place.map.kakao.com/26414163",
      "region": "경기도"
    },
    {
      "lat": 37.268191856871624,
      "lng": 127.0121975594358,
      "title": "힐스테이트푸르지오수원아파트",
      "description": "경기 수원시 팔달구 효원로93번길 33",
      "url": "http://place.map.kakao.com/986344653",
      "region": "경기도"
    },
    {
      "lat": 37.27358983292056,
      "lng": 126.97999249984937,
      "title": "힐스테이트수원파크포레아파트",
      "description": "경기 수원시 권선구 수인로151번길 12",
      "url": "http://place.map.kakao.com/2015560384",
      "region": "경기도"
    },
    {
      "lat": 37.28905370439508,
      "lng": 127.05188353761675,
      "title": "힐스테이트광교중앙역퍼스트아파트",
      "description": "경기 수원시 영통구 도청로66번길 6",
      "url": "http://place.map.kakao.com/1621940778",
      "region": "경기도"
    },
    {
      "lat": 37.271179078734235,
      "lng": 127.0397273477579,
      "title": "현대힐스테이트아파트",
      "description": "경기 수원시 영통구 권광로260번길 36",
      "url": "http://place.map.kakao.com/10987645",
      "region": "경기도"
    },
    {
      "lat": 37.312448637319164,
      "lng": 126.98431065252564,
      "title": "수원장안힐스테이트아파트",
      "description": "경기 수원시 장안구 장안로359번길 20",
      "url": "http://place.map.kakao.com/12007482",
      "region": "경기도"
    },
    {
      "lat": 37.259998436750266,
      "lng": 126.95876794574752,
      "title": "힐스테이트호매실아파트",
      "description": "경기 수원시 권선구 호매실로166번길 33",
      "url": "http://place.map.kakao.com/1372849380",
      "region": "경기도"
    },
    {
      "lat": 37.28767832895454,
      "lng": 127.0507063909332,
      "title": "자연앤힐스테이트아파트",
      "description": "경기 수원시 영통구 도청로 65",
      "url": "http://place.map.kakao.com/11701391",
      "region": "경기도"
    },
    {
      "lat": 37.27704257365924,
      "lng": 126.97972097353487,
      "title": "힐스테이트수원테라스",
      "description": "경기 수원시 권선구 금호로 285",
      "url": "http://place.map.kakao.com/1201614380",
      "region": "경기도"
    },
    {
      "lat": 37.465801665557294,
      "lng": 127.1439969211981,
      "title": "힐스테이트위례아파트",
      "description": "경기 성남시 수정구 위례동로 15",
      "url": "http://place.map.kakao.com/20459819",
      "region": "경기도"
    },
    {
      "lat": 37.4361539433107,
      "lng": 127.14828356623094,
      "title": "중앙힐스테이트2차아파트",
      "description": "경기 성남시 중원구 시민로 66",
      "url": "http://place.map.kakao.com/25979863",
      "region": "경기도"
    },
    {
      "lat": 37.43682585993067,
      "lng": 127.14990297160887,
      "title": "중앙힐스테이트1차아파트",
      "description": "경기 성남시 중원구 시민로66번길 21",
      "url": "http://place.map.kakao.com/13114692",
      "region": "경기도"
    },
    {
      "lat": 37.37283207574484,
      "lng": 127.06871450059128,
      "title": "힐스테이트판교엘포레6단지아파트",
      "description": "경기 성남시 분당구 판교대장로7길 16",
      "url": "http://place.map.kakao.com/456947485",
      "region": "경기도"
    },
    {
      "lat": 37.3999102911818,
      "lng": 127.09280877955344,
      "title": "판교원마을12단지힐스테이트아파트",
      "description": "경기 성남시 분당구 서판교로 165",
      "url": "http://place.map.kakao.com/11506090",
      "region": "경기도"
    },
    {
      "lat": 37.3943135387911,
      "lng": 127.096813173777,
      "title": "판교원마을10단지힐스테이트",
      "description": "경기 성남시 분당구 서판교로 73",
      "url": "http://place.map.kakao.com/11506045",
      "region": "경기도"
    },
    {
      "lat": 37.39809233334675,
      "lng": 127.09469934976923,
      "title": "판교원마을11단지힐스테이트아파트",
      "description": "경기 성남시 분당구 서판교로 147",
      "url": "http://place.map.kakao.com/11506089",
      "region": "경기도"
    },
    {
      "lat": 37.36574913737469,
      "lng": 127.07020380442492,
      "title": "힐스테이트판교엘포레4단지아파트",
      "description": "경기 성남시 분당구 판교대장로5길 19",
      "url": "http://place.map.kakao.com/30496632",
      "region": "경기도"
    },
    {
      "lat": 37.369719567385374,
      "lng": 127.06778706191702,
      "title": "힐스테이트판교엘포레A3아파트",
      "description": "경기 성남시 분당구 판교대장로 117",
      "url": "http://place.map.kakao.com/2005914484",
      "region": "경기도"
    },
    {
      "lat": 37.66022549747306,
      "lng": 126.75743182045532,
      "title": "힐스테이트킨텍스레이크뷰아파트",
      "description": "경기 고양시 일산동구 연리지로 50",
      "url": "http://place.map.kakao.com/1189952570",
      "region": "경기도"
    },
    {
      "lat": 37.6702939859755,
      "lng": 126.882658117254,
      "title": "힐스테이트삼송더카운티아파트",
      "description": "경기 고양시 덕양구 신원동 591",
      "url": "http://place.map.kakao.com/1527586220",
      "region": "경기도"
    },
    {
      "lat": 37.663006964964865,
      "lng": 126.8873889164168,
      "title": "신원마을6단지삼송힐스테이트아파트",
      "description": "경기 고양시 덕양구 신원로 35",
      "url": "http://place.map.kakao.com/18082395",
      "region": "경기도"
    },
    {
      "lat": 37.264632942520755,
      "lng": 127.22030205525107,
      "title": "힐스테이트용인둔전역아파트",
      "description": "경기 용인시 처인구 금어로 46",
      "url": "http://place.map.kakao.com/1678692577",
      "region": "경기도"
    },
    {
      "lat": 37.29786651933435,
      "lng": 127.11943502681176,
      "title": "힐스테이트구성아파트",
      "description": "경기 용인시 기흥구 용인향교로 29",
      "url": "http://place.map.kakao.com/1606553292",
      "region": "경기도"
    },
    {
      "lat": 37.3450938886251,
      "lng": 127.25424604944845,
      "title": "힐스테이트몬테로이1단지아파트",
      "description": "경기 용인시 처인구 모현읍 왕산로 13",
      "url": "http://place.map.kakao.com/1488556699",
      "region": "경기도"
    },
    {
      "lat": 37.33319176542239,
      "lng": 127.0679618502262,
      "title": "힐스테이트광교산아파트",
      "description": "경기 용인시 수지구 신봉2로 154",
      "url": "http://place.map.kakao.com/1411616663",
      "region": "경기도"
    },
    {
      "lat": 37.23516076058288,
      "lng": 127.17247628561823,
      "title": "힐스테이트용인포레아파트 (2025년12월예정)",
      "description": "경기 용인시 처인구 중부대로 1168",
      "url": "http://place.map.kakao.com/133872753",
      "region": "경기도"
    },
    {
      "lat": 37.23783493202084,
      "lng": 127.0752566615621,
      "title": "힐스테이트서천아파트",
      "description": "경기 용인시 기흥구 서천동로 22",
      "url": "http://place.map.kakao.com/26257064",
      "region": "경기도"
    },
    {
      "lat": 37.30844047342142,
      "lng": 127.0738221942634,
      "title": "심곡마을광교힐스테이트아파트",
      "description": "경기 용인시 수지구 수지로 75",
      "url": "http://place.map.kakao.com/11341243",
      "region": "경기도"
    },
    {
      "lat": 37.333999788075204,
      "lng": 127.12206948010267,
      "title": "새터마을죽전힐스테이트아파트",
      "description": "경기 용인시 수지구 현암로125번길 11",
      "url": "http://place.map.kakao.com/11506132",
      "region": "경기도"
    },
    {
      "lat": 37.2458140368479,
      "lng": 127.22209680826784,
      "title": "힐스테이트용인고진역1단지아파트",
      "description": "경기 용인시 처인구 고림로162번길 15",
      "url": "http://place.map.kakao.com/2079855804",
      "region": "경기도"
    },
    {
      "lat": 37.34622974524088,
      "lng": 127.25979347855927,
      "title": "힐스테이트몬테로이3단지아파트",
      "description": "경기 용인시 처인구 모현읍 왕산로 16",
      "url": "http://place.map.kakao.com/413532290",
      "region": "경기도"
    },
    {
      "lat": 37.34410251105726,
      "lng": 127.25644789591342,
      "title": "힐스테이트몬테로이2단지아파트",
      "description": "경기 용인시 처인구 모현읍 왕산로 14",
      "url": "http://place.map.kakao.com/413689891",
      "region": "경기도"
    },
    {
      "lat": 37.32117263854101,
      "lng": 127.0635589006294,
      "title": "버들치마을성복힐스테이트3차아파트",
      "description": "경기 용인시 수지구 성복2로 220",
      "url": "http://place.map.kakao.com/11136482",
      "region": "경기도"
    },
    {
      "lat": 37.31399324957575,
      "lng": 127.0698657238086,
      "title": "버들치마을성복힐스테이트1차아파트",
      "description": "경기 용인시 수지구 성복1로 91",
      "url": "http://place.map.kakao.com/11129008",
      "region": "경기도"
    },
    {
      "lat": 37.27442225177326,
      "lng": 127.11778901968009,
      "title": "힐스테이트기흥아파트",
      "description": "경기 용인시 기흥구 기흥역로 63",
      "url": "http://place.map.kakao.com/26604748",
      "region": "경기도"
    },
    {
      "lat": 37.15152458815036,
      "lng": 127.17160735937479,
      "title": "힐스테이트용인마크밸리아파트 (2027년12월예정)",
      "description": "경기 용인시 처인구 남사읍 아곡리 705",
      "url": "http://place.map.kakao.com/2035379107",
      "region": "경기도"
    },
    {
      "lat": 37.31864254248761,
      "lng": 127.06354774471203,
      "title": "버들치마을성복힐스테이트2차아파트",
      "description": "경기 용인시 수지구 성복1로164번길 13",
      "url": "http://place.map.kakao.com/11249560",
      "region": "경기도"
    },
    {
      "lat": 37.24407163865808,
      "lng": 127.2234171159791,
      "title": "힐스테이트용인고진역2단지아파트",
      "description": "경기 용인시 처인구 고림로162번길 39",
      "url": "http://place.map.kakao.com/1331079502",
      "region": "경기도"
    },
    {
      "lat": 37.33109937788944,
      "lng": 127.12885863594408,
      "title": "내대지마을힐스테이트아파트",
      "description": "경기 용인시 수지구 죽전로238번길 5",
      "url": "http://place.map.kakao.com/11506190",
      "region": "경기도"
    },
    {
      "lat": 37.320212989402634,
      "lng": 127.11863212921904,
      "title": "죽전힐스테이트테라스하우스",
      "description": "경기 용인시 기흥구 보정로114번길 19",
      "url": "http://place.map.kakao.com/17219937",
      "region": "경기도"
    },
    {
      "lat": 37.27967240489205,
      "lng": 127.07341521825381,
      "title": "흥덕마을7단지힐스테이트아파트",
      "description": "경기 용인시 기흥구 흥덕2로 126",
      "url": "http://place.map.kakao.com/11292714",
      "region": "경기도"
    },
    {
      "lat": 37.31885092946877,
      "lng": 127.11922792162264,
      "title": "죽전힐스테이트타운하우스",
      "description": "경기 용인시 기흥구 죽현로 59-27",
      "url": "http://place.map.kakao.com/26920897",
      "region": "경기도"
    },
    {
      "lat": 37.325622842031386,
      "lng": 127.1167676934989,
      "title": "도담마을힐스테이트4차1단지아파트",
      "description": "경기 용인시 수지구 푸른솔로 55",
      "url": "http://place.map.kakao.com/8070298",
      "region": "경기도"
    },
    {
      "lat": 37.3323094357912,
      "lng": 127.122957034468,
      "title": "새터마을죽전힐스테이트아파트 상가",
      "description": "경기 용인시 수지구 현암로125번길 7",
      "url": "http://place.map.kakao.com/26443899",
      "region": "경기도"
    },
    {
      "lat": 37.48170692387001,
      "lng": 126.7964092872382,
      "title": "힐스테이트소사역아파트",
      "description": "경기 부천시 소사구 경인옛로 37",
      "url": "http://place.map.kakao.com/380789112",
      "region": "경기도"
    },
    {
      "lat": 37.50320512013902,
      "lng": 126.76816218619001,
      "title": "힐스테이트중동아파트",
      "description": "경기 부천시 원미구 길주로 234",
      "url": "http://place.map.kakao.com/1270045290",
      "region": "경기도"
    },
    {
      "lat": 37.47163372323134,
      "lng": 126.80774806382391,
      "title": "부천범박힐스테이트4단지아파트",
      "description": "경기 부천시 소사구 범안로96번길 23",
      "url": "http://place.map.kakao.com/10979451",
      "region": "경기도"
    },
    {
      "lat": 37.4746138430959,
      "lng": 126.809716565423,
      "title": "부천범박힐스테이트1단지아파트",
      "description": "경기 부천시 소사구 범안로 81",
      "url": "http://place.map.kakao.com/503950291",
      "region": "경기도"
    },
    {
      "lat": 37.4726399880981,
      "lng": 126.81043603418526,
      "title": "부천범박힐스테이트3단지아파트",
      "description": "경기 부천시 소사구 범안로95번길 32",
      "url": "http://place.map.kakao.com/11201165",
      "region": "경기도"
    },
    {
      "lat": 37.469060679276986,
      "lng": 126.8078948266183,
      "title": "부천범박힐스테이트5단지아파트",
      "description": "경기 부천시 소사구 범안로 130-27",
      "url": "http://place.map.kakao.com/8157274",
      "region": "경기도"
    },
    {
      "lat": 37.46915481095917,
      "lng": 126.8059502466575,
      "title": "부천범박힐스테이트6단지아파트",
      "description": "경기 부천시 소사구 은성로 172-17",
      "url": "http://place.map.kakao.com/8615624",
      "region": "경기도"
    },
    {
      "lat": 37.47469108926295,
      "lng": 126.80789737399293,
      "title": "부천범박힐스테이트2단지아파트",
      "description": "경기 부천시 소사구 범안로 80",
      "url": "http://place.map.kakao.com/11346470",
      "region": "경기도"
    },
    {
      "lat": 37.4735112676034,
      "lng": 126.809877630011,
      "title": "부천범박힐스테이트 3단지 상가",
      "description": "경기 부천시 소사구 범안로95번길 16",
      "url": "http://place.map.kakao.com/24009650",
      "region": "경기도"
    },
    {
      "lat": 37.34915103025041,
      "lng": 126.80716807247316,
      "title": "안산메트로타운푸르지오힐스테이트아파트",
      "description": "경기 안산시 단원구 석수로 138",
      "url": "http://place.map.kakao.com/27223787",
      "region": "경기도"
    },
    {
      "lat": 37.32004970461087,
      "lng": 126.83529383523418,
      "title": "힐스테이트중앙아파트",
      "description": "경기 안산시 단원구 고잔로 81",
      "url": "http://place.map.kakao.com/1378013067",
      "region": "경기도"
    },
    {
      "lat": 37.323404407464,
      "lng": 126.821726159272,
      "title": "힐스테이트라치엘로아파트 (예정)",
      "description": "경기 안산시 단원구 인현중앙길 18",
      "url": "http://place.map.kakao.com/1016938099",
      "region": "경기도"
    },
    {
      "lat": 37.393934572204465,
      "lng": 126.94055812616017,
      "title": "비산힐스테이트아파트",
      "description": "경기 안양시 동안구 안양천동로 162",
      "url": "http://place.map.kakao.com/11347089",
      "region": "경기도"
    },
    {
      "lat": 37.39302378585746,
      "lng": 126.9773013288085,
      "title": "힐스테이트인덕원역베르텍스아파트",
      "description": "경기 안양시 동안구 흥안대로434번길 19",
      "url": "http://place.map.kakao.com/1394262374",
      "region": "경기도"
    },
    {
      "lat": 37.3851077715167,
      "lng": 126.90206949549689,
      "title": "수리산힐스테이트아파트",
      "description": "경기 안양시 만안구 창박로 38",
      "url": "http://place.map.kakao.com/10547084",
      "region": "경기도"
    },
    {
      "lat": 37.40533375049625,
      "lng": 126.93441722036442,
      "title": "힐스테이트비산파크뷰아파트",
      "description": "경기 안양시 동안구 임곡로 70",
      "url": "http://place.map.kakao.com/307508429",
      "region": "경기도"
    },
    {
      "lat": 37.3933468377821,
      "lng": 126.930177010865,
      "title": "힐스테이트안양펠루스아파트 (예정)",
      "description": "경기 안양시 만안구 안양동 395-29",
      "url": "http://place.map.kakao.com/2035659301",
      "region": "경기도"
    },
    {
      "lat": 37.2244893877902,
      "lng": 126.923126166034,
      "title": "힐스테이트봉담프라이드시티아파트",
      "description": "경기 화성시 봉담읍 삼봉안길 76",
      "url": "http://place.map.kakao.com/1447916741",
      "region": "경기도"
    },
    {
      "lat": 37.22746012720003,
      "lng": 126.94792656653598,
      "title": "힐스테이트봉담아파트",
      "description": "경기 화성시 봉담읍 상리3길 90",
      "url": "http://place.map.kakao.com/573005745",
      "region": "경기도"
    },
    {
      "lat": 37.18462687652711,
      "lng": 127.1211090420044,
      "title": "힐스테이트동탄아파트",
      "description": "경기 화성시 동탄순환대로19길 59",
      "url": "http://place.map.kakao.com/896096824",
      "region": "경기도"
    },
    {
      "lat": 37.21278685644921,
      "lng": 127.09282017762526,
      "title": "힐스테이트동탄역아파트",
      "description": "경기 화성시 동탄기흥로 585",
      "url": "http://place.map.kakao.com/979024284",
      "region": "경기도"
    },
    {
      "lat": 37.175146496849,
      "lng": 127.135606252798,
      "title": "힐스테이트동탄포레아파트",
      "description": "경기 화성시 신동 561-1",
      "url": "http://place.map.kakao.com/1446252884",
      "region": "경기도"
    },
    {
      "lat": 37.1843903856974,
      "lng": 127.086636511756,
      "title": "힐스테이트동탄더테라스",
      "description": "경기 화성시 오산동 1013",
      "url": "http://place.map.kakao.com/1730011905",
      "region": "경기도"
    },
    {
      "lat": 37.043988726740814,
      "lng": 127.04033818605066,
      "title": "힐스테이트고덕스카이시티아파트",
      "description": "경기 평택시 고덕국제대로 99",
      "url": "http://place.map.kakao.com/1580837470",
      "region": "경기도"
    },
    {
      "lat": 37.022905578125005,
      "lng": 127.08053045148492,
      "title": "힐스테이트지제역아파트",
      "description": "경기 평택시 지제동삭1로 91",
      "url": "http://place.map.kakao.com/2061356647",
      "region": "경기도"
    },
    {
      "lat": 37.043992471064044,
      "lng": 127.04251781023385,
      "title": "힐스테이트고덕센트럴아파트",
      "description": "경기 평택시 고덕국제대로 77",
      "url": "http://place.map.kakao.com/1596641949",
      "region": "경기도"
    },
    {
      "lat": 37.009308270801434,
      "lng": 127.08693739180772,
      "title": "힐스테이트평택2차아파트",
      "description": "경기 평택시 세교6로 45",
      "url": "http://place.map.kakao.com/27542582",
      "region": "경기도"
    },
    {
      "lat": 36.97702828731786,
      "lng": 126.92855109100606,
      "title": "힐스테이트송담아파트",
      "description": "경기 평택시 안중읍 송담1로 65",
      "url": "http://place.map.kakao.com/25737436",
      "region": "경기도"
    },
    {
      "lat": 37.0119882753918,
      "lng": 127.08790114297337,
      "title": "힐스테이트평택1차아파트",
      "description": "경기 평택시 세교6로 46",
      "url": "http://place.map.kakao.com/27276711",
      "region": "경기도"
    },
    {
      "lat": 37.07023216720984,
      "lng": 127.06199163388007,
      "title": "힐스테이트평택더퍼스트아파트",
      "description": "경기 평택시 서정북로 100",
      "url": "http://place.map.kakao.com/1199327665",
      "region": "경기도"
    },
    {
      "lat": 37.01787099421635,
      "lng": 127.08350746693726,
      "title": "힐스테이트지제역퍼스티움아파트",
      "description": "경기 평택시 지제동삭3로 14",
      "url": "http://place.map.kakao.com/708431894",
      "region": "경기도"
    },
    {
      "lat": 37.00948232759408,
      "lng": 127.08916678733192,
      "title": "힐스테이트평택3차아파트",
      "description": "경기 평택시 세교6로 19",
      "url": "http://place.map.kakao.com/1071706995",
      "region": "경기도"
    },
    {
      "lat": 36.98523970012258,
      "lng": 126.89755347683902,
      "title": "힐스테이트평택화양아파트 (2026년03월예정)",
      "description": "경기 평택시 현덕면 운정리 산 75-5",
      "url": "http://place.map.kakao.com/937325736",
      "region": "경기도"
    },
    {
      "lat": 36.9900995067593,
      "lng": 127.095653692912,
      "title": "힐스테이트평택역센트럴시티아파트 (2028년01월예정)",
      "description": "경기 평택시 합정동 835",
      "url": "http://place.map.kakao.com/999724663",
      "region": "경기도"
    },
    {
      "lat": 37.0110289726446,
      "lng": 127.088644991738,
      "title": "힐스테이트평택1차아파트 상가",
      "description": "경기 평택시 세교6로 46",
      "url": "http://place.map.kakao.com/36426122",
      "region": "경기도"
    },
    {
      "lat": 37.75588868164615,
      "lng": 127.0336394170319,
      "title": "녹양힐스테이트아파트",
      "description": "경기 의정부시 녹양로62번길 12",
      "url": "http://place.map.kakao.com/11367314",
      "region": "경기도"
    },
    {
      "lat": 37.737753849441695,
      "lng": 127.07640764386238,
      "title": "의정부힐스테이트탑석아파트",
      "description": "경기 의정부시 산단로 22",
      "url": "http://place.map.kakao.com/1199207668",
      "region": "경기도"
    },
    {
      "lat": 37.75415120096852,
      "lng": 127.0406752360407,
      "title": "힐스테이트녹양역아파트",
      "description": "경기 의정부시 가금로34번길 23",
      "url": "http://place.map.kakao.com/1310551544",
      "region": "경기도"
    },
    {
      "lat": 37.744500875165606,
      "lng": 127.04336691269053,
      "title": "힐스테이트의정부역아파트",
      "description": "경기 의정부시 신흥로 316",
      "url": "http://place.map.kakao.com/2146249644",
      "region": "경기도"
    },
    {
      "lat": 37.7579127319765,
      "lng": 127.076832365494,
      "title": "힐스테이트금오더퍼스트아파트",
      "description": "경기 의정부시 금오로95번길 16",
      "url": "http://place.map.kakao.com/1071743425",
      "region": "경기도"
    },
    {
      "lat": 37.36668169191753,
      "lng": 126.81125834359271,
      "title": "상록힐스테이트아파트",
      "description": "경기 시흥시 능곡중앙로 33",
      "url": "http://place.map.kakao.com/11134709",
      "region": "경기도"
    },
    {
      "lat": 37.32197311013903,
      "lng": 126.685601867207,
      "title": "힐스테이트더웨이브시티아파트 (2027년06월예정)",
      "description": "경기 시흥시 정왕동 2716",
      "url": "http://place.map.kakao.com/775521772",
      "region": "경기도"
    },
    {
      "lat": 37.40032310269996,
      "lng": 126.72837359797357,
      "title": "인천논현힐스테이트아파트",
      "description": "인천 남동구 논고개로68번길 49",
      "url": "http://place.map.kakao.com/19380592",
      "region": "인천광역시"
    },
    {
      "lat": 37.72890053525938,
      "lng": 126.76548318839541,
      "title": "힐스테이트더운정아파트",
      "description": "경기 파주시 와석순환로515번길 70",
      "url": "http://place.map.kakao.com/222851444",
      "region": "경기도"
    },
    {
      "lat": 37.72399518828733,
      "lng": 126.73386329463317,
      "title": "산내마을9단지힐스테이트운정아파트",
      "description": "경기 파주시 교하로 100",
      "url": "http://place.map.kakao.com/6001216",
      "region": "경기도"
    },
    {
      "lat": 37.86852975339153,
      "lng": 126.78706903878556,
      "title": "파주힐스테이트1차아파트",
      "description": "경기 파주시 문산읍 방촌로 1744",
      "url": "http://place.map.kakao.com/11282988",
      "region": "경기도"
    },
    {
      "lat": 37.863722925521074,
      "lng": 126.7720092709286,
      "title": "파주힐스테이트2차아파트",
      "description": "경기 파주시 문산읍 당동1로 67",
      "url": "http://place.map.kakao.com/11371011",
      "region": "경기도"
    },
    {
      "lat": 37.63934324528655,
      "lng": 126.63344633691081,
      "title": "김포한강힐스테이트아파트",
      "description": "경기 김포시 김포한강7로22번길 22",
      "url": "http://place.map.kakao.com/12280490",
      "region": "경기도"
    },
    {
      "lat": 37.62119468833571,
      "lng": 126.74450741422169,
      "title": "힐스테이트리버시티1단지아파트",
      "description": "경기 김포시 고촌읍 상미로 38",
      "url": "http://place.map.kakao.com/912424046",
      "region": "경기도"
    },
    {
      "lat": 37.620182764434496,
      "lng": 126.7473823002708,
      "title": "힐스테이트리버시티2단지아파트",
      "description": "경기 김포시 고촌읍 상미1로 7",
      "url": "http://place.map.kakao.com/452849694",
      "region": "경기도"
    },
    {
      "lat": 37.59489871236086,
      "lng": 126.76636408975372,
      "title": "수기마을힐스테이트1단지아파트",
      "description": "경기 김포시 고촌읍 수기로 67-54",
      "url": "http://place.map.kakao.com/11364263",
      "region": "경기도"
    },
    {
      "lat": 37.59740503934421,
      "lng": 126.76899579930856,
      "title": "수기마을힐스테이트2단지아파트",
      "description": "경기 김포시 고촌읍 수기로 67-53",
      "url": "http://place.map.kakao.com/11359762",
      "region": "경기도"
    },
    {
      "lat": 37.60064767807516,
      "lng": 126.76669489716639,
      "title": "수기마을힐스테이트3단지아파트",
      "description": "경기 김포시 고촌읍 수기로 39-13",
      "url": "http://place.map.kakao.com/11325568",
      "region": "경기도"
    },
    {
      "lat": 37.3727490277599,
      "lng": 126.94474643891634,
      "title": "힐스테이트금정역아파트",
      "description": "경기 군포시 엘에스로 143",
      "url": "http://place.map.kakao.com/201802205",
      "region": "경기도"
    },
    {
      "lat": 37.4097086409575,
      "lng": 127.19837379530304,
      "title": "힐스테이트삼동역아파트",
      "description": "경기 광주시 고불로 461-26",
      "url": "http://place.map.kakao.com/224477114",
      "region": "경기도"
    },
    {
      "lat": 37.366528501630654,
      "lng": 127.3006749475045,
      "title": "힐스테이트초월역1블록아파트",
      "description": "경기 광주시 초월읍 도곡길 27",
      "url": "http://place.map.kakao.com/1200101476",
      "region": "경기도"
    },
    {
      "lat": 37.378829380971915,
      "lng": 127.22666150214175,
      "title": "힐스테이트태전9단지아파트",
      "description": "경기 광주시 태성로 130",
      "url": "http://place.map.kakao.com/26879341",
      "region": "경기도"
    },
    {
      "lat": 37.384630807140404,
      "lng": 127.23190584021746,
      "title": "힐스테이트태전5단지아파트",
      "description": "경기 광주시 태전동로 50",
      "url": "http://place.map.kakao.com/26875455",
      "region": "경기도"
    },
    {
      "lat": 37.37854460240731,
      "lng": 127.2294934757779,
      "title": "힐스테이트태전한아람마을8단지아파트",
      "description": "경기 광주시 태봉로 176",
      "url": "http://place.map.kakao.com/26879323",
      "region": "경기도"
    },
    {
      "lat": 37.380304405755275,
      "lng": 127.23266707581357,
      "title": "힐스테이트태전에듀포레10단지아파트",
      "description": "경기 광주시 벼루개길42번길 24-1",
      "url": "http://place.map.kakao.com/207503983",
      "region": "경기도"
    },
    {
      "lat": 37.354668867099925,
      "lng": 127.34006355088226,
      "title": "힐스테이트광주곤지암역아파트 (2027년05월예정)",
      "description": "경기 광주시 곤지암읍 신대리 25",
      "url": "http://place.map.kakao.com/1422228999",
      "region": "경기도"
    },
    {
      "lat": 37.365466097359246,
      "lng": 127.30177474289606,
      "title": "힐스테이트초월역2블록아파트",
      "description": "경기 광주시 초월읍 도곡길 27",
      "url": "http://place.map.kakao.com/106908559",
      "region": "경기도"
    },
    {
      "lat": 37.37999621425274,
      "lng": 127.22899545429931,
      "title": "힐스테이트태전한아람마을7단지아파트",
      "description": "경기 광주시 태성로 107",
      "url": "http://place.map.kakao.com/26879317",
      "region": "경기도"
    },
    {
      "lat": 37.3784239430236,
      "lng": 127.23222318912025,
      "title": "힐스테이트태전에듀포레11단지아파트",
      "description": "경기 광주시 태봉로 163-1",
      "url": "http://place.map.kakao.com/64673931",
      "region": "경기도"
    },
    {
      "lat": 37.38360944597265,
      "lng": 127.2321623977538,
      "title": "힐스테이트태전6단지아파트",
      "description": "경기 광주시 태전동로 54",
      "url": "http://place.map.kakao.com/26879318",
      "region": "경기도"
    },
    {
      "lat": 37.38555644538436,
      "lng": 127.23083710614252,
      "title": "힐스테이트태전4단지아파트",
      "description": "경기 광주시 태성로 25",
      "url": "http://place.map.kakao.com/26875469",
      "region": "경기도"
    },
    {
      "lat": 37.284361111467064,
      "lng": 127.45618848363003,
      "title": "힐스테이트아파트",
      "description": "경기 이천시 향교로 168",
      "url": "http://place.map.kakao.com/11281390",
      "region": "경기도"
    },
    {
      "lat": 37.2672257926149,
      "lng": 127.437915969342,
      "title": "힐스테이트이천역1단지아파트 (2026년07월예정)",
      "description": "경기 이천시 증일동 79-4",
      "url": "http://place.map.kakao.com/879222149",
      "region": "경기도"
    },
    {
      "lat": 37.265264987929,
      "lng": 127.4367377893433,
      "title": "힐스테이트이천역2단지아파트 (2026년07월예정)",
      "description": "경기 이천시 증일동 60-5",
      "url": "http://place.map.kakao.com/108370198",
      "region": "경기도"
    },
    {
      "lat": 37.1278294562481,
      "lng": 127.071298957875,
      "title": "힐스테이트오산더퍼스트아파트",
      "description": "경기 오산시 경기대로 24-27",
      "url": "http://place.map.kakao.com/1320485908",
      "region": "경기도"
    },
    {
      "lat": 37.1324443061853,
      "lng": 127.07341679404665,
      "title": "오산원동힐스테이트아파트",
      "description": "경기 오산시 경기대로 78-7",
      "url": "http://place.map.kakao.com/11181529",
      "region": "경기도"
    },
    {
      "lat": 37.19885201943903,
      "lng": 127.03411829826335,
      "title": "힐스테이트오산더클래스아파트 (2027년08월예정)",
      "description": "경기 오산시 양산동 10-2",
      "url": "http://place.map.kakao.com/1777511293",
      "region": "경기도"
    },
    {
      "lat": 37.393232365757946,
      "lng": 126.9859572756437,
      "title": "힐스테이트인덕원아파트",
      "description": "경기 의왕시 포일동 506-1",
      "url": "http://place.map.kakao.com/724737401",
      "region": "경기도"
    },
    {
      "lat": 37.486405180011154,
      "lng": 127.1545812749558,
      "title": "힐스테이트센트럴위례아파트",
      "description": "경기 하남시 위례대로6길 15",
      "url": "http://place.map.kakao.com/836392986",
      "region": "경기도"
    },
    {
      "lat": 37.50659746947938,
      "lng": 127.16076985682705,
      "title": "힐스테이트포웰시티아파트",
      "description": "경기 하남시 감일백제로 120",
      "url": "http://place.map.kakao.com/1774478592",
      "region": "경기도"
    },
    {
      "lat": 37.83626120897634,
      "lng": 127.51313515616641,
      "title": "힐스테이트가평더뉴클래스아파트",
      "description": "경기 가평군 가평읍 가평제방길 233",
      "url": "http://place.map.kakao.com/1797478798",
      "region": "경기도"
    },
    {
      "lat": 37.490633968460095,
      "lng": 126.56573237170394,
      "title": "영종힐스테이트아파트",
      "description": "인천 중구 하늘별빛로 66",
      "url": "http://place.map.kakao.com/12741821",
      "region": "인천광역시"
    },
    {
      "lat": 37.4612397089617,
      "lng": 126.63913262796,
      "title": "힐스테이트숭의역아파트",
      "description": "인천 미추홀구 인주대로 5",
      "url": "http://place.map.kakao.com/2030741629",
      "region": "인천광역시"
    },
    {
      "lat": 37.44369795642241,
      "lng": 126.64809224686147,
      "title": "힐스테이트학익아파트",
      "description": "인천 미추홀구 독배로251번길 24",
      "url": "http://place.map.kakao.com/1829525884",
      "region": "인천광역시"
    },
    {
      "lat": 37.452683953100866,
      "lng": 126.67754215474855,
      "title": "힐스테이트푸르지오주안아파트",
      "description": "인천 미추홀구 남주길 150",
      "url": "http://place.map.kakao.com/2020982199",
      "region": "인천광역시"
    },
    {
      "lat": 37.52598685490953,
      "lng": 126.62844937168573,
      "title": "청라힐스테이트아파트",
      "description": "인천 서구 청라한내로 7",
      "url": "http://place.map.kakao.com/12279077",
      "region": "인천광역시"
    },
    {
      "lat": 37.45835417762275,
      "lng": 126.69561334158156,
      "title": "힐스테이트인천시청역아파트",
      "description": "인천 남동구 구월로37번길 10",
      "url": "http://place.map.kakao.com/1160037081",
      "region": "인천광역시"
    },
    {
      "lat": 37.4522006877986,
      "lng": 126.679410142494,
      "title": "힐스테이트푸르지오주안아파트 상가",
      "description": "인천 미추홀구 남주길 150",
      "url": "http://place.map.kakao.com/1769750565",
      "region": "인천광역시"
    },
    {
      "lat": 37.401119734078854,
      "lng": 126.62838459903553,
      "title": "힐스테이트송도더스카이아파트",
      "description": "인천 연수구 인천타워대로 365",
      "url": "http://place.map.kakao.com/1161090628",
      "region": "인천광역시"
    },
    {
      "lat": 37.3895175978586,
      "lng": 126.615502051473,
      "title": "힐스테이트레이크송도4차아파트",
      "description": "인천 연수구 아카데미로312번길 31",
      "url": "http://place.map.kakao.com/1797506784",
      "region": "인천광역시"
    },
    {
      "lat": 37.400165674272216,
      "lng": 126.62104038329264,
      "title": "힐스테이트레이크송도아파트",
      "description": "인천 연수구 아카데미로312번길 177",
      "url": "http://place.map.kakao.com/27265197",
      "region": "인천광역시"
    },
    {
      "lat": 37.39674730224723,
      "lng": 126.6202241449042,
      "title": "힐스테이트레이크송도2차아파트",
      "description": "인천 연수구 아카데미로 446",
      "url": "http://place.map.kakao.com/308507604",
      "region": "인천광역시"
    },
    {
      "lat": 37.39347232143699,
      "lng": 126.61777430500725,
      "title": "힐스테이트레이크송도3차아파트",
      "description": "인천 연수구 아카데미로 442",
      "url": "http://place.map.kakao.com/501411599",
      "region": "인천광역시"
    },
    {
      "lat": 37.4112880201734,
      "lng": 126.658675363426,
      "title": "힐스테이트송도센터파크아파트 (예정)",
      "description": "인천 연수구 동춘동 756-3",
      "url": "http://place.map.kakao.com/495713469",
      "region": "인천광역시"
    },
    {
      "lat": 37.39649804115301,
      "lng": 126.64981054394619,
      "title": "인천송도힐스테이트3단지아파트",
      "description": "인천 연수구 컨벤시아대로 70",
      "url": "http://place.map.kakao.com/11125663",
      "region": "인천광역시"
    },
    {
      "lat": 37.3903264652487,
      "lng": 126.617649122505,
      "title": "힐스테이트레이크송도5차아파트 (2028년06월예정)",
      "description": "인천 연수구 송도동 399-13",
      "url": "http://place.map.kakao.com/611989239",
      "region": "인천광역시"
    },
    {
      "lat": 37.394755861055486,
      "lng": 126.64812017082193,
      "title": "인천송도힐스테이트5단지아파트",
      "description": "인천 연수구 컨벤시아대로 90",
      "url": "http://place.map.kakao.com/11371192",
      "region": "인천광역시"
    },
    {
      "lat": 37.39580766462581,
      "lng": 126.64913616197394,
      "title": "인천송도힐스테이트4단지아파트",
      "description": "인천 연수구 컨벤시아대로 80",
      "url": "http://place.map.kakao.com/19146403",
      "region": "인천광역시"
    },
    {
      "lat": 37.394234688724644,
      "lng": 126.64738630379306,
      "title": "인천송도힐스테이트6단지아파트",
      "description": "인천 연수구 컨벤시아대로 100",
      "url": "http://place.map.kakao.com/11343921",
      "region": "인천광역시"
    },
    {
      "lat": 37.454553791230836,
      "lng": 126.71181444697235,
      "title": "구월힐스테이트롯데캐슬골드1단지아파트",
      "description": "인천 남동구 구월로 192",
      "url": "http://place.map.kakao.com/8208776",
      "region": "인천광역시"
    },
    {
      "lat": 37.45690701245223,
      "lng": 126.71320691903233,
      "title": "구월힐스테이트3단지아파트",
      "description": "인천 남동구 용천로87번길 23",
      "url": "http://place.map.kakao.com/10138755",
      "region": "인천광역시"
    },
    {
      "lat": 37.3993644007528,
      "lng": 126.728365764359,
      "title": "힐스테이트아파트 상가",
      "description": "인천 남동구 논고개로68번길 49",
      "url": "http://place.map.kakao.com/26448190",
      "region": "인천광역시"
    },
    {
      "lat": 37.483783805175364,
      "lng": 126.70576970356828,
      "title": "힐스테이트부평아파트",
      "description": "인천 부평구 경원대로 1192",
      "url": "http://place.map.kakao.com/2077058113",
      "region": "인천광역시"
    },
    {
      "lat": 37.53195679281718,
      "lng": 126.71910049528466,
      "title": "힐스테이트자이계양아파트",
      "description": "인천 계양구 봉오대로651번길 9",
      "url": "http://place.map.kakao.com/1332010191",
      "region": "인천광역시"
    },
    {
      "lat": 37.5319785453309,
      "lng": 126.720674156827,
      "title": "힐스테이트자이계양아파트 상가",
      "description": "인천 계양구 작전동 839-5",
      "url": "http://place.map.kakao.com/1648930577",
      "region": "인천광역시"
    },
    {
      "lat": 37.61660966320785,
      "lng": 126.68356920452328,
      "title": "힐스테이트검단포레스트아파트",
      "description": "인천 서구 용해로 20",
      "url": "http://place.map.kakao.com/418309225",
      "region": "인천광역시"
    },
    {
      "lat": 37.606409856319885,
      "lng": 126.69705520493163,
      "title": "힐스테이트신검단센트럴아파트",
      "description": "인천 서구 고산후로 249",
      "url": "http://place.map.kakao.com/1216764638",
      "region": "인천광역시"
    },
    {
      "lat": 37.586466871207755,
      "lng": 126.67289340981137,
      "title": "검단힐스테이트4차아파트",
      "description": "인천 서구 청마로 92",
      "url": "http://place.map.kakao.com/19638596",
      "region": "인천광역시"
    },
    {
      "lat": 37.6000372620495,
      "lng": 126.66444515900965,
      "title": "검단힐스테이트1차아파트",
      "description": "인천 서구 완정로92번길 11",
      "url": "http://place.map.kakao.com/11253681",
      "region": "인천광역시"
    },
    {
      "lat": 37.5996197822712,
      "lng": 126.66338258050263,
      "title": "검단힐스테이트2차아파트",
      "description": "인천 서구 완정로92번길 41",
      "url": "http://place.map.kakao.com/11344734",
      "region": "인천광역시"
    },
    {
      "lat": 37.59134953482727,
      "lng": 126.67134573787062,
      "title": "검단힐스테이트6차아파트",
      "description": "인천 서구 청마로51번안길 11",
      "url": "http://place.map.kakao.com/15134655",
      "region": "인천광역시"
    },
    {
      "lat": 37.534910435002395,
      "lng": 126.64368828777843,
      "title": "청라힐스테이트커낼뷰아파트",
      "description": "인천 서구 청라커낼로 297",
      "url": "http://place.map.kakao.com/12280434",
      "region": "인천광역시"
    },
    {
      "lat": 37.5920219859958,
      "lng": 126.66952207070133,
      "title": "검단힐스테이트5차아파트",
      "description": "인천 서구 청마로34번길 6",
      "url": "http://place.map.kakao.com/12784740",
      "region": "인천광역시"
    },
    {
      "lat": 37.59821121896741,
      "lng": 126.64036433340948,
      "title": "검단힐스테이트3차2단지아파트",
      "description": "인천 서구 버들로 46",
      "url": "http://place.map.kakao.com/11050784",
      "region": "인천광역시"
    },
    {
      "lat": 37.599635421787745,
      "lng": 126.6396893640842,
      "title": "인천검단힐스테이트3차1단지아파트",
      "description": "인천 서구 봉화로 60-17",
      "url": "http://place.map.kakao.com/11284739",
      "region": "인천광역시"
    },
    {
      "lat": 35.07815462782435,
      "lng": 129.02358182030645,
      "title": "송도힐스테이트이진베이시티아파트",
      "description": "부산 서구 송도해변로 192",
      "url": "http://place.map.kakao.com/1891639669",
      "region": "부산광역시"
    },
    {
      "lat": 35.13377821208643,
      "lng": 129.05711135720725,
      "title": "자이힐스테이트하이퍼시티아파트 (예정)",
      "description": "부산 동구 성남이로56번길 27",
      "url": "http://place.map.kakao.com/583950988",
      "region": "부산광역시"
    },
    {
      "lat": 35.09730912127539,
      "lng": 128.98142312934064,
      "title": "힐스테이트사하역아파트",
      "description": "부산 사하구 괴정로 166",
      "url": "http://place.map.kakao.com/953282985",
      "region": "부산광역시"
    },
    {
      "lat": 35.1377244105855,
      "lng": 129.085622640454,
      "title": "힐스테이트대연센트럴아파트",
      "description": "부산 남구 진남로 95",
      "url": "http://place.map.kakao.com/434891610",
      "region": "부산광역시"
    },
    {
      "lat": 35.1521415790186,
      "lng": 129.031947829566,
      "title": "힐스테이트가야1단지아파트 (2026년12월예정)",
      "description": "부산 부산진구 가야동 197",
      "url": "http://place.map.kakao.com/1354441502",
      "region": "부산광역시"
    },
    {
      "lat": 35.0987792094241,
      "lng": 128.983115564499,
      "title": "힐스테이트푸르지오사하역포레스트아파트 (예정)",
      "description": "부산 사하구 괴정동 570-22",
      "url": "http://place.map.kakao.com/1399740870",
      "region": "부산광역시"
    },
    {
      "lat": 35.14167104136771,
      "lng": 129.1012908825403,
      "title": "대연힐스테이트푸르지오아파트",
      "description": "부산 남구 수영로 345",
      "url": "http://place.map.kakao.com/18059450",
      "region": "부산광역시"
    },
    {
      "lat": 35.1517708648761,
      "lng": 129.031323064562,
      "title": "힐스테이트가야2단지아파트 (2026년12월예정)",
      "description": "부산 부산진구 가야동 197-3",
      "url": "http://place.map.kakao.com/1966053344",
      "region": "부산광역시"
    },
    {
      "lat": 35.140745569140336,
      "lng": 129.10580454046067,
      "title": "힐스테이트남천더퍼스트아파트",
      "description": "부산 수영구 수영로 377",
      "url": "http://place.map.kakao.com/777736513",
      "region": "부산광역시"
    },
    {
      "lat": 35.17183823543668,
      "lng": 129.08893899519708,
      "title": "힐스테이트연산아파트",
      "description": "부산 연제구 봉수로 2",
      "url": "http://place.map.kakao.com/1591736287",
      "region": "부산광역시"
    },
    {
      "lat": 35.17646215313095,
      "lng": 129.07688551679223,
      "title": "연제힐스테이트아파트",
      "description": "부산 연제구 연제로 21",
      "url": "http://place.map.kakao.com/11336956",
      "region": "부산광역시"
    },
    {
      "lat": 35.13987546796196,
      "lng": 129.10375806360682,
      "title": "대연힐스테이트푸르지오아파트(113동,114동)",
      "description": "부산 남구 수영로 345",
      "url": "http://place.map.kakao.com/18192893",
      "region": "부산광역시"
    },
    {
      "lat": 35.21382228123807,
      "lng": 129.08196789442863,
      "title": "힐스테이트명륜트라디움아파트",
      "description": "부산 동래구 동래로57번길 94",
      "url": "http://place.map.kakao.com/2117115947",
      "region": "부산광역시"
    },
    {
      "lat": 35.213668124977026,
      "lng": 129.08359456073717,
      "title": "명륜동힐스테이트아파트",
      "description": "부산 동래구 명륜로 222",
      "url": "http://place.map.kakao.com/508827",
      "region": "부산광역시"
    },
    {
      "lat": 35.2022900346601,
      "lng": 129.056891627147,
      "title": "힐스테이트사직아시아드아파트 (2029년02월예정)",
      "description": "부산 동래구 사직동 630",
      "url": "http://place.map.kakao.com/1038118159",
      "region": "부산광역시"
    },
    {
      "lat": 35.23887268572743,
      "lng": 129.08148119727673,
      "title": "금정힐스테이트아파트",
      "description": "부산 금정구 금강로335번길 90",
      "url": "http://place.map.kakao.com/11561690",
      "region": "부산광역시"
    },
    {
      "lat": 35.1604843191761,
      "lng": 129.1784061221363,
      "title": "해운대힐스테이트위브아파트",
      "description": "부산 해운대구 좌동순환로433번길 30",
      "url": "http://place.map.kakao.com/11506231",
      "region": "부산광역시"
    },
    {
      "lat": 35.87481369754444,
      "lng": 128.59278774297323,
      "title": "힐스테이트대구역아파트",
      "description": "대구 중구 태평로28길 13",
      "url": "http://place.map.kakao.com/2016543679",
      "region": "대구광역시"
    },
    {
      "lat": 35.87657864739355,
      "lng": 128.58293435022082,
      "title": "힐스테이트도원센트럴아파트",
      "description": "대구 중구 태평로 50",
      "url": "http://place.map.kakao.com/352410125",
      "region": "대구광역시"
    },
    {
      "lat": 35.876852123118034,
      "lng": 128.58043853338916,
      "title": "달성파크푸르지오힐스테이트아파트",
      "description": "대구 중구 달성로 123",
      "url": "http://place.map.kakao.com/630246494",
      "region": "대구광역시"
    },
    {
      "lat": 35.872253398238875,
      "lng": 128.60329671819514,
      "title": "힐스테이트동인더스카이아파트",
      "description": "대구 중구 태평로 240",
      "url": "http://place.map.kakao.com/1199490124",
      "region": "대구광역시"
    },
    {
      "lat": 35.871065745633786,
      "lng": 128.60349532431871,
      "title": "힐스테이트동인센트럴아파트",
      "description": "대구 중구 동덕로 181",
      "url": "http://place.map.kakao.com/1162901747",
      "region": "대구광역시"
    },
    {
      "lat": 35.877966722700336,
      "lng": 128.5825002460412,
      "title": "힐스테이트달성공원역아파트",
      "description": "대구 중구 태평로 41",
      "url": "http://place.map.kakao.com/2112851673",
      "region": "대구광역시"
    },
    {
      "lat": 35.8759323289529,
      "lng": 128.5883413709818,
      "title": "힐스테이트대구역퍼스트1차아파트",
      "description": "대구 중구 태평로 100",
      "url": "http://place.map.kakao.com/1221461804",
      "region": "대구광역시"
    },
    {
      "lat": 35.87670693463589,
      "lng": 128.5889148854421,
      "title": "힐스테이트대구역퍼스트2차아파트",
      "description": "대구 중구 태평로 101",
      "url": "http://place.map.kakao.com/1236469635",
      "region": "대구광역시"
    },
    {
      "lat": 35.8759840519381,
      "lng": 128.592533261678,
      "title": "힐스테이트태평센트럴아파트 (예정)",
      "description": "대구 중구 태평로2가 37-3",
      "url": "http://place.map.kakao.com/1776928033",
      "region": "대구광역시"
    },
    {
      "lat": 35.86868249683462,
      "lng": 128.6249310042063,
      "title": "힐스테이트동대구센트럴아파트 (2026년04월예정)",
      "description": "대구 동구 신천동 137-1",
      "url": "http://place.map.kakao.com/1578933381",
      "region": "대구광역시"
    },
    {
      "lat": 35.86646029234574,
      "lng": 128.6246642090362,
      "title": "힐스테이트범어센트럴아파트",
      "description": "대구 수성구 상록로 80",
      "url": "http://place.map.kakao.com/1189893188",
      "region": "대구광역시"
    },
    {
      "lat": 35.85988043391014,
      "lng": 128.64332558647928,
      "title": "힐스테이트만촌역아파트",
      "description": "대구 수성구 달구벌대로 2567",
      "url": "http://place.map.kakao.com/1054170075",
      "region": "대구광역시"
    },
    {
      "lat": 35.85661503172173,
      "lng": 128.63696627303725,
      "title": "힐스테이트범어아파트",
      "description": "대구 수성구 범어로18길 22",
      "url": "http://place.map.kakao.com/432052413",
      "region": "대구광역시"
    },
    {
      "lat": 35.8781663711623,
      "lng": 128.595742602013,
      "title": "힐스테이트칠성더오페라아파트 (2026년06월예정)",
      "description": "대구 북구 칠성동2가 321",
      "url": "http://place.map.kakao.com/1201626307",
      "region": "대구광역시"
    },
    {
      "lat": 35.88504207167644,
      "lng": 128.56354576401756,
      "title": "힐스테이트서대구역센트럴아파트",
      "description": "대구 서구 달서천로53길 6",
      "url": "http://place.map.kakao.com/1385008311",
      "region": "대구광역시"
    },
    {
      "lat": 35.87891906675698,
      "lng": 128.58360653201817,
      "title": "힐스테이트대구역오페라아파트",
      "description": "대구 북구 칠성남로 30",
      "url": "http://place.map.kakao.com/108893433",
      "region": "대구광역시"
    },
    {
      "lat": 35.848308559958696,
      "lng": 128.53419110212133,
      "title": "힐스테이트죽전역아파트",
      "description": "대구 달서구 달구벌대로308길 30",
      "url": "http://place.map.kakao.com/794522825",
      "region": "대구광역시"
    },
    {
      "lat": 35.84016150046546,
      "lng": 128.6020407185035,
      "title": "앞산힐스테이트아파트",
      "description": "대구 남구 대덕로 166",
      "url": "http://place.map.kakao.com/11325619",
      "region": "대구광역시"
    },
    {
      "lat": 35.84195016362203,
      "lng": 128.5858151611337,
      "title": "힐스테이트대명센트럴1차아파트",
      "description": "대구 남구 대명로 256",
      "url": "http://place.map.kakao.com/1596518658",
      "region": "대구광역시"
    },
    {
      "lat": 35.8400928671017,
      "lng": 128.60049656117718,
      "title": "힐스테이트앞산센트럴아파트",
      "description": "대구 남구 대덕로 162",
      "url": "http://place.map.kakao.com/1213285007",
      "region": "대구광역시"
    },
    {
      "lat": 35.84339738208099,
      "lng": 128.58506591263117,
      "title": "힐스테이트대명더퍼스트아파트",
      "description": "대구 남구 대명동 289-9",
      "url": "http://place.map.kakao.com/1354431587",
      "region": "대구광역시"
    },
    {
      "lat": 35.84312083157173,
      "lng": 128.58751522776933,
      "title": "힐스테이트대명센트럴2차아파트 (2026년02월예정)",
      "description": "대구 남구 대명동 202-1",
      "url": "http://place.map.kakao.com/637368085",
      "region": "대구광역시"
    },
    {
      "lat": 35.8432819931417,
      "lng": 128.592020792467,
      "title": "힐스테이트영대병원역아파트 (예정)",
      "description": "대구 남구 봉덕동 1006-1",
      "url": "http://place.map.kakao.com/2085897908",
      "region": "대구광역시"
    },
    {
      "lat": 35.8406611640175,
      "lng": 128.602143733588,
      "title": "앞산힐스테이트아파트 상가",
      "description": "대구 남구 대덕로 166",
      "url": "http://place.map.kakao.com/26450574",
      "region": "대구광역시"
    },
    {
      "lat": 35.8406907045033,
      "lng": 128.602361247781,
      "title": "앞산힐스테이트아파트 커뮤니티센터",
      "description": "대구 남구 대덕로 166",
      "url": "http://place.map.kakao.com/16612230",
      "region": "대구광역시"
    },
    {
      "lat": 35.847781922028126,
      "lng": 128.622028434541,
      "title": "힐스테이트황금엘포레아파트",
      "description": "대구 수성구 청솔로 16",
      "url": "http://place.map.kakao.com/945021705",
      "region": "대구광역시"
    },
    {
      "lat": 35.950515307168104,
      "lng": 128.58238459305582,
      "title": "힐스테이트데시앙도남3단지아파트",
      "description": "대구 북구 도남중앙로7길 7",
      "url": "http://place.map.kakao.com/243219871",
      "region": "대구광역시"
    },
    {
      "lat": 35.9545857918798,
      "lng": 128.5829944633378,
      "title": "힐스테이트데시앙도남1단지아파트",
      "description": "대구 북구 도남길 76",
      "url": "http://place.map.kakao.com/921464294",
      "region": "대구광역시"
    },
    {
      "lat": 35.950606112262875,
      "lng": 128.58028068962196,
      "title": "힐스테이트데시앙도남2단지아파트",
      "description": "대구 북구 도남길 16",
      "url": "http://place.map.kakao.com/1797365299",
      "region": "대구광역시"
    },
    {
      "lat": 35.950663524168746,
      "lng": 128.58494654779977,
      "title": "힐스테이트데시앙도남4단지아파트",
      "description": "대구 북구 도남중앙로8길 8",
      "url": "http://place.map.kakao.com/107540687",
      "region": "대구광역시"
    },
    {
      "lat": 35.8816879243299,
      "lng": 128.595886336473,
      "title": "대구칠성동주상복합2차힐스테이트아파트 (예정)",
      "description": "대구 북구 중앙대로 543",
      "url": "http://place.map.kakao.com/1427006955",
      "region": "대구광역시"
    },
    {
      "lat": 35.83955010867281,
      "lng": 128.6384891757657,
      "title": "힐스테이트황금동아파트",
      "description": "대구 수성구 청수로 274",
      "url": "http://place.map.kakao.com/26991942",
      "region": "대구광역시"
    },
    {
      "lat": 35.8403861583295,
      "lng": 128.622301695334,
      "title": "힐스테이트황금역리저브1단지아파트",
      "description": "대구 수성구 청수로 127",
      "url": "http://place.map.kakao.com/1533502917",
      "region": "대구광역시"
    },
    {
      "lat": 35.84104322615332,
      "lng": 128.6220915171499,
      "title": "힐스테이트황금역리저브2단지아파트",
      "description": "대구 수성구 청수로25길 24",
      "url": "http://place.map.kakao.com/1533548270",
      "region": "대구광역시"
    },
    {
      "lat": 35.81864125778063,
      "lng": 128.518536955615,
      "title": "월배힐스테이트아파트",
      "description": "대구 달서구 조암남로 132",
      "url": "http://place.map.kakao.com/11349058",
      "region": "대구광역시"
    },
    {
      "lat": 35.847170961187395,
      "lng": 128.5342178869615,
      "title": "힐스테이트죽전역더퍼스트아파트",
      "description": "대구 달서구 와룡로31길 26",
      "url": "http://place.map.kakao.com/847626303",
      "region": "대구광역시"
    },
    {
      "lat": 35.86450470751134,
      "lng": 128.45565121235427,
      "title": "힐스테이트다사역아파트",
      "description": "대구 달성군 다사읍 매곡로12길 22",
      "url": "http://place.map.kakao.com/1088623804",
      "region": "대구광역시"
    },
    {
      "lat": 35.14735388676802,
      "lng": 126.8966081825177,
      "title": "힐스테이트월산아파트",
      "description": "광주 남구 월산로95번길 6",
      "url": "http://place.map.kakao.com/477536334",
      "region": "광주광역시"
    },
    {
      "lat": 35.13617690036269,
      "lng": 126.89970778914285,
      "title": "힐스테이트백운아파트",
      "description": "광주 남구 회재로1293번길 7",
      "url": "http://place.map.kakao.com/26347117",
      "region": "광주광역시"
    },
    {
      "lat": 35.14379927639446,
      "lng": 126.88500266471036,
      "title": "유니버시아드힐스테이트3단지아파트",
      "description": "광주 서구 화운로 24",
      "url": "http://place.map.kakao.com/18583472",
      "region": "광주광역시"
    },
    {
      "lat": 35.162762544283616,
      "lng": 126.88644128772468,
      "title": "힐스테이트광천아파트",
      "description": "광주 서구 천변좌로 56",
      "url": "http://place.map.kakao.com/1946311677",
      "region": "광주광역시"
    },
    {
      "lat": 35.14710620489312,
      "lng": 126.88201747715003,
      "title": "유니버시아드힐스테이트1단지아파트",
      "description": "광주 서구 화운로 94",
      "url": "http://place.map.kakao.com/18619592",
      "region": "광주광역시"
    },
    {
      "lat": 35.15448144496747,
      "lng": 126.8626370903208,
      "title": "상무힐스테이트아파트",
      "description": "광주 서구 상무대로911번길 42",
      "url": "http://place.map.kakao.com/11136082",
      "region": "광주광역시"
    },
    {
      "lat": 35.14640530365541,
      "lng": 126.87963166633668,
      "title": "유니버시아드힐스테이트2단지아파트",
      "description": "광주 서구 화정로 211",
      "url": "http://place.map.kakao.com/18583473",
      "region": "광주광역시"
    },
    {
      "lat": 35.084609396624536,
      "lng": 126.83511002911133,
      "title": "힐스테이트지석아파트",
      "description": "광주 남구 포충로 631-8",
      "url": "http://place.map.kakao.com/1399865720",
      "region": "광주광역시"
    },
    {
      "lat": 35.19438862698414,
      "lng": 126.87047030534657,
      "title": "힐스테이트연제아파트",
      "description": "광주 북구 양일1로 31",
      "url": "http://place.map.kakao.com/1960824409",
      "region": "광주광역시"
    },
    {
      "lat": 35.216850085255544,
      "lng": 126.86611157946218,
      "title": "힐스테이트신용더리버아파트",
      "description": "광주 북구 빛고을대로 615",
      "url": "http://place.map.kakao.com/587719719",
      "region": "광주광역시"
    },
    {
      "lat": 35.21894864105467,
      "lng": 126.88190591786314,
      "title": "힐스테이트본촌아파트",
      "description": "광주 북구 본촌마을길 157-22",
      "url": "http://place.map.kakao.com/168666075",
      "region": "광주광역시"
    },
    {
      "lat": 35.18648886324008,
      "lng": 126.93701181718768,
      "title": "힐스테이트각화아파트",
      "description": "광주 북구 군왕로 295",
      "url": "http://place.map.kakao.com/542896881",
      "region": "광주광역시"
    },
    {
      "lat": 35.18804893629311,
      "lng": 126.88615359082185,
      "title": "힐스테이트중외공원2블록아파트 (2026년12월예정)",
      "description": "광주 북구 매곡동 산 131-1",
      "url": "http://place.map.kakao.com/744039817",
      "region": "광주광역시"
    },
    {
      "lat": 35.1895319022731,
      "lng": 126.876286269624,
      "title": "힐스테이트중외공원1BL아파트 (예정)",
      "description": "광주 북구 운암동 193-1",
      "url": "http://place.map.kakao.com/997239569",
      "region": "광주광역시"
    },
    {
      "lat": 35.1898242284832,
      "lng": 126.885753648308,
      "title": "힐스테이트중외공원3블록아파트 (2026년12월예정)",
      "description": "광주 북구 매곡동 355",
      "url": "http://place.map.kakao.com/920394485",
      "region": "광주광역시"
    },
    {
      "lat": 35.14633451761767,
      "lng": 126.79368544754429,
      "title": "힐스테이트광산아파트",
      "description": "광주 광산구 어등대로647번북길 8",
      "url": "http://place.map.kakao.com/1836865534",
      "region": "광주광역시"
    },
    {
      "lat": 35.22117015409607,
      "lng": 126.84209357722534,
      "title": "힐스테이트첨단아파트",
      "description": "광주 광산구 첨단중앙로182번길 8",
      "url": "http://place.map.kakao.com/1660778055",
      "region": "광주광역시"
    },
    {
      "lat": 35.216472855706705,
      "lng": 126.85401188084205,
      "title": "힐스테이트리버파크아파트",
      "description": "광주 광산구 첨단강변로 100",
      "url": "http://place.map.kakao.com/648653972",
      "region": "광주광역시"
    },
    {
      "lat": 35.2214348624484,
      "lng": 126.842564277256,
      "title": "힐스테이트첨단아파트 에비뉴상가",
      "description": "광주 광산구 첨단중앙로182번길 8",
      "url": "http://place.map.kakao.com/676131390",
      "region": "광주광역시"
    },
    {
      "lat": 36.34994706012877,
      "lng": 127.44060462726722,
      "title": "힐스테이트가양더와이즈아파트",
      "description": "대전 동구 동서대로 1722",
      "url": "http://place.map.kakao.com/754943347",
      "region": "대전광역시"
    },
    {
      "lat": 36.335848864894686,
      "lng": 127.4186062264369,
      "title": "힐스테이트선화더와이즈아파트 (2027년02월예정)",
      "description": "대전 중구 선화동 85-1",
      "url": "http://place.map.kakao.com/637142245",
      "region": "대전광역시"
    },
    {
      "lat": 36.3152979606546,
      "lng": 127.389132403932,
      "title": "힐스테이트유천더와이즈아파트 (예정)",
      "description": "대전 중구 유천동 340-32",
      "url": "http://place.map.kakao.com/648479397",
      "region": "대전광역시"
    },
    {
      "lat": 36.32945544422578,
      "lng": 127.38496947742519,
      "title": "힐스테이트가장더퍼스트아파트 (2027년06월예정)",
      "description": "대전 서구 가장동 39-14",
      "url": "http://place.map.kakao.com/783067003",
      "region": "대전광역시"
    },
    {
      "lat": 36.3261958238413,
      "lng": 127.348571367585,
      "title": "힐스테이트 도안리버파크2차",
      "description": "대전 서구 도안동로 234-54",
      "url": "http://place.map.kakao.com/1465554733",
      "region": "대전광역시"
    },
    {
      "lat": 36.3423810990652,
      "lng": 127.348841760516,
      "title": "갑천1트리풀시티힐스테이트아파트",
      "description": "대전 유성구 도안동로 422",
      "url": "http://place.map.kakao.com/578265433",
      "region": "대전광역시"
    },
    {
      "lat": 36.3346727850694,
      "lng": 127.321729472764,
      "title": "힐스테이트도안리버파크3단지아파트 (2027년12월예정)",
      "description": "대전 유성구 학하동 195",
      "url": "http://place.map.kakao.com/1134519266",
      "region": "대전광역시"
    },
    {
      "lat": 36.3307255087486,
      "lng": 127.3247693935,
      "title": "힐스테이트도안리버파크1단지아파트 (2027년08월예정)",
      "description": "대전 유성구 학하동 45-3",
      "url": "http://place.map.kakao.com/1351885421",
      "region": "대전광역시"
    },
    {
      "lat": 36.329828982784306,
      "lng": 127.32271860978557,
      "title": "힐스테이트도안리버파크2단지아파트 (2027년09월예정)",
      "description": "대전 유성구 학하동 86",
      "url": "http://place.map.kakao.com/1030298968",
      "region": "대전광역시"
    },
    {
      "lat": 36.335443320187515,
      "lng": 127.32670252706977,
      "title": "힐스테이트도안리버파크5단지아파트 (2027년08월예정)",
      "description": "대전 유성구 복용동로76번길 24-59",
      "url": "http://place.map.kakao.com/843972414",
      "region": "대전광역시"
    },
    {
      "lat": 35.54120797254072,
      "lng": 129.33397647388156,
      "title": "달동힐스테이트1단지아파트",
      "description": "울산 남구 왕생로86번길 28",
      "url": "http://place.map.kakao.com/8159579",
      "region": "울산광역시"
    },
    {
      "lat": 35.54230543421918,
      "lng": 129.3348152867551,
      "title": "달동힐스테이트2단지아파트",
      "description": "울산 남구 왕생로86번길 43",
      "url": "http://place.map.kakao.com/8166270",
      "region": "울산광역시"
    },
    {
      "lat": 35.5412953797464,
      "lng": 129.307253469616,
      "title": "힐스테이트문수로센트럴아파트 (2028년06월예정)",
      "description": "울산 남구 신정동 638-1",
      "url": "http://place.map.kakao.com/709917608",
      "region": "울산광역시"
    },
    {
      "lat": 35.55078298563688,
      "lng": 129.3834021702725,
      "title": "양정힐스테이트1차아파트",
      "description": "울산 북구 염포로 459",
      "url": "http://place.map.kakao.com/11102736",
      "region": "울산광역시"
    },
    {
      "lat": 35.52380590371825,
      "lng": 129.31570246713744,
      "title": "울산힐스테이트수암1단지아파트",
      "description": "울산 남구 중앙로47번길 27",
      "url": "http://place.map.kakao.com/659017807",
      "region": "울산광역시"
    },
    {
      "lat": 35.54437229128117,
      "lng": 129.3871680372484,
      "title": "양정힐스테이트2차아파트",
      "description": "울산 북구 양정4길 15",
      "url": "http://place.map.kakao.com/11358016",
      "region": "울산광역시"
    },
    {
      "lat": 35.52404594996081,
      "lng": 129.32990032942993,
      "title": "힐스테이트선암호수공원1단지아파트 (2028년02월예정)",
      "description": "울산 남구 야음동 830-1",
      "url": "http://place.map.kakao.com/1133026805",
      "region": "울산광역시"
    },
    {
      "lat": 35.52241587584533,
      "lng": 129.31418447930162,
      "title": "울산힐스테이트수암2단지아파트",
      "description": "울산 남구 중앙로17번길 35",
      "url": "http://place.map.kakao.com/1147434441",
      "region": "울산광역시"
    },
    {
      "lat": 35.5232994789155,
      "lng": 129.329920626575,
      "title": "힐스테이트선암호수공원2단지아파트 (2028년02월예정)",
      "description": "울산 남구 야음동 829-20",
      "url": "http://place.map.kakao.com/1822764007",
      "region": "울산광역시"
    },
    {
      "lat": 35.492235892198515,
      "lng": 129.42397500734828,
      "title": "힐스테이트이스턴베이아파트",
      "description": "울산 동구 화진길 100",
      "url": "http://place.map.kakao.com/19512337",
      "region": "울산광역시"
    },
    {
      "lat": 35.637956563104346,
      "lng": 129.43711060880347,
      "title": "힐스테이트강동아파트",
      "description": "울산 북구 강동산하5로 52",
      "url": "http://place.map.kakao.com/26271151",
      "region": "울산광역시"
    },
    {
      "lat": 35.54932652923065,
      "lng": 129.14362901920796,
      "title": "울산역KTX역세권힐스테이트아파트 (예정)",
      "description": "울산 울주군 삼남읍 신화리 163-4",
      "url": "http://place.map.kakao.com/138867652",
      "region": "울산광역시"
    },
    {
      "lat": 36.475367933119614,
      "lng": 127.2535942051455,
      "title": "첫마을6단지힐스테이트아파트",
      "description": "세종특별자치시 누리로 28",
      "url": "http://place.map.kakao.com/13727253",
      "region": "세종특별자치시"
    },
    {
      "lat": 36.48899761839773,
      "lng": 127.25162420717571,
      "title": "새뜸마을10단지더샵힐스테이트아파트",
      "description": "세종특별자치시 새롬중앙로 90",
      "url": "http://place.map.kakao.com/26257063",
      "region": "세종특별자치시"
    },
    {
      "lat": 36.48635397302191,
      "lng": 127.29983057274401,
      "title": "새샘마을7단지힐스테이트세종리버파크아파트(H4)",
      "description": "세종특별자치시 소담8로 6",
      "url": "http://place.map.kakao.com/256403402",
      "region": "세종특별자치시"
    },
    {
      "lat": 36.484334769877044,
      "lng": 127.25003228436142,
      "title": "새뜸마을6단지힐스테이트아파트",
      "description": "세종특별자치시 새롬중앙1로 13",
      "url": "http://place.map.kakao.com/26157288",
      "region": "세종특별자치시"
    },
    {
      "lat": 36.51183081655214,
      "lng": 127.26507084041485,
      "title": "도램마을15단지세종힐스테이트아파트",
      "description": "세종특별자치시 보듬2로 43",
      "url": "http://place.map.kakao.com/18038993",
      "region": "세종특별자치시"
    },
    {
      "lat": 36.52106828286418,
      "lng": 127.2351047168614,
      "title": "가락마을18단지힐스테이트세종3차아파트",
      "description": "세종특별자치시 마음안1로 139",
      "url": "http://place.map.kakao.com/1804143472",
      "region": "세종특별자치시"
    },
    {
      "lat": 36.48751013714474,
      "lng": 127.30055484728622,
      "title": "새샘마을8단지힐스테이트세종리버파크아파트(H3)",
      "description": "세종특별자치시 소담8로 22",
      "url": "http://place.map.kakao.com/830887234",
      "region": "세종특별자치시"
    },
    {
      "lat": 36.4914818848566,
      "lng": 127.24436113134615,
      "title": "가온마을1단지힐스테이트세종2차아파트",
      "description": "세종특별자치시 다정남로 22",
      "url": "http://place.map.kakao.com/1335926037",
      "region": "세종특별자치시"
    },
    {
      "lat": 36.48940616363117,
      "lng": 127.2536008964693,
      "title": "새뜸마을11단지더샵힐스테이트아파트",
      "description": "세종특별자치시 새롬로 55",
      "url": "http://place.map.kakao.com/26257061",
      "region": "세종특별자치시"
    },
    {
      "lat": 36.489585792735575,
      "lng": 127.2547297879574,
      "title": "새뜸마을14단지더샵힐스테이트아파트",
      "description": "세종특별자치시 새롬로 56",
      "url": "http://place.map.kakao.com/26257069",
      "region": "세종특별자치시"
    },
    {
      "lat": 36.4750636542603,
      "lng": 127.252596785318,
      "title": "첫마을6단지힐스테이트 커뮤니티센터",
      "description": "세종특별자치시 누리로 27",
      "url": "http://place.map.kakao.com/914925306",
      "region": "세종특별자치시"
    },
    {
      "lat": 36.4758643879659,
      "lng": 127.251504751793,
      "title": "첫마을힐스테이트아파트상가",
      "description": "세종특별자치시 누리로 27",
      "url": "http://place.map.kakao.com/27016130",
      "region": "세종특별자치시"
    },
    {
      "lat": 37.31212340751411,
      "lng": 127.96854686546939,
      "title": "힐스테이트원주레스티지아파트",
      "description": "강원특별자치도 원주시 시청로 526-35",
      "url": "http://place.map.kakao.com/655456574",
      "region": "강원특별자치도"
    },
    {
      "lat": 37.340634457047116,
      "lng": 127.96227080396557,
      "title": "원주힐스테이트아파트",
      "description": "강원특별자치도 원주시 행구로 54",
      "url": "http://place.map.kakao.com/11352114",
      "region": "강원특별자치도"
    },
    {
      "lat": 37.741247296120854,
      "lng": 128.8644523807155,
      "title": "힐스테이트강릉아파트",
      "description": "강원특별자치도 강릉시 회산로383번길 37",
      "url": "http://place.map.kakao.com/1053281888",
      "region": "강원특별자치도"
    },
    {
      "lat": 37.75075740027228,
      "lng": 128.88174445161667,
      "title": "홍제힐스테이트아파트",
      "description": "강원특별자치도 강릉시 토성로 39",
      "url": "http://place.map.kakao.com/11336303",
      "region": "강원특별자치도"
    },
    {
      "lat": 38.20565275180966,
      "lng": 128.59302005777292,
      "title": "힐스테이트속초센트럴아파트",
      "description": "강원특별자치도 속초시 중앙로 170",
      "url": "http://place.map.kakao.com/477828291",
      "region": "강원특별자치도"
    },
    {
      "lat": 38.20866822460465,
      "lng": 128.58313385802435,
      "title": "힐스테이트속초아파트 (2026년06월예정)",
      "description": "강원특별자치도 속초시 금호동 622-40",
      "url": "http://place.map.kakao.com/1862401415",
      "region": "강원특별자치도"
    },
    {
      "lat": 36.627614095008,
      "lng": 127.431372180036,
      "title": "힐스테이트청주센트럴2차아파트",
      "description": "충북 청주시 흥덕구 2순환로1219번길 30",
      "url": "http://place.map.kakao.com/1672233981",
      "region": "충청북도"
    },
    {
      "lat": 36.61382035674961,
      "lng": 127.322592448727,
      "title": "힐스테이트오송역퍼스트아파트 (2026년09월예정)",
      "description": "충북 청주시 흥덕구 오송읍 오송리 310-20",
      "url": "http://place.map.kakao.com/1507036298",
      "region": "충청북도"
    },
    {
      "lat": 36.6413499022951,
      "lng": 127.481054692112,
      "title": "힐스테이트어울림청주사직아파트 (2027년06월예정)",
      "description": "충북 청주시 서원구 사직동 215-8",
      "url": "http://place.map.kakao.com/1201404300",
      "region": "충청북도"
    },
    {
      "lat": 36.98531297713321,
      "lng": 127.94402878613687,
      "title": "연수힐스테이트아파트",
      "description": "충북 충주시 연수동산로 26",
      "url": "http://place.map.kakao.com/11289862",
      "region": "충청북도"
    },
    {
      "lat": 36.95553514241909,
      "lng": 127.9241936717508,
      "title": "힐스테이트호암아파트",
      "description": "충북 충주시 호암수청1로 29",
      "url": "http://place.map.kakao.com/405490859",
      "region": "충청북도"
    },
    {
      "lat": 37.13650922414881,
      "lng": 128.1961209158657,
      "title": "하소힐스테이트아파트",
      "description": "충북 제천시 용두대로7길 36",
      "url": "http://place.map.kakao.com/11354315",
      "region": "충청북도"
    },
    {
      "lat": 36.1694583529272,
      "lng": 127.771971208707,
      "title": "남성대힐스테이트아파트",
      "description": "충북 영동군 영동읍 학산영동로 1216",
      "url": "http://place.map.kakao.com/25459339",
      "region": "충청북도"
    },
    {
      "lat": 36.8288820755273,
      "lng": 127.154462289965,
      "title": "힐스테이트두정역아파트",
      "description": "충남 천안시 서북구 북일로 50",
      "url": "http://place.map.kakao.com/2093328530",
      "region": "충청남도"
    },
    {
      "lat": 36.82779247278636,
      "lng": 127.15665374833188,
      "title": "힐스테이트천안신부아파트",
      "description": "충남 천안시 동남구 북일로 70",
      "url": "http://place.map.kakao.com/26817705",
      "region": "충청남도"
    },
    {
      "lat": 36.80746711157046,
      "lng": 127.15032561034016,
      "title": "힐스테이트천안아파트",
      "description": "충남 천안시 동남구 옛시청길 29",
      "url": "http://place.map.kakao.com/1387889279",
      "region": "충청남도"
    },
    {
      "lat": 36.8080450965855,
      "lng": 127.14195558628,
      "title": "힐스테이트천안역스카이움아파트 (2027년08월예정)",
      "description": "충남 천안시 서북구 성정동 210-15",
      "url": "http://place.map.kakao.com/828580267",
      "region": "충청남도"
    },
    {
      "lat": 36.47451603835159,
      "lng": 127.14835448395262,
      "title": "현대힐스테이트5차아파트",
      "description": "충남 공주시 신금2길 17",
      "url": "http://place.map.kakao.com/11204061",
      "region": "충청남도"
    },
    {
      "lat": 36.78405330069969,
      "lng": 127.02375346659126,
      "title": "힐스테이트모종네오루체아파트",
      "description": "충남 아산시 못마루로 139",
      "url": "http://place.map.kakao.com/1671835265",
      "region": "충청남도"
    },
    {
      "lat": 36.77809008059646,
      "lng": 127.00699901726765,
      "title": "온양힐스테이트아파트",
      "description": "충남 아산시 남산로 126",
      "url": "http://place.map.kakao.com/11195224",
      "region": "충청남도"
    },
    {
      "lat": 36.7777491961748,
      "lng": 127.096595631274,
      "title": "힐스테이트자이아산센텀아파트 (2026년02월예정)",
      "description": "충남 아산시 배방읍 세교리 1600",
      "url": "http://place.map.kakao.com/202798279",
      "region": "충청남도"
    },
    {
      "lat": 36.78795394229265,
      "lng": 127.025139416691,
      "title": "힐스테이트모종블랑루체아파트 (2026년03월예정)",
      "description": "충남 아산시 모종동 199-1",
      "url": "http://place.map.kakao.com/1100873482",
      "region": "충청남도"
    },
    {
      "lat": 36.7836689304505,
      "lng": 127.006234371666,
      "title": "힐스테이트아산센트럴아파트 (예정)",
      "description": "충남 아산시 온천동 300-28",
      "url": "http://place.map.kakao.com/340914785",
      "region": "충청남도"
    },
    {
      "lat": 36.7787785590395,
      "lng": 127.006546514521,
      "title": "온양힐스테이트아파트 상가",
      "description": "충남 아산시 남산로 120",
      "url": "http://place.map.kakao.com/23973747",
      "region": "충청남도"
    },
    {
      "lat": 36.825984569020996,
      "lng": 126.4497676584642,
      "title": "힐스테이트서산아파트",
      "description": "충남 서산시 성연면 성연3로 76",
      "url": "http://place.map.kakao.com/26643048",
      "region": "충청남도"
    },
    {
      "lat": 36.18106430209224,
      "lng": 127.1020963926968,
      "title": "힐스테이트자이논산아파트",
      "description": "충남 논산시 시민로132번길 7",
      "url": "http://place.map.kakao.com/1197239478",
      "region": "충청남도"
    },
    {
      "lat": 36.90060325957674,
      "lng": 126.69211979226392,
      "title": "힐스테이트당진2차아파트",
      "description": "충남 당진시 송악읍 틀모시로 737",
      "url": "http://place.map.kakao.com/27149030",
      "region": "충청남도"
    },
    {
      "lat": 36.90049677520505,
      "lng": 126.69450331262051,
      "title": "힐스테이트당진1차아파트",
      "description": "충남 당진시 송악읍 틀모시로 738",
      "url": "http://place.map.kakao.com/24892701",
      "region": "충청남도"
    },
    {
      "lat": 35.807557554319445,
      "lng": 127.12514624191431,
      "title": "힐스테이트어울림효자아파트",
      "description": "전북특별자치도 전주시 완산구 용머리로 135",
      "url": "http://place.map.kakao.com/981092216",
      "region": "전북특별자치도"
    },
    {
      "lat": 35.816119323800784,
      "lng": 127.11163677167403,
      "title": "힐스테이트효자동아파트",
      "description": "전북특별자치도 전주시 완산구 세내로 291",
      "url": "http://place.map.kakao.com/1013298034",
      "region": "전북특별자치도"
    },
    {
      "lat": 35.809090432124,
      "lng": 127.124440529949,
      "title": "힐스테이트어울림효자아파트 근린생활시설",
      "description": "전북특별자치도 전주시 완산구 따박골로 12",
      "url": "http://place.map.kakao.com/688780572",
      "region": "전북특별자치도"
    },
    {
      "lat": 35.94779945308941,
      "lng": 126.71499676726319,
      "title": "힐스테이트은파아파트",
      "description": "전북특별자치도 군산시 옥산면 월명로 45",
      "url": "http://place.map.kakao.com/27316179",
      "region": "전북특별자치도"
    },
    {
      "lat": 35.94455947437851,
      "lng": 126.96895045159422,
      "title": "힐스테이트익산아파트",
      "description": "전북특별자치도 익산시 선화로22길 15",
      "url": "http://place.map.kakao.com/785305536",
      "region": "전북특별자치도"
    },
    {
      "lat": 34.7976998114075,
      "lng": 126.400969441775,
      "title": "힐스테이트목포아파트 (예정)",
      "description": "전남 목포시 용당로 101",
      "url": "http://place.map.kakao.com/1405572569",
      "region": "전라남도"
    },
    {
      "lat": 34.7991125551656,
      "lng": 126.485132665464,
      "title": "힐스테이트오룡1단지아파트",
      "description": "전남 무안군 일로읍 오룡번영1로 95",
      "url": "http://place.map.kakao.com/1020096168",
      "region": "전라남도"
    },
    {
      "lat": 34.7977408595741,
      "lng": 126.486896125198,
      "title": "힐스테이트오룡2단지아파트",
      "description": "전남 무안군 일로읍 오룡동로 45",
      "url": "http://place.map.kakao.com/1100501543",
      "region": "전라남도"
    },
    {
      "lat": 34.7627220764016,
      "lng": 127.632511325033,
      "title": "힐스테이트죽림젠트리스아파트",
      "description": "전남 여수시 소라면 덕양로 21-18",
      "url": "http://place.map.kakao.com/1265701565",
      "region": "전라남도"
    },
    {
      "lat": 34.75249886046703,
      "lng": 127.74199654433926,
      "title": "엑스포힐스테이트1단지아파트",
      "description": "전남 여수시 박람회길 61",
      "url": "http://place.map.kakao.com/14092095",
      "region": "전라남도"
    },
    {
      "lat": 34.756000244972874,
      "lng": 127.7440035965308,
      "title": "엑스포힐스테이트2단지아파트",
      "description": "전남 여수시 박람회길 81",
      "url": "http://place.map.kakao.com/14092103",
      "region": "전라남도"
    },
    {
      "lat": 34.75981126549603,
      "lng": 127.63859248551242,
      "title": "힐스테이트죽림더프라우드2BL아파트 (2027년04월예정)",
      "description": "전남 여수시 소라면 죽림리 227",
      "url": "http://place.map.kakao.com/1733227726",
      "region": "전라남도"
    },
    {
      "lat": 34.757153936052596,
      "lng": 127.63893681711104,
      "title": "힐스테이트죽림더프라우드4BL아파트 (2027년04월예정)",
      "description": "전남 여수시 소라면 죽림리 215",
      "url": "http://place.map.kakao.com/1733158465",
      "region": "전라남도"
    },
    {
      "lat": 34.9572885288751,
      "lng": 127.487724649481,
      "title": "힐스테이트순천리버시티아파트 (예정)",
      "description": "전남 순천시 도서관길 63",
      "url": "http://place.map.kakao.com/1341498839",
      "region": "전라남도"
    },
    {
      "lat": 35.2398879381084,
      "lng": 126.84875245883,
      "title": "힐스테이트첨단센트럴아파트 (2026년10월예정)",
      "description": "전남 장성군 진원면 산동리 81-93",
      "url": "http://place.map.kakao.com/297038215",
      "region": "전라남도"
    },
    {
      "lat": 35.06109977600255,
      "lng": 126.9825641804643,
      "title": "힐스테이트화순아파트",
      "description": "전남 화순군 화순읍 칠충로 141-7",
      "url": "http://place.map.kakao.com/789845369",
      "region": "전라남도"
    },
    {
      "lat": 35.05701659643713,
      "lng": 126.98289938738169,
      "title": "힐스테이트화순2차아파트",
      "description": "전남 화순군 화순읍 시장길 13",
      "url": "http://place.map.kakao.com/1930699436",
      "region": "전라남도"
    },
    {
      "lat": 35.28188711077755,
      "lng": 126.50409445083699,
      "title": "힐스테이트영광아파트",
      "description": "전남 영광군 영광읍 백산길1길 11-11",
      "url": "http://place.map.kakao.com/1611260353",
      "region": "전라남도"
    },
    {
      "lat": 35.978124760130605,
      "lng": 129.40571006998408,
      "title": "힐스테이트포항아파트",
      "description": "경북 포항시 남구 오천읍 중원로 16",
      "url": "http://place.map.kakao.com/942656996",
      "region": "경상북도"
    },
    {
      "lat": 36.09238903607936,
      "lng": 129.33944664738317,
      "title": "힐스테이트초곡아파트",
      "description": "경북 포항시 북구 흥해읍 초곡지구로101번길 1-14",
      "url": "http://place.map.kakao.com/96478125",
      "region": "경상북도"
    },
    {
      "lat": 36.0739201058143,
      "lng": 129.38665118640927,
      "title": "힐스테이트환호공원2단지아파트",
      "description": "경북 포항시 북구 새천년대로 1276",
      "url": "http://place.map.kakao.com/518769326",
      "region": "경상북도"
    },
    {
      "lat": 36.01917174978297,
      "lng": 129.33611608476767,
      "title": "힐스테이트더샵상생공원2단지아파트 (2027년09월예정)",
      "description": "경북 포항시 남구 대잠동 산 81-4",
      "url": "http://place.map.kakao.com/183178872",
      "region": "경상북도"
    },
    {
      "lat": 36.074427201639786,
      "lng": 129.39397369929569,
      "title": "힐스테이트환호공원1단지아파트",
      "description": "경북 포항시 북구 새천년대로 1344",
      "url": "http://place.map.kakao.com/1144090883",
      "region": "경상북도"
    },
    {
      "lat": 36.02172093933074,
      "lng": 129.33406741915306,
      "title": "힐스테이트더샵상생공원1단지아파트 (2027년09월예정)",
      "description": "경북 포항시 남구 대잠동 871",
      "url": "http://place.map.kakao.com/183049488",
      "region": "경상북도"
    },
    {
      "lat": 35.87463702760422,
      "lng": 129.22120614488807,
      "title": "힐스테이트황성아파트",
      "description": "경북 경주시 공단로 65",
      "url": "http://place.map.kakao.com/456990503",
      "region": "경상북도"
    },
    {
      "lat": 36.118591305842045,
      "lng": 128.18597611759225,
      "title": "힐스테이트율곡아파트",
      "description": "경북 김천시 용전1로 9",
      "url": "http://place.map.kakao.com/19512355",
      "region": "경상북도"
    },
    {
      "lat": 36.1432193584487,
      "lng": 128.311912617101,
      "title": "힐스테이트구미더퍼스트아파트 (2027년04월예정)",
      "description": "경북 구미시 봉곡동 59-1",
      "url": "http://place.map.kakao.com/1446238841",
      "region": "경상북도"
    },
    {
      "lat": 36.121618022752166,
      "lng": 128.34354264413224,
      "title": "힐스테이트송정1단지아파트",
      "description": "경북 구미시 백산로5길 9",
      "url": "http://place.map.kakao.com/770241492",
      "region": "경상북도"
    },
    {
      "lat": 36.12090055030931,
      "lng": 128.34484215181845,
      "title": "힐스테이트송정2단지아파트",
      "description": "경북 구미시 백산로5길 20",
      "url": "http://place.map.kakao.com/1954614860",
      "region": "경상북도"
    },
    {
      "lat": 35.825572308562705,
      "lng": 128.71597513416523,
      "title": "힐스테이트펜타힐즈아파트",
      "description": "경북 경산시 펜타힐즈2로 10",
      "url": "http://place.map.kakao.com/1758577420",
      "region": "경상북도"
    },
    {
      "lat": 35.23629072596555,
      "lng": 128.6496068052011,
      "title": "힐스테이트마크로엔아파트",
      "description": "경남 창원시 성산구 창원천로 60",
      "url": "http://place.map.kakao.com/1426803418",
      "region": "경상남도"
    },
    {
      "lat": 35.22313033357475,
      "lng": 128.6698351262513,
      "title": "힐스테이트창원더퍼스트아파트",
      "description": "경남 창원시 성산구 대상중앙로 10",
      "url": "http://place.map.kakao.com/1156314490",
      "region": "경상남도"
    },
    {
      "lat": 35.2359063510739,
      "lng": 128.641422220472,
      "title": "힐스테이트아티움시티아파트",
      "description": "경남 창원시 의창구 창원대로397번길 11",
      "url": "http://place.map.kakao.com/1757710644",
      "region": "경상남도"
    },
    {
      "lat": 35.302391982603616,
      "lng": 128.58447133418454,
      "title": "창원감계힐스테이트4차아파트",
      "description": "경남 창원시 의창구 북면 감계로 233",
      "url": "http://place.map.kakao.com/25765708",
      "region": "경상남도"
    },
    {
      "lat": 35.302880572383806,
      "lng": 128.59665624185672,
      "title": "창원감계힐스테이트1차아파트",
      "description": "경남 창원시 의창구 북면 동전로 86",
      "url": "http://place.map.kakao.com/14973672",
      "region": "경상남도"
    },
    {
      "lat": 35.30335970941939,
      "lng": 128.5992711456313,
      "title": "창원감계힐스테이트2차아파트",
      "description": "경남 창원시 의창구 북면 감계로 341",
      "url": "http://place.map.kakao.com/26646815",
      "region": "경상남도"
    },
    {
      "lat": 35.303205178653755,
      "lng": 128.58843280261422,
      "title": "창원감계힐스테이트3차아파트",
      "description": "경남 창원시 의창구 북면 감계로 259",
      "url": "http://place.map.kakao.com/17809173",
      "region": "경상남도"
    },
    {
      "lat": 35.21341289505659,
      "lng": 128.1055597542359,
      "title": "힐스테이트초전아파트",
      "description": "경남 진주시 초북로 95",
      "url": "http://place.map.kakao.com/1234728632",
      "region": "경상남도"
    },
    {
      "lat": 35.1919249556948,
      "lng": 128.059808522655,
      "title": "힐스테이트포레나진주아파트 (예정)",
      "description": "경남 진주시 서장대로 235",
      "url": "http://place.map.kakao.com/391439566",
      "region": "경상남도"
    },
    {
      "lat": 35.1753660588552,
      "lng": 128.061060101046,
      "title": "힐스테이트평거센트럴아파트 (예정)",
      "description": "경남 진주시 진양호로239번길 7",
      "url": "http://place.map.kakao.com/340935241",
      "region": "경상남도"
    },
    {
      "lat": 35.213585836561,
      "lng": 128.106459348639,
      "title": "힐스테이트초전상가",
      "description": "경남 진주시 초북로 95",
      "url": "http://place.map.kakao.com/908175844",
      "region": "경상남도"
    },
    {
      "lat": 34.8820439742702,
      "lng": 128.410080955403,
      "title": "힐스테이트통영아파트",
      "description": "경남 통영시 광도면 죽림안길 61",
      "url": "http://place.map.kakao.com/1533421161",
      "region": "경상남도"
    },
    {
      "lat": 34.86554947101191,
      "lng": 128.6369018515275,
      "title": "힐스테이트거제아파트",
      "description": "경남 거제시 상동3길 15",
      "url": "http://place.map.kakao.com/27487223",
      "region": "경상남도"
    },
    {
      "lat": 34.88924590706151,
      "lng": 128.64176779473564,
      "title": "거제수월힐스테이트아파트",
      "description": "경남 거제시 제산로 51",
      "url": "http://place.map.kakao.com/11759193",
      "region": "경상남도"
    },
    {
      "lat": 35.16969791526707,
      "lng": 128.82585753055176,
      "title": "율하자이힐스테이트아파트",
      "description": "경남 김해시 율하6로 17",
      "url": "http://place.map.kakao.com/914133488",
      "region": "경상남도"
    },
    {
      "lat": 35.17832198261245,
      "lng": 128.81214891502563,
      "title": "힐스테이트김해아파트",
      "description": "경남 김해시 관동로27번길 39",
      "url": "http://place.map.kakao.com/1089786330",
      "region": "경상남도"
    },
    {
      "lat": 35.16716274408925,
      "lng": 128.82902853153738,
      "title": "원메이저힐스테이트아파트",
      "description": "경남 김해시 율하5로 99",
      "url": "http://place.map.kakao.com/1198238841",
      "region": "경상남도"
    },
    {
      "lat": 35.237210521108,
      "lng": 128.841422957011,
      "title": "주촌힐스테이트아파트 (예정)",
      "description": "경남 김해시 주촌면 주선로 74",
      "url": "http://place.map.kakao.com/2040150780",
      "region": "경상남도"
    },
    {
      "lat": 35.33467666914996,
      "lng": 129.00890469062503,
      "title": "힐스테이트물금센트럴아파트 (예정)",
      "description": "경남 양산시 물금읍 오봉로 185",
      "url": "http://place.map.kakao.com/87836315",
      "region": "경상남도"
    },
    {
      "lat": 35.3277484856751,
      "lng": 128.996296599507,
      "title": "양산물금힐스테이트아파트 (예정)",
      "description": "경남 양산시 물금읍 범어리 940",
      "url": "http://place.map.kakao.com/637217681",
      "region": "경상남도"
    }
  ]
}