{
  "pins": [
    {
      "lat": 37.515271211540906,
      "lng": 127.04538645409791,
      "title": "롯데캐슬프레미어아파트",
      "description": "서울 강남구 선릉로126길 22",
      "url": "http://place.map.kakao.com/11368377",
      "region": "서울특별시"
    },
    {
      "lat": 37.492309684653314,
      "lng": 127.03577788666567,
      "title": "역삼동롯데캐슬노블아파트",
      "description": "서울 강남구 도곡로13길 19",
      "url": "http://place.map.kakao.com/7862388",
      "region": "서울특별시"
    },
    {
      "lat": 37.49030557689141,
      "lng": 127.0366498697531,
      "title": "롯데캐슬모닝아파트",
      "description": "서울 강남구 도곡로14길 12",
      "url": "http://place.map.kakao.com/7855093",
      "region": "서울특별시"
    },
    {
      "lat": 37.51312226805192,
      "lng": 127.0477955142571,
      "title": "삼성롯데캐슬킹덤아파트",
      "description": "서울 강남구 선릉로112길 53",
      "url": "http://place.map.kakao.com/19422372",
      "region": "서울특별시"
    },
    {
      "lat": 37.50475712647617,
      "lng": 127.05644887076491,
      "title": "대치롯데캐슬아파트",
      "description": "서울 강남구 삼성로85길 11",
      "url": "http://place.map.kakao.com/7855217",
      "region": "서울특별시"
    },
    {
      "lat": 37.49624556929162,
      "lng": 127.05399532699059,
      "title": "대치롯데캐슬리베아파트",
      "description": "서울 강남구 도곡로 404",
      "url": "http://place.map.kakao.com/7855790",
      "region": "서울특별시"
    },
    {
      "lat": 37.486724951929276,
      "lng": 127.03036597337103,
      "title": "롯데캐슬쥬피터아파트",
      "description": "서울 서초구 서운로6길 15-20",
      "url": "http://place.map.kakao.com/7855572",
      "region": "서울특별시"
    },
    {
      "lat": 37.5004653985854,
      "lng": 127.02180268328965,
      "title": "서초롯데캐슬클래식아파트",
      "description": "서울 서초구 서운로 197",
      "url": "http://place.map.kakao.com/7855573",
      "region": "서울특별시"
    },
    {
      "lat": 37.49085354614979,
      "lng": 127.02132157844612,
      "title": "롯데캐슬SPA아파트",
      "description": "서울 서초구 사임당로23길 12",
      "url": "http://place.map.kakao.com/11080022",
      "region": "서울특별시"
    },
    {
      "lat": 37.49661308452995,
      "lng": 127.01958171432294,
      "title": "서초롯데캐슬프레지던트아파트",
      "description": "서울 서초구 서초중앙로24길 57",
      "url": "http://place.map.kakao.com/17446110",
      "region": "서울특별시"
    },
    {
      "lat": 37.549312250137085,
      "lng": 127.1678007705208,
      "title": "고덕롯데캐슬베네루체아파트",
      "description": "서울 강동구 상암로79길 88",
      "url": "http://place.map.kakao.com/256620487",
      "region": "서울특별시"
    },
    {
      "lat": 37.55662489972904,
      "lng": 127.1430397571237,
      "title": "강동롯데캐슬퍼스트아파트",
      "description": "서울 강동구 고덕로 131",
      "url": "http://place.map.kakao.com/8320224",
      "region": "서울특별시"
    },
    {
      "lat": 37.5553126312555,
      "lng": 127.140384472186,
      "title": "롯데캐슬퍼스트아파트상가",
      "description": "서울 강동구 고덕로 133",
      "url": "http://place.map.kakao.com/23717136",
      "region": "서울특별시"
    },
    {
      "lat": 37.61727158277216,
      "lng": 127.03635304266886,
      "title": "꿈의숲롯데캐슬아파트",
      "description": "서울 강북구 오현로 56",
      "url": "http://place.map.kakao.com/25983037",
      "region": "서울특별시"
    },
    {
      "lat": 37.62612428418169,
      "lng": 127.04979354457613,
      "title": "롯데캐슬루나아파트",
      "description": "서울 노원구 월계로45길 21",
      "url": "http://place.map.kakao.com/7862217",
      "region": "서울특별시"
    },
    {
      "lat": 37.60831836870625,
      "lng": 127.02653980629981,
      "title": "롯데캐슬클라시아아파트",
      "description": "서울 성북구 숭인로8길 80",
      "url": "http://place.map.kakao.com/1908273697",
      "region": "서울특별시"
    },
    {
      "lat": 37.6676577369346,
      "lng": 127.04555162893293,
      "title": "도봉롯데캐슬골든파크아파트",
      "description": "서울 도봉구 도봉로150마길 34",
      "url": "http://place.map.kakao.com/201949740",
      "region": "서울특별시"
    },
    {
      "lat": 37.6086040765433,
      "lng": 127.01602542023704,
      "title": "길음뉴타운11단지롯데캐슬골든힐스아파트",
      "description": "서울 성북구 서경로 60",
      "url": "http://place.map.kakao.com/965638311",
      "region": "서울특별시"
    },
    {
      "lat": 37.6674441910526,
      "lng": 127.045586634811,
      "title": "도봉 롯데캐슬 하이브스퀘어",
      "description": "서울 도봉구 방학동 717-6",
      "url": "http://place.map.kakao.com/2141564525",
      "region": "서울특별시"
    },
    {
      "lat": 37.555186577852744,
      "lng": 126.84804044324358,
      "title": "우장산롯데캐슬아파트",
      "description": "서울 강서구 공항대로 382",
      "url": "http://place.map.kakao.com/8038692",
      "region": "서울특별시"
    },
    {
      "lat": 37.55076004904695,
      "lng": 126.86835597013767,
      "title": "염창롯데캐슬아파트",
      "description": "서울 강서구 공항대로65길 21",
      "url": "http://place.map.kakao.com/8347502",
      "region": "서울특별시"
    },
    {
      "lat": 37.54689171628831,
      "lng": 126.86724022255045,
      "title": "목동롯데캐슬위너아파트",
      "description": "서울 양천구 목동중앙북로 38",
      "url": "http://place.map.kakao.com/8347637",
      "region": "서울특별시"
    },
    {
      "lat": 37.5455720224797,
      "lng": 126.86588353115225,
      "title": "목동롯데캐슬마에스트로아파트",
      "description": "서울 양천구 목동중앙북로8길 71",
      "url": "http://place.map.kakao.com/1873934236",
      "region": "서울특별시"
    },
    {
      "lat": 37.490539768993145,
      "lng": 126.92504913571761,
      "title": "보라매롯데캐슬아파트",
      "description": "서울 관악구 봉천로 209",
      "url": "http://place.map.kakao.com/13231277",
      "region": "서울특별시"
    },
    {
      "lat": 37.49167204915123,
      "lng": 126.96221982277808,
      "title": "사당롯데캐슬골든포레아파트",
      "description": "서울 동작구 사당로 90",
      "url": "http://place.map.kakao.com/807959093",
      "region": "서울특별시"
    },
    {
      "lat": 37.4963849370176,
      "lng": 126.943462440839,
      "title": "상도동롯데캐슬비엔아파트",
      "description": "서울 동작구 양녕로 170",
      "url": "http://place.map.kakao.com/12293997",
      "region": "서울특별시"
    },
    {
      "lat": 37.500549981491574,
      "lng": 126.94667672352884,
      "title": "상도역롯데캐슬파크엘아파트",
      "description": "서울 동작구 양녕로 220",
      "url": "http://place.map.kakao.com/1950694213",
      "region": "서울특별시"
    },
    {
      "lat": 37.490776588082014,
      "lng": 126.97251355562913,
      "title": "사당롯데캐슬1차아파트",
      "description": "서울 동작구 사당로27길 190",
      "url": "http://place.map.kakao.com/7855654",
      "region": "서울특별시"
    },
    {
      "lat": 37.490192489724706,
      "lng": 126.97147800421223,
      "title": "사당롯데캐슬2차아파트",
      "description": "서울 동작구 사당로27길 181",
      "url": "http://place.map.kakao.com/7855387",
      "region": "서울특별시"
    },
    {
      "lat": 37.50425549845666,
      "lng": 126.95948334456347,
      "title": "롯데캐슬에듀포레아파트",
      "description": "서울 동작구 서달로 123",
      "url": "http://place.map.kakao.com/734185843",
      "region": "서울특별시"
    },
    {
      "lat": 37.48332191189142,
      "lng": 126.98365539899297,
      "title": "방배롯데캐슬아르떼아파트",
      "description": "서울 서초구 방배천로18길 11",
      "url": "http://place.map.kakao.com/17167852",
      "region": "서울특별시"
    },
    {
      "lat": 37.4967182248624,
      "lng": 126.98463405476,
      "title": "방배롯데캐슬헤론아파트",
      "description": "서울 서초구 동광로1길 112",
      "url": "http://place.map.kakao.com/8320225",
      "region": "서울특별시"
    },
    {
      "lat": 37.5357625053579,
      "lng": 127.08861406160409,
      "title": "롯데캐슬이스트폴아파트",
      "description": "서울 광진구 아차산로 420",
      "url": "http://place.map.kakao.com/245360743",
      "region": "서울특별시"
    },
    {
      "lat": 37.53760809589768,
      "lng": 127.06277927270288,
      "title": "롯데캐슬리버파크시그니처아파트",
      "description": "서울 광진구 뚝섬로 467",
      "url": "http://place.map.kakao.com/1191949169",
      "region": "서울특별시"
    },
    {
      "lat": 37.54604848490114,
      "lng": 127.05595945975698,
      "title": "성수롯데캐슬파크아파트",
      "description": "서울 성동구 성수일로8길 47",
      "url": "http://place.map.kakao.com/10478635",
      "region": "서울특별시"
    },
    {
      "lat": 37.51430355765642,
      "lng": 127.10070967524918,
      "title": "잠실롯데캐슬골드아파트",
      "description": "서울 송파구 올림픽로 269",
      "url": "http://place.map.kakao.com/19146892",
      "region": "서울특별시"
    },
    {
      "lat": 37.4795763158685,
      "lng": 126.866769238937,
      "title": "철산역롯데캐슬앤SKVIEW클래스티지아파트",
      "description": "경기 광명시 시청로 50",
      "url": "http://place.map.kakao.com/133970800",
      "region": "경기도"
    },
    {
      "lat": 37.4755818698716,
      "lng": 126.849293856458,
      "title": "광명롯데캐슬시그니처아파트 (2027년10월예정)",
      "description": "경기 광명시 광명동 275-3",
      "url": "http://place.map.kakao.com/413629730",
      "region": "경기도"
    },
    {
      "lat": 37.518753151722066,
      "lng": 126.84757139143103,
      "title": "신정뉴타운롯데캐슬아파트",
      "description": "서울 양천구 중앙로29길 61",
      "url": "http://place.map.kakao.com/22852136",
      "region": "서울특별시"
    },
    {
      "lat": 37.51984474555491,
      "lng": 126.87481286598134,
      "title": "신정롯데캐슬아파트",
      "description": "서울 양천구 신목로12길 22",
      "url": "http://place.map.kakao.com/7862218",
      "region": "서울특별시"
    },
    {
      "lat": 37.51818880846492,
      "lng": 126.88557645266242,
      "title": "문래롯데캐슬아파트",
      "description": "서울 영등포구 선유로9길 30",
      "url": "http://place.map.kakao.com/778507854",
      "region": "서울특별시"
    },
    {
      "lat": 37.5234434015673,
      "lng": 126.840471181647,
      "title": "양천롯데캐슬1단지아파트",
      "description": "서울 양천구 오목로5길 19",
      "url": "http://place.map.kakao.com/17804304",
      "region": "서울특별시"
    },
    {
      "lat": 37.46407996286628,
      "lng": 126.89155263074589,
      "title": "독산역롯데캐슬아파트",
      "description": "서울 금천구 벚꽃로 100",
      "url": "http://place.map.kakao.com/786468208",
      "region": "서울특별시"
    },
    {
      "lat": 37.46011751264842,
      "lng": 126.89680518190217,
      "title": "금천롯데캐슬골드파크3차아파트",
      "description": "서울 금천구 시흥대로 291",
      "url": "http://place.map.kakao.com/26580026",
      "region": "서울특별시"
    },
    {
      "lat": 37.459721324419284,
      "lng": 126.89404103977326,
      "title": "금천롯데캐슬골드파크1차아파트",
      "description": "서울 금천구 벚꽃로 40",
      "url": "http://place.map.kakao.com/23325413",
      "region": "서울특별시"
    },
    {
      "lat": 37.45816436346876,
      "lng": 126.89402741282639,
      "title": "금천롯데캐슬골드파크2차아파트",
      "description": "서울 금천구 벚꽃로 30",
      "url": "http://place.map.kakao.com/24527914",
      "region": "서울특별시"
    },
    {
      "lat": 37.4580551757919,
      "lng": 126.893843333904,
      "title": "금천롯데캐슬골드파크2차아파트 상가",
      "description": "서울 금천구 벚꽃로 30",
      "url": "http://place.map.kakao.com/1991455540",
      "region": "서울특별시"
    },
    {
      "lat": 37.66478301276607,
      "lng": 127.07772685359019,
      "title": "노원롯데캐슬시그니처아파트",
      "description": "서울 노원구 덕릉로 753",
      "url": "http://place.map.kakao.com/1626787571",
      "region": "서울특별시"
    },
    {
      "lat": 37.6652606731512,
      "lng": 127.077513139353,
      "title": "노원롯데캐슬시그니처아파트 105동 상가",
      "description": "서울 노원구 덕릉로 753",
      "url": "http://place.map.kakao.com/714903786",
      "region": "서울특별시"
    },
    {
      "lat": 37.5787422414806,
      "lng": 127.04495513706125,
      "title": "청량리역롯데캐슬SKY-L65아파트",
      "description": "서울 동대문구 답십리로 27",
      "url": "http://place.map.kakao.com/1775144543",
      "region": "서울특별시"
    },
    {
      "lat": 37.57718397330088,
      "lng": 127.03572336328867,
      "title": "롯데캐슬피렌체아파트",
      "description": "서울 동대문구 정릉천동로 58",
      "url": "http://place.map.kakao.com/7855256",
      "region": "서울특별시"
    },
    {
      "lat": 37.57909811364989,
      "lng": 127.03101930584653,
      "title": "용두롯데캐슬리치아파트",
      "description": "서울 동대문구 한빛로 73",
      "url": "http://place.map.kakao.com/19927310",
      "region": "서울특별시"
    },
    {
      "lat": 37.57633028797046,
      "lng": 127.04944226314667,
      "title": "동대문롯데캐슬노블레스아파트",
      "description": "서울 동대문구 답십리로23길 30",
      "url": "http://place.map.kakao.com/27323149",
      "region": "서울특별시"
    },
    {
      "lat": 37.587531321315,
      "lng": 127.045243477214,
      "title": "청량리롯데캐슬하이루체아파트 (2026년04월예정)",
      "description": "서울 동대문구 청량리동 61-647",
      "url": "http://place.map.kakao.com/800417077",
      "region": "서울특별시"
    },
    {
      "lat": 37.5771729831554,
      "lng": 127.036307502167,
      "title": "롯데캐슬피렌체아파트 상가",
      "description": "서울 동대문구 정릉천동로 58",
      "url": "http://place.map.kakao.com/14973657",
      "region": "서울특별시"
    },
    {
      "lat": 37.5789946458576,
      "lng": 127.030456614262,
      "title": "용두롯데캐슬리치아파트 상가",
      "description": "서울 동대문구 한빛로 73",
      "url": "http://place.map.kakao.com/1675984629",
      "region": "서울특별시"
    },
    {
      "lat": 37.544831515227095,
      "lng": 126.95073583557456,
      "title": "롯데캐슬프레지던트아파트",
      "description": "서울 마포구 마포대로 109",
      "url": "http://place.map.kakao.com/19147079",
      "region": "서울특별시"
    },
    {
      "lat": 37.58487289001885,
      "lng": 126.89166068411926,
      "title": "DMC롯데캐슬더퍼스트아파트",
      "description": "서울 은평구 수색로 300",
      "url": "http://place.map.kakao.com/217314090",
      "region": "서울특별시"
    },
    {
      "lat": 37.573420748306795,
      "lng": 126.95941081090396,
      "title": "경희궁롯데캐슬아파트",
      "description": "서울 종로구 통일로 230",
      "url": "http://place.map.kakao.com/748876975",
      "region": "서울특별시"
    },
    {
      "lat": 37.56361935920111,
      "lng": 126.97031364971919,
      "title": "덕수궁롯데캐슬아파트",
      "description": "서울 중구 서소문로9길 28",
      "url": "http://place.map.kakao.com/21879081",
      "region": "서울특별시"
    },
    {
      "lat": 37.612912834261756,
      "lng": 126.93324546400952,
      "title": "불광롯데캐슬아파트",
      "description": "서울 은평구 불광로 64",
      "url": "http://place.map.kakao.com/13051320",
      "region": "서울특별시"
    },
    {
      "lat": 37.52018385073389,
      "lng": 127.01643408469131,
      "title": "롯데캐슬갤럭시1차아파트",
      "description": "서울 서초구 잠원로14길 3",
      "url": "http://place.map.kakao.com/11275437",
      "region": "서울특별시"
    },
    {
      "lat": 37.51904144640884,
      "lng": 127.01594063813337,
      "title": "롯데캐슬갤럭시2차아파트",
      "description": "서울 서초구 잠원로14길 23",
      "url": "http://place.map.kakao.com/7855655",
      "region": "서울특별시"
    },
    {
      "lat": 37.487444841228196,
      "lng": 127.0169470353011,
      "title": "서초롯데캐슬리버티아파트",
      "description": "서울 서초구 사임당로10길 39",
      "url": "http://place.map.kakao.com/11359086",
      "region": "서울특별시"
    },
    {
      "lat": 37.49171675997959,
      "lng": 126.99583876155593,
      "title": "방배동롯데캐슬포레스트아파트",
      "description": "서울 서초구 방배로28길 63",
      "url": "http://place.map.kakao.com/7855965",
      "region": "서울특별시"
    },
    {
      "lat": 37.49017960188491,
      "lng": 126.99484265771494,
      "title": "방배롯데캐슬로제아파트",
      "description": "서울 서초구 방배로26길 41",
      "url": "http://place.map.kakao.com/15179021",
      "region": "서울특별시"
    },
    {
      "lat": 37.492490287746705,
      "lng": 127.01826440657837,
      "title": "서초롯데캐슬84아파트",
      "description": "서울 서초구 사임당로17길 90",
      "url": "http://place.map.kakao.com/7855486",
      "region": "서울특별시"
    },
    {
      "lat": 37.486018859192065,
      "lng": 126.99963365792019,
      "title": "방배롯데캐슬파크아파트",
      "description": "서울 서초구 방배로18길 81",
      "url": "http://place.map.kakao.com/7855254",
      "region": "서울특별시"
    },
    {
      "lat": 37.49161503104921,
      "lng": 127.01449646857762,
      "title": "서초롯데캐슬메디치아파트",
      "description": "서울 서초구 서초중앙로 110",
      "url": "http://place.map.kakao.com/11890801",
      "region": "서울특별시"
    },
    {
      "lat": 37.494619745865684,
      "lng": 126.9944047269721,
      "title": "서초롯데캐슬오스카아파트",
      "description": "서울 서초구 동광로27길 15",
      "url": "http://place.map.kakao.com/8361279",
      "region": "서울특별시"
    },
    {
      "lat": 37.49649395113132,
      "lng": 126.99775188343555,
      "title": "반포롯데캐슬OSCAR",
      "description": "서울 서초구 사평대로22길 69",
      "url": "http://place.map.kakao.com/26930761",
      "region": "서울특별시"
    },
    {
      "lat": 37.57114893748801,
      "lng": 127.02158895337773,
      "title": "롯데캐슬베네치아아파트",
      "description": "서울 중구 청계천로 400",
      "url": "http://place.map.kakao.com/7855096",
      "region": "서울특별시"
    },
    {
      "lat": 37.5738509859852,
      "lng": 127.01617871593045,
      "title": "롯데캐슬천지인아파트",
      "description": "서울 종로구 종로 347",
      "url": "http://place.map.kakao.com/19146402",
      "region": "서울특별시"
    },
    {
      "lat": 37.60375099493983,
      "lng": 127.02349751525739,
      "title": "길음역롯데캐슬트윈골드아파트",
      "description": "서울 성북구 길음로 11",
      "url": "http://place.map.kakao.com/2114860628",
      "region": "서울특별시"
    },
    {
      "lat": 37.5841193739051,
      "lng": 127.010293666927,
      "title": "창경궁롯데캐슬시그니처아파트 (2027년04월예정)",
      "description": "서울 성북구 삼선동2가 296",
      "url": "http://place.map.kakao.com/1434961107",
      "region": "서울특별시"
    },
    {
      "lat": 37.49573061531137,
      "lng": 127.14752149321824,
      "title": "송파시그니처롯데캐슬아파트",
      "description": "서울 송파구 거마로 56",
      "url": "http://place.map.kakao.com/390671106",
      "region": "서울특별시"
    },
    {
      "lat": 37.49441856684362,
      "lng": 127.12157584121059,
      "title": "송파롯데캐슬파인힐아파트",
      "description": "서울 송파구 중대로 121",
      "url": "http://place.map.kakao.com/7862558",
      "region": "서울특별시"
    },
    {
      "lat": 37.54455686699445,
      "lng": 126.82849495210446,
      "title": "수명산롯데캐슬아파트",
      "description": "서울 양천구 월정로 303",
      "url": "http://place.map.kakao.com/10353118",
      "region": "서울특별시"
    },
    {
      "lat": 37.52346934345384,
      "lng": 126.84100055105003,
      "title": "양천롯데캐슬2단지아파트",
      "description": "서울 양천구 오목로5길 20",
      "url": "http://place.map.kakao.com/18860590",
      "region": "서울특별시"
    },
    {
      "lat": 37.52024133339142,
      "lng": 126.92637235324803,
      "title": "롯데캐슬엠파이어아파트",
      "description": "서울 영등포구 의사당대로 127",
      "url": "http://place.map.kakao.com/7862394",
      "region": "서울특별시"
    },
    {
      "lat": 37.5201941032677,
      "lng": 126.93174334056124,
      "title": "롯데캐슬아이비아파트",
      "description": "서울 영등포구 국제금융로 86",
      "url": "http://place.map.kakao.com/10353932",
      "region": "서울특별시"
    },
    {
      "lat": 37.52890812222096,
      "lng": 126.90277329692134,
      "title": "당산롯데캐슬프레스티지아파트",
      "description": "서울 영등포구 영신로 237",
      "url": "http://place.map.kakao.com/26456255",
      "region": "서울특별시"
    },
    {
      "lat": 37.53957881430627,
      "lng": 126.96348896177466,
      "title": "용산롯데캐슬센터포레아파트",
      "description": "서울 용산구 백범로 313",
      "url": "http://place.map.kakao.com/664402211",
      "region": "서울특별시"
    },
    {
      "lat": 37.5413587369863,
      "lng": 126.971685960262,
      "title": "용산남영역롯데캐슬헤리티지아파트",
      "description": "서울 용산구 갈월동 98-6",
      "url": "http://place.map.kakao.com/1594128275",
      "region": "서울특별시"
    },
    {
      "lat": 37.642150556685316,
      "lng": 126.92261172048534,
      "title": "은평뉴타운상림마을8단지롯데캐슬아파트(821~830동)",
      "description": "서울 은평구 진관3로 70",
      "url": "http://place.map.kakao.com/11338995",
      "region": "서울특별시"
    },
    {
      "lat": 37.64499012695082,
      "lng": 126.92488741959176,
      "title": "은평뉴타운상림마을8단지롯데캐슬아파트(801~809동)",
      "description": "서울 은평구 진관4로 37",
      "url": "http://place.map.kakao.com/11183683",
      "region": "서울특별시"
    },
    {
      "lat": 37.64417800735758,
      "lng": 126.92297333526051,
      "title": "은평뉴타운상림마을8단지롯데캐슬아파트(810~820동)",
      "description": "서울 은평구 진관4로 17",
      "url": "http://place.map.kakao.com/11183682",
      "region": "서울특별시"
    },
    {
      "lat": 37.60997971216521,
      "lng": 126.97739864484937,
      "title": "평창동롯데캐슬로잔아파트",
      "description": "서울 종로구 평창문화로 156",
      "url": "http://place.map.kakao.com/7855088",
      "region": "서울특별시"
    },
    {
      "lat": 37.558259875641106,
      "lng": 126.98192327179159,
      "title": "남산롯데캐슬아이리스아파트",
      "description": "서울 중구 소공로 35",
      "url": "http://place.map.kakao.com/11306687",
      "region": "서울특별시"
    },
    {
      "lat": 37.602440562483764,
      "lng": 127.07582172312475,
      "title": "리버센SKVIEW롯데캐슬아파트",
      "description": "서울 중랑구 중랑천로 200",
      "url": "http://place.map.kakao.com/1422110207",
      "region": "서울특별시"
    },
    {
      "lat": 37.6015469222531,
      "lng": 127.136705970628,
      "title": "구리역롯데캐슬시그니처아파트 (2026년03월예정)",
      "description": "경기 구리시 인창동 289-29",
      "url": "http://place.map.kakao.com/1741483670",
      "region": "경기도"
    },
    {
      "lat": 37.62720464673934,
      "lng": 127.15402278658155,
      "title": "다산롯데캐슬아파트",
      "description": "경기 남양주시 다산중앙로146번길 7",
      "url": "http://place.map.kakao.com/26860910",
      "region": "경기도"
    },
    {
      "lat": 37.242550958802376,
      "lng": 127.04024653283366,
      "title": "영통롯데캐슬엘클래스1단지아파트",
      "description": "경기 수원시 영통구 망포로47번길 30",
      "url": "http://place.map.kakao.com/990237075",
      "region": "경기도"
    },
    {
      "lat": 37.240393336473474,
      "lng": 127.03910710957551,
      "title": "영통롯데캐슬엘클래스2단지아파트",
      "description": "경기 수원시 영통구 망포로48번길 7",
      "url": "http://place.map.kakao.com/1880561778",
      "region": "경기도"
    },
    {
      "lat": 37.22749047789345,
      "lng": 127.06027327888314,
      "title": "나노시티역롯데캐슬아파트",
      "description": "경기 화성시 효행로 1337-26",
      "url": "http://place.map.kakao.com/2136799746",
      "region": "경기도"
    },
    {
      "lat": 37.22766622528563,
      "lng": 127.068482276534,
      "title": "신동탄롯데캐슬아파트",
      "description": "경기 화성시 효행로 1338-44",
      "url": "http://place.map.kakao.com/1016350383",
      "region": "경기도"
    },
    {
      "lat": 37.27246014450936,
      "lng": 127.10186251600761,
      "title": "신흥덕롯데캐슬레이시티아파트",
      "description": "경기 용인시 기흥구 신정로 25",
      "url": "http://place.map.kakao.com/1818557011",
      "region": "경기도"
    },
    {
      "lat": 37.3134759915631,
      "lng": 127.07295848407358,
      "title": "성복역롯데캐슬클라시엘아파트",
      "description": "경기 용인시 수지구 성복1로 35",
      "url": "http://place.map.kakao.com/1916848254",
      "region": "경기도"
    },
    {
      "lat": 37.31280504349472,
      "lng": 127.08338247680446,
      "title": "성복역롯데캐슬골드타운아파트",
      "description": "경기 용인시 수지구 성복2로 10",
      "url": "http://place.map.kakao.com/27377275",
      "region": "경기도"
    },
    {
      "lat": 37.31089581606049,
      "lng": 127.075217745699,
      "title": "성복역롯데캐슬파크나인아파트",
      "description": "경기 용인시 수지구 성복1로 13",
      "url": "http://place.map.kakao.com/980939863",
      "region": "경기도"
    },
    {
      "lat": 37.44310705552098,
      "lng": 127.1580314366821,
      "title": "롯데캐슬아파트",
      "description": "경기 성남시 중원구 희망로 415",
      "url": "http://place.map.kakao.com/11701321",
      "region": "경기도"
    },
    {
      "lat": 37.47549822016668,
      "lng": 127.15200042770687,
      "title": "위례롯데캐슬아파트",
      "description": "경기 하남시 위례중앙로 215",
      "url": "http://place.map.kakao.com/20459809",
      "region": "경기도"
    },
    {
      "lat": 37.655767260604,
      "lng": 126.840279163354,
      "title": "원당역롯데캐슬스카이엘아파트",
      "description": "경기 고양시 덕양구 고양대로1369번길 60",
      "url": "http://place.map.kakao.com/1350313402",
      "region": "경기도"
    },
    {
      "lat": 37.62618830859442,
      "lng": 126.81869345992224,
      "title": "대곡역롯데캐슬엘클라씨아파트",
      "description": "경기 고양시 덕양구 토당로 140",
      "url": "http://place.map.kakao.com/2081116306",
      "region": "경기도"
    },
    {
      "lat": 37.32071273146165,
      "lng": 127.09943427164914,
      "title": "수지구청역롯데캐슬하이브엘아파트",
      "description": "경기 용인시 기흥구 진산로 124",
      "url": "http://place.map.kakao.com/178545636",
      "region": "경기도"
    },
    {
      "lat": 37.28336896800933,
      "lng": 127.14511003230207,
      "title": "신동백롯데캐슬에코1단지아파트",
      "description": "경기 용인시 기흥구 동백죽전대로527번길 80",
      "url": "http://place.map.kakao.com/12280492",
      "region": "경기도"
    },
    {
      "lat": 37.27225618182342,
      "lng": 127.10832157597444,
      "title": "기흥역롯데캐슬스카이아파트",
      "description": "경기 용인시 기흥구 중부대로 375",
      "url": "http://place.map.kakao.com/15195264",
      "region": "경기도"
    },
    {
      "lat": 37.27687555946027,
      "lng": 127.11801384180589,
      "title": "안골마을롯데캐슬",
      "description": "경기 용인시 기흥구 기흥로38번길 54",
      "url": "http://place.map.kakao.com/24009112",
      "region": "경기도"
    },
    {
      "lat": 37.28247161113023,
      "lng": 127.1479589636358,
      "title": "신동백롯데캐슬에코2단지아파트",
      "description": "경기 용인시 기흥구 동백죽전대로527번길 67",
      "url": "http://place.map.kakao.com/12280430",
      "region": "경기도"
    },
    {
      "lat": 37.31190751899914,
      "lng": 127.0896727450702,
      "title": "만현마을1단지롯데캐슬아파트",
      "description": "경기 용인시 수지구 만현로 25",
      "url": "http://place.map.kakao.com/11308340",
      "region": "경기도"
    },
    {
      "lat": 37.279831527985564,
      "lng": 127.15503056777155,
      "title": "호수마을상록롯데캐슬아파트",
      "description": "경기 용인시 기흥구 동백평촌로 70",
      "url": "http://place.map.kakao.com/11142863",
      "region": "경기도"
    },
    {
      "lat": 37.328492048386224,
      "lng": 127.11644266411751,
      "title": "도담마을롯데캐슬아파트",
      "description": "경기 용인시 수지구 대지로 64",
      "url": "http://place.map.kakao.com/8069999",
      "region": "경기도"
    },
    {
      "lat": 37.27440333000591,
      "lng": 127.11504011539593,
      "title": "기흥역롯데캐슬레이시티아파트",
      "description": "경기 용인시 기흥구 기흥역로 9",
      "url": "http://place.map.kakao.com/26097942",
      "region": "경기도"
    },
    {
      "lat": 37.2767215750446,
      "lng": 127.157432628609,
      "title": "백현마을롯데캐슬아파트",
      "description": "경기 용인시 기흥구 동백5로 79",
      "url": "http://place.map.kakao.com/12803768",
      "region": "경기도"
    },
    {
      "lat": 37.27224317323407,
      "lng": 127.10269768648818,
      "title": "신흥덕롯데캐슬레이시티아파트 피트니스센터",
      "description": "경기 용인시 기흥구 신정로 25",
      "url": "http://place.map.kakao.com/1934524774",
      "region": "경기도"
    },
    {
      "lat": 37.4789979963005,
      "lng": 126.801410398966,
      "title": "소사역롯데캐슬더뉴엘아파트 (2027년08월예정)",
      "description": "경기 부천시 소사구 소사본동 134",
      "url": "http://place.map.kakao.com/2015392625",
      "region": "경기도"
    },
    {
      "lat": 37.53321561155325,
      "lng": 126.70330830467307,
      "title": "계양롯데캐슬파크시티1단지아파트 (2027년11월예정)",
      "description": "인천 계양구 효성동 101-21",
      "url": "http://place.map.kakao.com/2060902443",
      "region": "인천광역시"
    },
    {
      "lat": 37.45395333732706,
      "lng": 126.71687552092298,
      "title": "구월롯데캐슬골드2단지아파트",
      "description": "인천 남동구 호구포로 803",
      "url": "http://place.map.kakao.com/7862224",
      "region": "인천광역시"
    },
    {
      "lat": 37.454553791230836,
      "lng": 126.71181444697235,
      "title": "구월힐스테이트롯데캐슬골드1단지아파트",
      "description": "인천 남동구 구월로 192",
      "url": "http://place.map.kakao.com/8208776",
      "region": "인천광역시"
    },
    {
      "lat": 37.53033172402577,
      "lng": 126.70303236525176,
      "title": "계양롯데캐슬파크시티2단지아파트 (2027년11월예정)",
      "description": "인천 계양구 효성동 123-30",
      "url": "http://place.map.kakao.com/2060726288",
      "region": "인천광역시"
    },
    {
      "lat": 37.327514651943915,
      "lng": 126.80554220550648,
      "title": "안산롯데캐슬더퍼스트아파트",
      "description": "경기 안산시 단원구 원초로 61",
      "url": "http://place.map.kakao.com/27273582",
      "region": "경기도"
    },
    {
      "lat": 37.3217740034071,
      "lng": 126.835742488087,
      "title": "롯데캐슬시그니처중앙아파트 (2027년11월예정)",
      "description": "경기 안산시 단원구 고잔동 674",
      "url": "http://place.map.kakao.com/263486617",
      "region": "경기도"
    },
    {
      "lat": 37.32270608075759,
      "lng": 126.82779205949575,
      "title": "고잔롯데캐슬골드파크아파트",
      "description": "경기 안산시 단원구 적금로 164",
      "url": "http://place.map.kakao.com/953750010",
      "region": "경기도"
    },
    {
      "lat": 37.39790790983615,
      "lng": 126.9402229563427,
      "title": "비산롯데캐슬아파트",
      "description": "경기 안양시 동안구 관악대로106번길 29",
      "url": "http://place.map.kakao.com/11080701",
      "region": "경기도"
    },
    {
      "lat": 37.71894919030193,
      "lng": 127.18667376718557,
      "title": "남양주진접롯데캐슬아파트",
      "description": "경기 남양주시 진접읍 장현천로 8",
      "url": "http://place.map.kakao.com/11077430",
      "region": "경기도"
    },
    {
      "lat": 37.6018961291098,
      "lng": 127.137805072538,
      "title": "구리역롯데캐슬시그니처아파트 106동",
      "description": "경기 구리시 인창동 289-29",
      "url": "http://place.map.kakao.com/134066738",
      "region": "경기도"
    },
    {
      "lat": 37.199168378267245,
      "lng": 127.09730907063035,
      "title": "동탄역롯데캐슬아파트",
      "description": "경기 화성시 동탄역로 150",
      "url": "http://place.map.kakao.com/725682305",
      "region": "경기도"
    },
    {
      "lat": 37.195598901169575,
      "lng": 127.11299890189534,
      "title": "동탄역롯데캐슬알바트로스아파트",
      "description": "경기 화성시 동탄순환대로21길 53",
      "url": "http://place.map.kakao.com/19512346",
      "region": "경기도"
    },
    {
      "lat": 37.209998296554,
      "lng": 127.0732710579339,
      "title": "동탄예당마을롯데캐슬아파트",
      "description": "경기 화성시 동탄반석로 231",
      "url": "http://place.map.kakao.com/11077431",
      "region": "경기도"
    },
    {
      "lat": 37.158687055741225,
      "lng": 127.10929412385218,
      "title": "동탄2롯데캐슬아파트",
      "description": "경기 화성시 동탄대로2길 49",
      "url": "http://place.map.kakao.com/733494218",
      "region": "경기도"
    },
    {
      "lat": 37.20095910306223,
      "lng": 127.07004526646517,
      "title": "동탄시범다은마을메타역롯데캐슬아파트",
      "description": "경기 화성시 메타폴리스로 22",
      "url": "http://place.map.kakao.com/11506012",
      "region": "경기도"
    },
    {
      "lat": 37.06001308801086,
      "lng": 127.06027770662926,
      "title": "평택롯데캐슬아파트",
      "description": "경기 평택시 송탄로 170",
      "url": "http://place.map.kakao.com/23820604",
      "region": "경기도"
    },
    {
      "lat": 36.99895431061871,
      "lng": 127.0958243107417,
      "title": "비전롯데캐슬아파트",
      "description": "경기 평택시 평택5로 271",
      "url": "http://place.map.kakao.com/11346349",
      "region": "경기도"
    },
    {
      "lat": 37.014701819535404,
      "lng": 127.2249979341959,
      "title": "안성롯데캐슬아파트",
      "description": "경기 안성시 대덕면 서동대로 4725",
      "url": "http://place.map.kakao.com/22612845",
      "region": "경기도"
    },
    {
      "lat": 37.741455912287634,
      "lng": 127.02729750382714,
      "title": "의정부롯데캐슬골드포레아파트",
      "description": "경기 의정부시 안골로 20",
      "url": "http://place.map.kakao.com/1013643008",
      "region": "경기도"
    },
    {
      "lat": 37.756798014392174,
      "lng": 127.07292752259957,
      "title": "의정부롯데캐슬나리벡시티아파트 (2027년11월예정)",
      "description": "경기 의정부시 금오동 산 26-19",
      "url": "http://place.map.kakao.com/1621732227",
      "region": "경기도"
    },
    {
      "lat": 37.7292992415609,
      "lng": 127.03680363303546,
      "title": "의정부롯데캐슬골드파크1단지아파트",
      "description": "경기 의정부시 범골로63번길 13",
      "url": "http://place.map.kakao.com/2072231599",
      "region": "경기도"
    },
    {
      "lat": 37.73200244021951,
      "lng": 127.03587475039654,
      "title": "의정부롯데캐슬골드파크2단지아파트",
      "description": "경기 의정부시 범골로63번길 31",
      "url": "http://place.map.kakao.com/1982047116",
      "region": "경기도"
    },
    {
      "lat": 37.7300171062289,
      "lng": 127.037467603538,
      "title": "의정부롯데캐슬골드파크1단지아파트 캐슬리안스포츠센터",
      "description": "경기 의정부시 범골로63번길 13",
      "url": "http://place.map.kakao.com/704368030",
      "region": "경기도"
    },
    {
      "lat": 37.434955284202836,
      "lng": 126.79485693605436,
      "title": "시흥롯데캐슬시그니처1블록아파트 (2027년07월예정)",
      "description": "경기 시흥시 은행동 248-30",
      "url": "http://place.map.kakao.com/1063700225",
      "region": "경기도"
    },
    {
      "lat": 37.4325033285736,
      "lng": 126.793652398542,
      "title": "시흥롯데캐슬시그니처2블록아파트 (2027년07월예정)",
      "description": "경기 시흥시 은행동 286-5",
      "url": "http://place.map.kakao.com/786982607",
      "region": "경기도"
    },
    {
      "lat": 37.72153160058526,
      "lng": 126.75145756350466,
      "title": "해솔마을7단지롯데캐슬아파트",
      "description": "경기 파주시 가온로 205",
      "url": "http://place.map.kakao.com/13499021",
      "region": "경기도"
    },
    {
      "lat": 37.712040264444894,
      "lng": 126.75770531647332,
      "title": "한빛마을9단지롯데캐슬파크타운1차아파트",
      "description": "경기 파주시 와석순환로 16",
      "url": "http://place.map.kakao.com/26824323",
      "region": "경기도"
    },
    {
      "lat": 37.71197854971208,
      "lng": 126.75574124337828,
      "title": "한빛마을4단지롯데캐슬파크타운2차아파트",
      "description": "경기 파주시 한빛로 20",
      "url": "http://place.map.kakao.com/27348852",
      "region": "경기도"
    },
    {
      "lat": 37.65473584984257,
      "lng": 126.67799742091938,
      "title": "한강신도시롯데캐슬아파트",
      "description": "경기 김포시 김포한강11로 275",
      "url": "http://place.map.kakao.com/17809194",
      "region": "경기도"
    },
    {
      "lat": 37.64414220153022,
      "lng": 126.6840212510606,
      "title": "한강롯데캐슬22단지아파트",
      "description": "경기 김포시 김포한강11로 107",
      "url": "http://place.map.kakao.com/747798500",
      "region": "경기도"
    },
    {
      "lat": 37.611437211632,
      "lng": 126.722646926446,
      "title": "풍무역롯데캐슬시그니처아파트 (2028년07월예정)",
      "description": "경기 김포시 풍무로 185",
      "url": "http://place.map.kakao.com/1059099216",
      "region": "경기도"
    },
    {
      "lat": 37.6552406765409,
      "lng": 126.678099499132,
      "title": "한강신도시롯데캐슬아파트 커뮤니티센터",
      "description": "경기 김포시 김포한강11로 275",
      "url": "http://place.map.kakao.com/1351247671",
      "region": "경기도"
    },
    {
      "lat": 37.35079990147725,
      "lng": 127.16417626158668,
      "title": "오포롯데캐슬포레스트아파트",
      "description": "경기 광주시 수레실길 7",
      "url": "http://place.map.kakao.com/7854742",
      "region": "경기도"
    },
    {
      "lat": 37.37194584923507,
      "lng": 127.29945244626613,
      "title": "초월롯데캐슬1단지아파트",
      "description": "경기 광주시 초월읍 경충대로 1065",
      "url": "http://place.map.kakao.com/8533628",
      "region": "경기도"
    },
    {
      "lat": 37.27462236171811,
      "lng": 127.45465155020806,
      "title": "이천롯데캐슬골드스카이아파트",
      "description": "경기 이천시 구만리로 191",
      "url": "http://place.map.kakao.com/26772367",
      "region": "경기도"
    },
    {
      "lat": 37.275228298491655,
      "lng": 127.45289063232258,
      "title": "이천롯데캐슬페라즈스카이아파트",
      "description": "경기 이천시 애련정로49번길 36",
      "url": "http://place.map.kakao.com/279803584",
      "region": "경기도"
    },
    {
      "lat": 37.275350570127706,
      "lng": 127.45624572917502,
      "title": "이천롯데캐슬센트럴페라즈스카이아파트 (2027년09월예정)",
      "description": "경기 이천시 안흥동 284-2",
      "url": "http://place.map.kakao.com/1078399930",
      "region": "경기도"
    },
    {
      "lat": 37.191175652058185,
      "lng": 127.03196253433589,
      "title": "롯데캐슬위너스포레아파트 (2027년08월예정)",
      "description": "경기 오산시 양산동 95",
      "url": "http://place.map.kakao.com/1357456552",
      "region": "경기도"
    },
    {
      "lat": 37.14022277553168,
      "lng": 127.09547208276713,
      "title": "오산롯데캐슬스카이파크아파트",
      "description": "경기 오산시 원당로 35",
      "url": "http://place.map.kakao.com/855360510",
      "region": "경기도"
    },
    {
      "lat": 37.87187979832433,
      "lng": 127.72202132745181,
      "title": "춘천롯데캐슬위너클래스아파트",
      "description": "강원특별자치도 춘천시 방송길 41",
      "url": "http://place.map.kakao.com/1708712482",
      "region": "강원특별자치도"
    },
    {
      "lat": 37.8699000122117,
      "lng": 127.71900163578613,
      "title": "온의롯데캐슬스카이클래스아파트",
      "description": "강원특별자치도 춘천시 방송길 70",
      "url": "http://place.map.kakao.com/20059851",
      "region": "강원특별자치도"
    },
    {
      "lat": 37.8690840563484,
      "lng": 127.719249416909,
      "title": "온의롯데캐슬스카이클래스아파트 상가",
      "description": "강원특별자치도 춘천시 방송길 70",
      "url": "http://place.map.kakao.com/1818596997",
      "region": "강원특별자치도"
    },
    {
      "lat": 37.53091796281887,
      "lng": 126.64693617470637,
      "title": "청라롯데캐슬아파트",
      "description": "인천 서구 청라커낼로 252",
      "url": "http://place.map.kakao.com/11074368",
      "region": "인천광역시"
    },
    {
      "lat": 37.454220909893024,
      "lng": 126.70870766654117,
      "title": "구월힐스테이트롯데캐슬골드1단지아파트 1214동",
      "description": "인천 남동구 구월로 192",
      "url": "http://place.map.kakao.com/26742185",
      "region": "인천광역시"
    },
    {
      "lat": 37.38702708226253,
      "lng": 126.66747902505846,
      "title": "송도롯데캐슬아파트",
      "description": "인천 연수구 송도과학로27번길 70",
      "url": "http://place.map.kakao.com/11741399",
      "region": "인천광역시"
    },
    {
      "lat": 37.3880258132153,
      "lng": 126.665067144701,
      "title": "롯데캐슬캠퍼스타운아파트",
      "description": "인천 연수구 송도과학로27번길 55",
      "url": "http://place.map.kakao.com/18410731",
      "region": "인천광역시"
    },
    {
      "lat": 37.4540786404904,
      "lng": 126.718032374248,
      "title": "구월롯데캐슬골드2단지아파트 상가",
      "description": "인천 남동구 호구포로 803",
      "url": "http://place.map.kakao.com/26440477",
      "region": "인천광역시"
    },
    {
      "lat": 37.59288531617425,
      "lng": 126.71709733465768,
      "title": "검단신도시롯데캐슬넥스티엘아파트 (2026년04월예정)",
      "description": "인천 서구 원당동 1061-1",
      "url": "http://place.map.kakao.com/879186253",
      "region": "인천광역시"
    },
    {
      "lat": 37.530292598069856,
      "lng": 126.64781704838072,
      "title": "청라롯데캐슬아파트 106동",
      "description": "인천 서구 청라커낼로 252",
      "url": "http://place.map.kakao.com/26749832",
      "region": "인천광역시"
    },
    {
      "lat": 35.115546530811365,
      "lng": 129.00975836012591,
      "title": "대신롯데캐슬아파트",
      "description": "부산 서구 대티로 161",
      "url": "http://place.map.kakao.com/26600387",
      "region": "부산광역시"
    },
    {
      "lat": 35.15559797365016,
      "lng": 129.05271088979404,
      "title": "서면롯데캐슬엘루체아파트",
      "description": "부산 부산진구 신천대로126번길 42",
      "url": "http://place.map.kakao.com/1771302488",
      "region": "부산광역시"
    },
    {
      "lat": 35.1529255559017,
      "lng": 129.030983101083,
      "title": "가야롯데캐슬골드아너아파트",
      "description": "부산 부산진구 가야대로 538",
      "url": "http://place.map.kakao.com/1266328686",
      "region": "부산광역시"
    },
    {
      "lat": 35.126946726706386,
      "lng": 128.9756593555152,
      "title": "엄궁롯데캐슬리버아파트",
      "description": "부산 사상구 엄궁북로 62",
      "url": "http://place.map.kakao.com/17131446",
      "region": "부산광역시"
    },
    {
      "lat": 35.1517827004722,
      "lng": 128.999035114742,
      "title": "주례롯데캐슬골드스마트아파트",
      "description": "부산 사상구 가야대로255번길 5",
      "url": "http://place.map.kakao.com/1087357443",
      "region": "부산광역시"
    },
    {
      "lat": 35.154434233716934,
      "lng": 129.02667214962645,
      "title": "개금롯데캐슬아파트",
      "description": "부산 부산진구 개금온정로 10",
      "url": "http://place.map.kakao.com/11361280",
      "region": "부산광역시"
    },
    {
      "lat": 35.07265123093083,
      "lng": 129.0735470897014,
      "title": "영도롯데캐슬블루오션아파트",
      "description": "부산 영도구 절영로 524",
      "url": "http://place.map.kakao.com/26843551",
      "region": "부산광역시"
    },
    {
      "lat": 35.1343194706635,
      "lng": 129.07314864584,
      "title": "롯데캐슬인피니엘아파트 (2026년06월예정)",
      "description": "부산 남구 문현동 295-1",
      "url": "http://place.map.kakao.com/1426965003",
      "region": "부산광역시"
    },
    {
      "lat": 35.10339394064534,
      "lng": 128.97302578827828,
      "title": "하단롯데캐슬아파트",
      "description": "부산 사하구 낙동대로 413",
      "url": "http://place.map.kakao.com/1014344040",
      "region": "부산광역시"
    },
    {
      "lat": 35.06480062608254,
      "lng": 128.98313052125275,
      "title": "다대롯데캐슬블루아파트",
      "description": "부산 사하구 다송로 23",
      "url": "http://place.map.kakao.com/14825341",
      "region": "부산광역시"
    },
    {
      "lat": 35.171604992816974,
      "lng": 129.03575645510716,
      "title": "롯데캐슬라센트아파트",
      "description": "부산 부산진구 백양순환로 75",
      "url": "http://place.map.kakao.com/1046238159",
      "region": "부산광역시"
    },
    {
      "lat": 35.162275129162964,
      "lng": 129.06440101945125,
      "title": "서면롯데캐슬스카이아파트",
      "description": "부산 부산진구 전포대로275번길 20",
      "url": "http://place.map.kakao.com/11365288",
      "region": "부산광역시"
    },
    {
      "lat": 35.15681431262834,
      "lng": 129.04420013569958,
      "title": "가야역롯데캐슬스카이엘아파트 (2026년01월예정)",
      "description": "부산 부산진구 가야동 3-11",
      "url": "http://place.map.kakao.com/1533032510",
      "region": "부산광역시"
    },
    {
      "lat": 35.1366640597835,
      "lng": 129.081465332824,
      "title": "대연롯데캐슬레전드1단지아파트",
      "description": "부산 남구 수영로 135",
      "url": "http://place.map.kakao.com/32199372",
      "region": "부산광역시"
    },
    {
      "lat": 35.1348596145342,
      "lng": 129.080592257789,
      "title": "대연롯데캐슬레전드2단지아파트",
      "description": "부산 남구 수영로 135",
      "url": "http://place.map.kakao.com/32147523",
      "region": "부산광역시"
    },
    {
      "lat": 35.141345480698085,
      "lng": 129.09969395234896,
      "title": "대연롯데캐슬아파트",
      "description": "부산 남구 수영로325번길 61",
      "url": "http://place.map.kakao.com/17462222",
      "region": "부산광역시"
    },
    {
      "lat": 35.1514265291584,
      "lng": 129.030199724138,
      "title": "가야롯데캐슬골드아너아파트 상가",
      "description": "부산 부산진구 가야대로 538",
      "url": "http://place.map.kakao.com/1442260826",
      "region": "부산광역시"
    },
    {
      "lat": 35.05684702909384,
      "lng": 128.9640644623873,
      "title": "다대롯데캐슬몰운대아파트",
      "description": "부산 사하구 다대낙조2길 100",
      "url": "http://place.map.kakao.com/7855956",
      "region": "부산광역시"
    },
    {
      "lat": 35.11108123270231,
      "lng": 129.11460369076718,
      "title": "롯데캐슬아인스아파트",
      "description": "부산 남구 용호로231번길 62",
      "url": "http://place.map.kakao.com/9882789",
      "region": "부산광역시"
    },
    {
      "lat": 35.1117409437311,
      "lng": 129.113980285266,
      "title": "롯데캐슬아인스아파트 상가",
      "description": "부산 남구 용호로231번길 62",
      "url": "http://place.map.kakao.com/26440705",
      "region": "부산광역시"
    },
    {
      "lat": 35.172447334134134,
      "lng": 129.0732143128496,
      "title": "양정롯데캐슬프론티엘아파트 (2027년03월예정)",
      "description": "부산 부산진구 양정로10번길 11",
      "url": "http://place.map.kakao.com/1573217737",
      "region": "부산광역시"
    },
    {
      "lat": 35.19761236112019,
      "lng": 129.06714053668668,
      "title": "사직롯데캐슬더클래식아파트",
      "description": "부산 동래구 아시아드대로146번길 1",
      "url": "http://place.map.kakao.com/22373935",
      "region": "부산광역시"
    },
    {
      "lat": 35.20471959362157,
      "lng": 129.0790938209582,
      "title": "동래롯데캐슬퀸아파트",
      "description": "부산 동래구 온천천로 165",
      "url": "http://place.map.kakao.com/1076557294",
      "region": "부산광역시"
    },
    {
      "lat": 35.19735045063631,
      "lng": 129.09823212123428,
      "title": "롯데캐슬애브뉴아파트",
      "description": "부산 동래구 충렬대로 368",
      "url": "http://place.map.kakao.com/7855570",
      "region": "부산광역시"
    },
    {
      "lat": 35.1974838382125,
      "lng": 129.08671054171572,
      "title": "동래롯데캐슬시그니처아파트 (2027년12월예정)",
      "description": "부산 동래구 수안로 30",
      "url": "http://place.map.kakao.com/1453759006",
      "region": "부산광역시"
    },
    {
      "lat": 35.192928306275505,
      "lng": 129.08421183997902,
      "title": "거제동롯데캐슬아파트",
      "description": "부산 연제구 세병로 44",
      "url": "http://place.map.kakao.com/11354818",
      "region": "부산광역시"
    },
    {
      "lat": 35.191587341783425,
      "lng": 129.06887489496313,
      "title": "거제동롯데캐슬피렌체아파트",
      "description": "부산 연제구 월드컵대로 266",
      "url": "http://place.map.kakao.com/11077436",
      "region": "부산광역시"
    },
    {
      "lat": 35.179570380379275,
      "lng": 129.08322417181301,
      "title": "연제롯데캐슬데시앙아파트",
      "description": "부산 연제구 월드컵대로 55",
      "url": "http://place.map.kakao.com/26909332",
      "region": "부산광역시"
    },
    {
      "lat": 35.229537304309716,
      "lng": 129.09461068867108,
      "title": "부곡롯데캐슬디아망아파트",
      "description": "부산 금정구 동부곡로15번길 76",
      "url": "http://place.map.kakao.com/11255731",
      "region": "부산광역시"
    },
    {
      "lat": 35.173583678722444,
      "lng": 129.0813043896416,
      "title": "연산롯데캐슬골드포레아파트",
      "description": "부산 연제구 황령산로 615",
      "url": "http://place.map.kakao.com/1795125746",
      "region": "부산광역시"
    },
    {
      "lat": 35.19960153989422,
      "lng": 129.1217006676462,
      "title": "센텀롯데캐슬3차아파트",
      "description": "부산 해운대구 반여로 83",
      "url": "http://place.map.kakao.com/11323649",
      "region": "부산광역시"
    },
    {
      "lat": 35.20463687199384,
      "lng": 129.12335998994095,
      "title": "센텀롯데캐슬1차아파트",
      "description": "부산 해운대구 반여로 133",
      "url": "http://place.map.kakao.com/11342188",
      "region": "부산광역시"
    },
    {
      "lat": 35.22020009217991,
      "lng": 129.01009901288037,
      "title": "화명롯데캐슬카이저아파트",
      "description": "부산 북구 금곡대로 166",
      "url": "http://place.map.kakao.com/11387776",
      "region": "부산광역시"
    },
    {
      "lat": 35.22941107592974,
      "lng": 129.01344757098553,
      "title": "롯데캐슬멤버스아파트",
      "description": "부산 북구 금곡대로 240",
      "url": "http://place.map.kakao.com/7855565",
      "region": "부산광역시"
    },
    {
      "lat": 35.165480387397096,
      "lng": 129.16367101327575,
      "title": "해운대롯데캐슬스타아파트",
      "description": "부산 해운대구 중동2로34번길 15",
      "url": "http://place.map.kakao.com/465454156",
      "region": "부산광역시"
    },
    {
      "lat": 35.16557257198156,
      "lng": 129.1653700086683,
      "title": "해운대롯데캐슬마린아파트",
      "description": "부산 해운대구 중동2로34번길 29",
      "url": "http://place.map.kakao.com/7855791",
      "region": "부산광역시"
    },
    {
      "lat": 35.19693027831231,
      "lng": 129.12500366029082,
      "title": "센텀롯데캐슬2차아파트",
      "description": "부산 해운대구 반여로 68-12",
      "url": "http://place.map.kakao.com/11167276",
      "region": "부산광역시"
    },
    {
      "lat": 35.172096286188356,
      "lng": 129.17224199025623,
      "title": "해운대중동롯데캐슬마스터II아파트",
      "description": "부산 해운대구 좌동로63번길 46",
      "url": "http://place.map.kakao.com/8350749",
      "region": "부산광역시"
    },
    {
      "lat": 35.173822048686944,
      "lng": 129.17590085425113,
      "title": "해운대좌동롯데캐슬마스터1아파트",
      "description": "부산 해운대구 세실로 104",
      "url": "http://place.map.kakao.com/10361570",
      "region": "부산광역시"
    },
    {
      "lat": 35.25136496491077,
      "lng": 129.08615529033688,
      "title": "구서롯데캐슬골드2단지아파트",
      "description": "부산 금정구 금강로 503",
      "url": "http://place.map.kakao.com/8347631",
      "region": "부산광역시"
    },
    {
      "lat": 35.25119937457946,
      "lng": 129.08885788673584,
      "title": "롯데캐슬골드1단지아파트",
      "description": "부산 금정구 금강로 502",
      "url": "http://place.map.kakao.com/8350741",
      "region": "부산광역시"
    },
    {
      "lat": 35.2502828341406,
      "lng": 129.085362970046,
      "title": "롯데캐슬골드2단지아파트 골프연습장",
      "description": "부산 금정구 금강로 503",
      "url": "http://place.map.kakao.com/21082653",
      "region": "부산광역시"
    },
    {
      "lat": 35.08254169253663,
      "lng": 128.90603379676858,
      "title": "명지롯데캐슬아파트",
      "description": "부산 강서구 명지오션시티11로 84",
      "url": "http://place.map.kakao.com/11323478",
      "region": "부산광역시"
    },
    {
      "lat": 35.157703848865694,
      "lng": 129.13327881156314,
      "title": "민락롯데캐슬자이언트아파트",
      "description": "부산 수영구 광안해변로 386",
      "url": "http://place.map.kakao.com/10354353",
      "region": "부산광역시"
    },
    {
      "lat": 35.3309162027347,
      "lng": 129.16884689610484,
      "title": "정관롯데캐슬2차아파트",
      "description": "부산 기장군 정관읍 정관3로 51",
      "url": "http://place.map.kakao.com/13026331",
      "region": "부산광역시"
    },
    {
      "lat": 35.3284490205754,
      "lng": 129.17024780557657,
      "title": "정관신도시롯데캐슬1차아파트",
      "description": "부산 기장군 정관읍 정관3로 52",
      "url": "http://place.map.kakao.com/11074367",
      "region": "부산광역시"
    },
    {
      "lat": 35.86339779528455,
      "lng": 128.58510656408927,
      "title": "남산롯데캐슬센트럴스카이아파트",
      "description": "대구 중구 재마루길 77",
      "url": "http://place.map.kakao.com/933959174",
      "region": "대구광역시"
    },
    {
      "lat": 35.860094103014816,
      "lng": 128.61581883309674,
      "title": "수성롯데캐슬아파트",
      "description": "대구 수성구 달구벌대로 2315",
      "url": "http://place.map.kakao.com/11129634",
      "region": "대구광역시"
    },
    {
      "lat": 35.85611924250649,
      "lng": 128.60997427496585,
      "title": "수성롯데캐슬더퍼스트아파트",
      "description": "대구 수성구 수성로69길 70",
      "url": "http://place.map.kakao.com/19656672",
      "region": "대구광역시"
    },
    {
      "lat": 35.855766095893074,
      "lng": 128.61995396681945,
      "title": "수성3가롯데캐슬아파트",
      "description": "대구 수성구 명덕로 455",
      "url": "http://place.map.kakao.com/11131173",
      "region": "대구광역시"
    },
    {
      "lat": 35.88709195423248,
      "lng": 128.59290851148572,
      "title": "대구롯데캐슬오페라아파트",
      "description": "대구 북구 침산남로 160",
      "url": "http://place.map.kakao.com/10362375",
      "region": "대구광역시"
    },
    {
      "lat": 35.85676511902991,
      "lng": 128.626913795649,
      "title": "범어롯데캐슬아파트",
      "description": "대구 수성구 동대구로 300",
      "url": "http://place.map.kakao.com/11077432",
      "region": "대구광역시"
    },
    {
      "lat": 35.85681735295555,
      "lng": 128.6262506901865,
      "title": "범어롯데캐슬상가",
      "description": "대구 수성구 동대구로 300",
      "url": "http://place.map.kakao.com/26446961",
      "region": "대구광역시"
    },
    {
      "lat": 35.87049844556243,
      "lng": 128.72582271386347,
      "title": "신서롯데캐슬레전드아파트",
      "description": "대구 동구 안심로73길 22",
      "url": "http://place.map.kakao.com/8319538",
      "region": "대구광역시"
    },
    {
      "lat": 35.86636710507784,
      "lng": 128.69306780891014,
      "title": "율하롯데캐슬탑클래스아파트",
      "description": "대구 동구 율하서로 23",
      "url": "http://place.map.kakao.com/22373933",
      "region": "대구광역시"
    },
    {
      "lat": 35.86718075705854,
      "lng": 128.5479376463723,
      "title": "중리롯데캐슬아파트",
      "description": "대구 서구 국채보상로34길 12",
      "url": "http://place.map.kakao.com/11359434",
      "region": "대구광역시"
    },
    {
      "lat": 35.8704010245776,
      "lng": 128.565630641891,
      "title": "평리롯데캐슬아파트",
      "description": "대구 서구 국채보상로 316",
      "url": "http://place.map.kakao.com/11292233",
      "region": "대구광역시"
    },
    {
      "lat": 35.850932161962504,
      "lng": 128.5267369416896,
      "title": "용산롯데캐슬그랜드아파트",
      "description": "대구 달서구 장산남로 33",
      "url": "http://place.map.kakao.com/7862387",
      "region": "대구광역시"
    },
    {
      "lat": 35.8360460938709,
      "lng": 128.53563708525817,
      "title": "달서롯데캐슬센트럴스카이아파트",
      "description": "대구 달서구 구마로14길 33",
      "url": "http://place.map.kakao.com/1607891110",
      "region": "대구광역시"
    },
    {
      "lat": 35.80534369734864,
      "lng": 128.54904649154068,
      "title": "롯데캐슬레이크아파트",
      "description": "대구 달서구 상화로58길 86",
      "url": "http://place.map.kakao.com/7855086",
      "region": "대구광역시"
    },
    {
      "lat": 35.838695434214905,
      "lng": 128.54779121454365,
      "title": "본리롯데캐슬1차아파트",
      "description": "대구 달서구 대명천로 101",
      "url": "http://place.map.kakao.com/8319536",
      "region": "대구광역시"
    },
    {
      "lat": 35.838759348043745,
      "lng": 128.54590661012784,
      "title": "본리롯데캐슬2차아파트",
      "description": "대구 달서구 대명천로 119",
      "url": "http://place.map.kakao.com/7854917",
      "region": "대구광역시"
    },
    {
      "lat": 35.176635248699,
      "lng": 126.87360962540065,
      "title": "운암동롯데캐슬아파트",
      "description": "광주 북구 서강로54번길 11",
      "url": "http://place.map.kakao.com/11080702",
      "region": "광주광역시"
    },
    {
      "lat": 35.136059956596746,
      "lng": 126.86880715555478,
      "title": "중앙공원1지구롯데캐슬시그니처1BL아파트 (2027년08월예정)",
      "description": "광주 서구 풍암동 560-9",
      "url": "http://place.map.kakao.com/1773616640",
      "region": "광주광역시"
    },
    {
      "lat": 35.1270953541183,
      "lng": 126.859473983421,
      "title": "중앙공원1지구롯데캐슬시그니처2-1BL아파트 (2027년08월예정)",
      "description": "광주 서구 금호동 80",
      "url": "http://place.map.kakao.com/1560300937",
      "region": "광주광역시"
    },
    {
      "lat": 35.1253241104674,
      "lng": 126.861769978315,
      "title": "중앙공원1지구롯데캐슬시그니처2-2BL아파트 (2027년08월예정)",
      "description": "광주 서구 풍암동 569",
      "url": "http://place.map.kakao.com/2068768845",
      "region": "광주광역시"
    },
    {
      "lat": 36.30825917487181,
      "lng": 127.44966157144552,
      "title": "대전롯데캐슬더퍼스트아파트 (2027년11월예정)",
      "description": "대전 동구 가오동 394",
      "url": "http://place.map.kakao.com/429356573",
      "region": "대전광역시"
    },
    {
      "lat": 35.55313656876393,
      "lng": 129.3213600927421,
      "title": "울산롯데캐슬스카이아파트",
      "description": "울산 중구 강북로 105",
      "url": "http://place.map.kakao.com/8350750",
      "region": "울산광역시"
    },
    {
      "lat": 35.55688191441019,
      "lng": 129.3248841747802,
      "title": "번영로롯데캐슬센트럴스카이아파트 (2028년11월예정)",
      "description": "울산 중구 학산동 167-4",
      "url": "http://place.map.kakao.com/1697625888",
      "region": "울산광역시"
    },
    {
      "lat": 35.53345503259575,
      "lng": 129.30514383705167,
      "title": "신정롯데캐슬킹덤아파트",
      "description": "울산 남구 문수로 471",
      "url": "http://place.map.kakao.com/8348320",
      "region": "울산광역시"
    },
    {
      "lat": 35.522154791297375,
      "lng": 129.3169875565492,
      "title": "울산롯데캐슬골드1,2단지아파트",
      "description": "울산 남구 신선로 45",
      "url": "http://place.map.kakao.com/7854919",
      "region": "울산광역시"
    },
    {
      "lat": 35.53393583099286,
      "lng": 129.30657632324414,
      "title": "문수로롯데캐슬그랑파르크아파트 (2026년08월예정)",
      "description": "울산 남구 봉월로 15",
      "url": "http://place.map.kakao.com/303274979",
      "region": "울산광역시"
    },
    {
      "lat": 35.548059057949175,
      "lng": 129.2531334665775,
      "title": "무거롯데캐슬아파트",
      "description": "울산 남구 신복로79번길 14",
      "url": "http://place.map.kakao.com/11268406",
      "region": "울산광역시"
    },
    {
      "lat": 36.485475080365504,
      "lng": 127.24683646033766,
      "title": "새뜸마을3단지롯데캐슬아파트",
      "description": "세종특별자치시 새롬북로 14",
      "url": "http://place.map.kakao.com/26097928",
      "region": "세종특별자치시"
    },
    {
      "lat": 37.90861583997613,
      "lng": 127.72936311325616,
      "title": "춘천롯데캐슬더퍼스트1단지아파트",
      "description": "강원특별자치도 춘천시 마장길 58",
      "url": "http://place.map.kakao.com/11325919",
      "region": "강원특별자치도"
    },
    {
      "lat": 37.90860148518308,
      "lng": 127.73109590968497,
      "title": "춘천롯데캐슬더퍼스트2단지아파트",
      "description": "강원특별자치도 춘천시 마장길 60",
      "url": "http://place.map.kakao.com/11358157",
      "region": "강원특별자치도"
    },
    {
      "lat": 37.3376309587367,
      "lng": 127.967741402412,
      "title": "원주롯데캐슬시그니처아파트",
      "description": "강원특별자치도 원주시 반곡초교로 31",
      "url": "http://place.map.kakao.com/577037257",
      "region": "강원특별자치도"
    },
    {
      "lat": 37.378160207011014,
      "lng": 127.87938960790117,
      "title": "원주롯데캐슬더퍼스트1차아파트",
      "description": "강원특별자치도 원주시 지정면 가곡로 50",
      "url": "http://place.map.kakao.com/27355564",
      "region": "강원특별자치도"
    },
    {
      "lat": 37.37885469063405,
      "lng": 127.87686641082752,
      "title": "원주롯데캐슬더퍼스트2차아파트",
      "description": "강원특별자치도 원주시 지정면 가곡로 70",
      "url": "http://place.map.kakao.com/27485049",
      "region": "강원특별자치도"
    },
    {
      "lat": 37.37729926164989,
      "lng": 127.8715453109342,
      "title": "원주롯데캐슬골드파크1차아파트",
      "description": "강원특별자치도 원주시 지정면 신지정로 250",
      "url": "http://place.map.kakao.com/1311596546",
      "region": "강원특별자치도"
    },
    {
      "lat": 37.38115162043179,
      "lng": 127.8720753968716,
      "title": "원주롯데캐슬골드파크2차아파트",
      "description": "강원특별자치도 원주시 지정면 신지정로 300",
      "url": "http://place.map.kakao.com/742928074",
      "region": "강원특별자치도"
    },
    {
      "lat": 37.76151925538465,
      "lng": 128.88352518227094,
      "title": "강릉롯데캐슬시그니처아파트",
      "description": "강원특별자치도 강릉시 원대로 76",
      "url": "http://place.map.kakao.com/1308662840",
      "region": "강원특별자치도"
    },
    {
      "lat": 37.767109403081164,
      "lng": 128.89007973785326,
      "title": "강릉교동롯데캐슬2단지아파트",
      "description": "강원특별자치도 강릉시 화부산로111번길 24",
      "url": "http://place.map.kakao.com/12802973",
      "region": "강원특별자치도"
    },
    {
      "lat": 37.76611102167062,
      "lng": 128.88829767941374,
      "title": "강릉교동롯데캐슬1단지아파트",
      "description": "강원특별자치도 강릉시 화부산로99번길 12",
      "url": "http://place.map.kakao.com/12803081",
      "region": "강원특별자치도"
    },
    {
      "lat": 37.7612499558644,
      "lng": 128.882338255642,
      "title": "강릉롯데캐슬시그니처아파트 맘스테이션",
      "description": "강원특별자치도 강릉시 원대로 76",
      "url": "http://place.map.kakao.com/993124939",
      "region": "강원특별자치도"
    },
    {
      "lat": 38.2089808061059,
      "lng": 128.58939929355884,
      "title": "속초롯데캐슬인더스카이아파트",
      "description": "강원특별자치도 속초시 수복로 235",
      "url": "http://place.map.kakao.com/463507355",
      "region": "강원특별자치도"
    },
    {
      "lat": 36.710117441303005,
      "lng": 127.4363399458074,
      "title": "오창롯데캐슬더하이스트아파트",
      "description": "충북 청주시 청원구 오창읍 중부로 760",
      "url": "http://place.map.kakao.com/25733058",
      "region": "충청북도"
    },
    {
      "lat": 36.62932164302089,
      "lng": 127.32854687405715,
      "title": "오송상록롯데캐슬아파트",
      "description": "충북 청주시 흥덕구 오송읍 오송생명5로 202",
      "url": "http://place.map.kakao.com/11966376",
      "region": "충청북도"
    },
    {
      "lat": 36.6244668460616,
      "lng": 127.422456756742,
      "title": "청주롯데캐슬시그니처아파트 (2029년03월예정)",
      "description": "충북 청주시 흥덕구 강서동 40-41",
      "url": "http://place.map.kakao.com/418037762",
      "region": "충청북도"
    },
    {
      "lat": 37.15858634157392,
      "lng": 128.22236705885055,
      "title": "장락롯데캐슬아파트",
      "description": "충북 제천시 신죽하로 83-24",
      "url": "http://place.map.kakao.com/11077433",
      "region": "충청북도"
    },
    {
      "lat": 37.12160079162419,
      "lng": 128.19686855651085,
      "title": "제천강저롯데캐슬프리미어아파트",
      "description": "충북 제천시 청풍호로10길 53",
      "url": "http://place.map.kakao.com/26945731",
      "region": "충청북도"
    },
    {
      "lat": 36.77755617623042,
      "lng": 127.14548508078931,
      "title": "천안롯데캐슬더청당아파트",
      "description": "충남 천안시 동남구 청당4로 20",
      "url": "http://place.map.kakao.com/1858450376",
      "region": "충청남도"
    },
    {
      "lat": 36.82561385176984,
      "lng": 127.15158847776198,
      "title": "천안롯데캐슬더두정아파트",
      "description": "충남 천안시 서북구 천안대로 947",
      "url": "http://place.map.kakao.com/775499521",
      "region": "충청남도"
    },
    {
      "lat": 36.77535234183661,
      "lng": 127.0807233029347,
      "title": "롯데캐슬아파트",
      "description": "충남 아산시 배방읍 북수로 183",
      "url": "http://place.map.kakao.com/11350135",
      "region": "충청남도"
    },
    {
      "lat": 36.7782774991102,
      "lng": 126.441240317878,
      "title": "서산롯데캐슬아파트",
      "description": "충남 서산시 안견로 365-10",
      "url": "http://place.map.kakao.com/11315806",
      "region": "충청남도"
    },
    {
      "lat": 36.7779310252705,
      "lng": 126.442681148698,
      "title": "서산롯데캐슬아파트 상가",
      "description": "충남 서산시 안견로 365-10",
      "url": "http://place.map.kakao.com/26446448",
      "region": "충청남도"
    },
    {
      "lat": 36.90379025860445,
      "lng": 126.69696089650797,
      "title": "당진롯데캐슬아파트",
      "description": "충남 당진시 송악읍 반촌로 108",
      "url": "http://place.map.kakao.com/12279075",
      "region": "충청남도"
    },
    {
      "lat": 36.652291771660764,
      "lng": 126.67187337294271,
      "title": "내포롯데캐슬아파트",
      "description": "충남 홍성군 홍북읍 신대로 34",
      "url": "http://place.map.kakao.com/13096946",
      "region": "충청남도"
    },
    {
      "lat": 35.94558972532734,
      "lng": 126.69065140202468,
      "title": "은파롯데캐슬아파트",
      "description": "전북특별자치도 군산시 미룡로 63",
      "url": "http://place.map.kakao.com/11076176",
      "region": "전북특별자치도"
    },
    {
      "lat": 34.97530306696441,
      "lng": 127.52728526552718,
      "title": "순천왕지롯데캐슬아파트",
      "description": "전남 순천시 왕지3길 36",
      "url": "http://place.map.kakao.com/11506248",
      "region": "전라남도"
    },
    {
      "lat": 36.14303831055049,
      "lng": 128.33036464234644,
      "title": "도량롯데캐슬골드파크아파트",
      "description": "경북 구미시 문장로 111",
      "url": "http://place.map.kakao.com/1404441442",
      "region": "경상북도"
    },
    {
      "lat": 36.56033061655979,
      "lng": 128.7045170330618,
      "title": "안동롯데캐슬아파트",
      "description": "경북 안동시 경북대로 340",
      "url": "http://place.map.kakao.com/11356458",
      "region": "경상북도"
    },
    {
      "lat": 35.22289489461957,
      "lng": 128.59063412355633,
      "title": "창원롯데캐슬하버팰리스아파트",
      "description": "경남 창원시 마산회원구 양덕동2길 20",
      "url": "http://place.map.kakao.com/247379536",
      "region": "경상남도"
    },
    {
      "lat": 35.21645600452556,
      "lng": 128.56536976528727,
      "title": "창원롯데캐슬프리미어아파트",
      "description": "경남 창원시 마산합포구 노산서18길 80",
      "url": "http://place.map.kakao.com/594578598",
      "region": "경상남도"
    },
    {
      "lat": 35.223858912077205,
      "lng": 128.59168533122138,
      "title": "창원롯데캐슬센텀골드아파트",
      "description": "경남 창원시 마산회원구 양덕로 48",
      "url": "http://place.map.kakao.com/1229508661",
      "region": "경상남도"
    },
    {
      "lat": 35.24599362293827,
      "lng": 128.58753347983813,
      "title": "창원롯데캐슬더퍼스트아파트",
      "description": "경남 창원시 마산회원구 합성북16길 197",
      "url": "http://place.map.kakao.com/27316193",
      "region": "경상남도"
    },
    {
      "lat": 35.24004588170372,
      "lng": 128.63821454254722,
      "title": "창원롯데캐슬포레스트1단지아파트 (2026년05월예정)",
      "description": "경남 창원시 의창구 사화동 670-1",
      "url": "http://place.map.kakao.com/1663094557",
      "region": "경상남도"
    },
    {
      "lat": 35.23846631349193,
      "lng": 128.64205050991814,
      "title": "창원롯데캐슬포레스트2단지아파트 (2026년02월예정)",
      "description": "경남 창원시 의창구 사화동 산 48-6",
      "url": "http://place.map.kakao.com/1860624120",
      "region": "경상남도"
    },
    {
      "lat": 35.2450965200428,
      "lng": 128.587150164025,
      "title": "창원롯데캐슬더퍼스트아파트 상가",
      "description": "경남 창원시 마산회원구 합성북16길 197",
      "url": "http://place.map.kakao.com/303649941",
      "region": "경상남도"
    },
    {
      "lat": 35.24222867108302,
      "lng": 128.88447836720206,
      "title": "롯데캐슬가야1단지아파트",
      "description": "경남 김해시 가야로451번길 9",
      "url": "http://place.map.kakao.com/10353120",
      "region": "경상남도"
    },
    {
      "lat": 35.24033084835836,
      "lng": 128.88730690552723,
      "title": "롯데캐슬가야2단지아파트",
      "description": "경남 김해시 가야로463번길 14",
      "url": "http://place.map.kakao.com/7854918",
      "region": "경상남도"
    },
    {
      "lat": 35.2538788826389,
      "lng": 128.872541088999,
      "title": "김해구산롯데캐슬시그니처아파트 (2027년09월예정)",
      "description": "경남 김해시 구산동 593",
      "url": "http://place.map.kakao.com/585255221",
      "region": "경상남도"
    },
    {
      "lat": 34.87628059406641,
      "lng": 128.7335273346124,
      "title": "롯데캐슬아일랜드아파트",
      "description": "경남 거제시 능포로2길 62",
      "url": "http://place.map.kakao.com/11079331",
      "region": "경상남도"
    },
    {
      "lat": 35.3106620547014,
      "lng": 129.066259511959,
      "title": "사송롯데캐슬아파트",
      "description": "경남 양산시 동면 사송로 155",
      "url": "http://place.map.kakao.com/1200320872",
      "region": "경상남도"
    },
    {
      "lat": 35.39559959533451,
      "lng": 129.15699714148838,
      "title": "양산롯데캐슬아파트",
      "description": "경남 양산시 진등길 26",
      "url": "http://place.map.kakao.com/25689335",
      "region": "경상남도"
    }
  ]
}