{
  "pins": [
    {
      "lat": 37.51354724384985,
      "lng": 127.03877412759955,
      "title": "논현두산위브1단지아파트",
      "description": "서울 강남구 학동로46길 38",
      "url": "http://place.map.kakao.com/11361087",
      "region": "서울특별시"
    },
    {
      "lat": 37.512534646930646,
      "lng": 127.03837093740961,
      "title": "논현두산위브2단지아파트",
      "description": "서울 강남구 언주로122길 25",
      "url": "http://place.map.kakao.com/12812368",
      "region": "서울특별시"
    },
    {
      "lat": 37.48615131169347,
      "lng": 127.03261354770507,
      "title": "서초두산위브아파트",
      "description": "서울 서초구 강남대로39길 5",
      "url": "http://place.map.kakao.com/7851380",
      "region": "서울특별시"
    },
    {
      "lat": 37.5004975754385,
      "lng": 127.02316543159856,
      "title": "서초두산위브트레지움아파트",
      "description": "서울 서초구 서운로 194",
      "url": "http://place.map.kakao.com/11270431",
      "region": "서울특별시"
    },
    {
      "lat": 37.5371670455294,
      "lng": 127.05841034709536,
      "title": "성수두산위브아파트",
      "description": "서울 성동구 뚝섬로 434",
      "url": "http://place.map.kakao.com/11506206",
      "region": "서울특별시"
    },
    {
      "lat": 37.487081955421345,
      "lng": 127.0047127636584,
      "title": "서초두산위브2아파트",
      "description": "서울 서초구 명달로 112",
      "url": "http://place.map.kakao.com/11374582",
      "region": "서울특별시"
    },
    {
      "lat": 37.49459402535901,
      "lng": 127.11915618357762,
      "title": "송파가락두산위브센티움아파트",
      "description": "서울 송파구 송파대로30길 16",
      "url": "http://place.map.kakao.com/10954988",
      "region": "서울특별시"
    },
    {
      "lat": 37.506814092043605,
      "lng": 127.00064240743059,
      "title": "잠원위브아파트",
      "description": "서울 서초구 반포대로 310",
      "url": "http://place.map.kakao.com/11089305",
      "region": "서울특별시"
    },
    {
      "lat": 37.548437002446015,
      "lng": 127.07108884051357,
      "title": "광진두산위브파크아파트",
      "description": "서울 광진구 광나루로 369",
      "url": "http://place.map.kakao.com/11091646",
      "region": "서울특별시"
    },
    {
      "lat": 37.53722353140524,
      "lng": 127.13476115513053,
      "title": "강동역두산위브센티움아파트",
      "description": "서울 강동구 성안로 155",
      "url": "http://place.map.kakao.com/10130384",
      "region": "서울특별시"
    },
    {
      "lat": 37.5394161627084,
      "lng": 127.12699402455,
      "title": "두산위브센티움아파트",
      "description": "서울 강동구 올림픽로70길 61",
      "url": "http://place.map.kakao.com/19146987",
      "region": "서울특별시"
    },
    {
      "lat": 37.61776520417838,
      "lng": 127.01693126286317,
      "title": "두산위브트레지움아파트",
      "description": "서울 강북구 삼양로27길 95",
      "url": "http://place.map.kakao.com/11267378",
      "region": "서울특별시"
    },
    {
      "lat": 37.63583947229903,
      "lng": 127.03201721694123,
      "title": "수유역두산위브1아파트",
      "description": "서울 강북구 덕릉로41길 12",
      "url": "http://place.map.kakao.com/11323934",
      "region": "서울특별시"
    },
    {
      "lat": 37.63567038195966,
      "lng": 127.0309113859969,
      "title": "수유역두산위브2아파트",
      "description": "서울 강북구 덕릉로41길 15",
      "url": "http://place.map.kakao.com/11321578",
      "region": "서울특별시"
    },
    {
      "lat": 37.6183741874472,
      "lng": 127.017511336548,
      "title": "두산위브트레지움아파트 커뮤니티센터",
      "description": "서울 강북구 삼양로27길 95",
      "url": "http://place.map.kakao.com/18553343",
      "region": "서울특별시"
    },
    {
      "lat": 37.64060363176505,
      "lng": 127.05276946377072,
      "title": "녹천역두산위브아파트",
      "description": "서울 노원구 마들로5길 25",
      "url": "http://place.map.kakao.com/27021013",
      "region": "서울특별시"
    },
    {
      "lat": 37.6073772806315,
      "lng": 127.038075319501,
      "title": "월곡두산위브아파트",
      "description": "서울 성북구 오패산로 46",
      "url": "http://place.map.kakao.com/25981966",
      "region": "서울특별시"
    },
    {
      "lat": 37.60977494899354,
      "lng": 127.01882761569033,
      "title": "길음7구역두산위브아파트",
      "description": "서울 성북구 길음로13길 22",
      "url": "http://place.map.kakao.com/11335176",
      "region": "서울특별시"
    },
    {
      "lat": 37.6087343098909,
      "lng": 127.018804702561,
      "title": "길음뉴타운7단지두산위브아파트(1285-5)",
      "description": "서울 성북구 길음로13길 22",
      "url": "http://place.map.kakao.com/1101701758",
      "region": "서울특별시"
    },
    {
      "lat": 37.556292197672256,
      "lng": 126.85455591977234,
      "title": "가양역두산위브아파트",
      "description": "서울 강서구 공항대로45길 15",
      "url": "http://place.map.kakao.com/1758489585",
      "region": "서울특별시"
    },
    {
      "lat": 37.5433517043347,
      "lng": 126.86967706940585,
      "title": "목동두산위브아파트",
      "description": "서울 양천구 목동중앙본로 85",
      "url": "http://place.map.kakao.com/11088045",
      "region": "서울특별시"
    },
    {
      "lat": 37.51915072198694,
      "lng": 126.84566566865895,
      "title": "신정뉴타운두산위브아파트",
      "description": "서울 양천구 신월로20길 7",
      "url": "http://place.map.kakao.com/17079257",
      "region": "서울특별시"
    },
    {
      "lat": 37.51589073092791,
      "lng": 126.84213306141996,
      "title": "목동센트럴아이파크위브아파트",
      "description": "서울 양천구 남부순환로83길 17",
      "url": "http://place.map.kakao.com/822044958",
      "region": "서울특별시"
    },
    {
      "lat": 37.48260335084451,
      "lng": 126.930384610248,
      "title": "청암두산위브센티움아파트",
      "description": "서울 관악구 신림로 318",
      "url": "http://place.map.kakao.com/7981899",
      "region": "서울특별시"
    },
    {
      "lat": 37.48539187153317,
      "lng": 126.971280830362,
      "title": "두산위브트레지움아파트",
      "description": "서울 동작구 사당로13길 31",
      "url": "http://place.map.kakao.com/12618432",
      "region": "서울특별시"
    },
    {
      "lat": 37.5040018197962,
      "lng": 126.94300092213068,
      "title": "상도두산위브트레지움2차아파트",
      "description": "서울 동작구 상도로30길 40",
      "url": "http://place.map.kakao.com/645811059",
      "region": "서울특별시"
    },
    {
      "lat": 37.50463448149463,
      "lng": 126.94332502838239,
      "title": "상도두산위브1차아파트",
      "description": "서울 동작구 상도로30길 39",
      "url": "http://place.map.kakao.com/27086584",
      "region": "서울특별시"
    },
    {
      "lat": 37.49726127071176,
      "lng": 126.91442595535797,
      "title": "보라매두산위브아파트",
      "description": "서울 영등포구 여의대방로9길 5",
      "url": "http://place.map.kakao.com/11340668",
      "region": "서울특별시"
    },
    {
      "lat": 37.47487022512437,
      "lng": 126.89227753021403,
      "title": "두산위브아파트",
      "description": "서울 금천구 가산로 99",
      "url": "http://place.map.kakao.com/11347214",
      "region": "서울특별시"
    },
    {
      "lat": 37.514854852239075,
      "lng": 126.9127272887211,
      "title": "두산위브아파트",
      "description": "서울 영등포구 신길로60나길 9",
      "url": "http://place.map.kakao.com/10362676",
      "region": "서울특별시"
    },
    {
      "lat": 37.49961004478887,
      "lng": 126.90822599796348,
      "title": "신풍두산위브센티움아파트",
      "description": "서울 영등포구 대방천로 155",
      "url": "http://place.map.kakao.com/11120283",
      "region": "서울특별시"
    },
    {
      "lat": 37.48607243263292,
      "lng": 126.89028274768059,
      "title": "구로두산위브아파트",
      "description": "서울 구로구 디지털로31길 85",
      "url": "http://place.map.kakao.com/11091640",
      "region": "서울특별시"
    },
    {
      "lat": 37.521820244520065,
      "lng": 126.96712658824391,
      "title": "이촌두산위브트레지움아파트",
      "description": "서울 용산구 이촌로 177",
      "url": "http://place.map.kakao.com/11491494",
      "region": "서울특별시"
    },
    {
      "lat": 37.5215014563344,
      "lng": 126.907856431546,
      "title": "리버센트푸르지오위브아파트 (2029년01월예정)",
      "description": "서울 영등포구 영중로22길 23",
      "url": "http://place.map.kakao.com/821729389",
      "region": "서울특별시"
    },
    {
      "lat": 37.432608870028794,
      "lng": 126.9012754820339,
      "title": "석수두산위브아파트",
      "description": "경기 안양시 만안구 연현로79번길 20",
      "url": "http://place.map.kakao.com/11091637",
      "region": "경기도"
    },
    {
      "lat": 37.46923784736586,
      "lng": 126.87222044496936,
      "title": "광명두산위브트레지움아파트",
      "description": "경기 광명시 광덕산로 26",
      "url": "http://place.map.kakao.com/11345413",
      "region": "경기도"
    },
    {
      "lat": 37.51696817565673,
      "lng": 126.88581020252435,
      "title": "문래두산위브아파트",
      "description": "서울 영등포구 선유로9나길 8",
      "url": "http://place.map.kakao.com/11352500",
      "region": "서울특별시"
    },
    {
      "lat": 37.56618674409904,
      "lng": 127.05769500262785,
      "title": "답십리두산위브아파트",
      "description": "서울 동대문구 황물로15길 25",
      "url": "http://place.map.kakao.com/8947549",
      "region": "서울특별시"
    },
    {
      "lat": 37.57159835155525,
      "lng": 127.05337841766884,
      "title": "래미안위브아파트",
      "description": "서울 동대문구 답십리로 130",
      "url": "http://place.map.kakao.com/15274985",
      "region": "서울특별시"
    },
    {
      "lat": 37.556604559879396,
      "lng": 127.03175580342338,
      "title": "행당두산위브아파트",
      "description": "서울 성동구 행당로8길 8",
      "url": "http://place.map.kakao.com/11360805",
      "region": "서울특별시"
    },
    {
      "lat": 37.555967012809646,
      "lng": 127.02231794121602,
      "title": "신금호두산위브아파트",
      "description": "서울 성동구 행당로 27",
      "url": "http://place.map.kakao.com/11091642",
      "region": "서울특별시"
    },
    {
      "lat": 37.57342847813521,
      "lng": 127.03621512375923,
      "title": "용두두산위브아파트",
      "description": "서울 동대문구 정릉천동로 16",
      "url": "http://place.map.kakao.com/11093302",
      "region": "서울특별시"
    },
    {
      "lat": 37.50048854604295,
      "lng": 127.14111298075895,
      "title": "송파두산위브아파트",
      "description": "서울 송파구 성내천로 103",
      "url": "http://place.map.kakao.com/1533648628",
      "region": "서울특별시"
    },
    {
      "lat": 37.4939059358199,
      "lng": 126.85975994640118,
      "title": "개봉역두산위브더프레스티지아파트 (2026년11월예정)",
      "description": "서울 구로구 개봉동 199-4",
      "url": "http://place.map.kakao.com/949181031",
      "region": "서울특별시"
    },
    {
      "lat": 37.48876812130899,
      "lng": 126.86572847801078,
      "title": "두산위브아파트",
      "description": "경기 광명시 사성로 91",
      "url": "http://place.map.kakao.com/11083962",
      "region": "경기도"
    },
    {
      "lat": 37.471717137009186,
      "lng": 126.8548081305491,
      "title": "광명아크포레자이위브아파트",
      "description": "경기 광명시 새터로 44-7",
      "url": "http://place.map.kakao.com/2033867660",
      "region": "경기도"
    },
    {
      "lat": 37.7320241822879,
      "lng": 127.05033402210248,
      "title": "의정부역센트럴자이앤위브캐슬아파트",
      "description": "경기 의정부시 경의로 132",
      "url": "http://place.map.kakao.com/90116118",
      "region": "경기도"
    },
    {
      "lat": 37.5354908579713,
      "lng": 126.957733098097,
      "title": "용산두산위브아파트 (예정)",
      "description": "서울 용산구 원효로41길 29",
      "url": "http://place.map.kakao.com/1205585931",
      "region": "서울특별시"
    },
    {
      "lat": 37.54692410332956,
      "lng": 126.92436354621799,
      "title": "상수두산위브아파트",
      "description": "서울 마포구 독막로18길 5",
      "url": "http://place.map.kakao.com/11091641",
      "region": "서울특별시"
    },
    {
      "lat": 37.58025977972987,
      "lng": 126.91722925003752,
      "title": "DMC두산위브아파트",
      "description": "서울 서대문구 증가로 200-8",
      "url": "http://place.map.kakao.com/11088044",
      "region": "서울특별시"
    },
    {
      "lat": 37.58401417061534,
      "lng": 126.90631554606256,
      "title": "두산위브아파트",
      "description": "서울 은평구 증산서길 79",
      "url": "http://place.map.kakao.com/11363351",
      "region": "서울특별시"
    },
    {
      "lat": 37.57917701046549,
      "lng": 126.93165783430692,
      "title": "두산위브아파트",
      "description": "서울 서대문구 모래내로 309",
      "url": "http://place.map.kakao.com/11250653",
      "region": "서울특별시"
    },
    {
      "lat": 37.5911643197092,
      "lng": 126.907296191454,
      "title": "새절역두산위브트레지움아파트",
      "description": "서울 은평구 증산로17길 53",
      "url": "http://place.map.kakao.com/822043978",
      "region": "서울특별시"
    },
    {
      "lat": 37.59876948545684,
      "lng": 126.90716672319512,
      "title": "은평신사두산위브2차아파트",
      "description": "서울 은평구 가좌로12길 15",
      "url": "http://place.map.kakao.com/11981482",
      "region": "서울특별시"
    },
    {
      "lat": 37.599939612242984,
      "lng": 126.90570219975105,
      "title": "은평신사두산위브1차아파트",
      "description": "서울 은평구 갈현로1길 36",
      "url": "http://place.map.kakao.com/11273809",
      "region": "서울특별시"
    },
    {
      "lat": 37.597956447697285,
      "lng": 126.94562325230285,
      "title": "북한산두산위브1차아파트",
      "description": "서울 서대문구 홍은중앙로3길 9",
      "url": "http://place.map.kakao.com/1649893660",
      "region": "서울특별시"
    },
    {
      "lat": 37.60921355301897,
      "lng": 126.89713636230672,
      "title": "DMC두산위브더퍼스트아파트",
      "description": "경기 고양시 덕양구 향기5로 66",
      "url": "http://place.map.kakao.com/573694247",
      "region": "경기도"
    },
    {
      "lat": 37.59968147364637,
      "lng": 126.94482252026701,
      "title": "북한산두산위브2차아파트",
      "description": "서울 서대문구 홍은중앙로1길 100",
      "url": "http://place.map.kakao.com/599022135",
      "region": "서울특별시"
    },
    {
      "lat": 37.566880761203535,
      "lng": 127.01706462301266,
      "title": "청계천두산위브더제니스아파트",
      "description": "서울 중구 다산로46길 17",
      "url": "http://place.map.kakao.com/1394841849",
      "region": "서울특별시"
    },
    {
      "lat": 37.6052027584231,
      "lng": 127.039396955809,
      "title": "월곡두산위브아파트(222-1)",
      "description": "서울 성북구 오패산로 46",
      "url": "http://place.map.kakao.com/1200690218",
      "region": "서울특별시"
    },
    {
      "lat": 37.45004317317138,
      "lng": 127.13385871148397,
      "title": "가천대역두산위브아파트",
      "description": "경기 성남시 수정구 태평로 65",
      "url": "http://place.map.kakao.com/1969280834",
      "region": "경기도"
    },
    {
      "lat": 37.26253660340381,
      "lng": 127.0414329763251,
      "title": "매탄위브하늘채아파트",
      "description": "경기 수원시 영통구 효원로 363",
      "url": "http://place.map.kakao.com/11387756",
      "region": "경기도"
    },
    {
      "lat": 37.288410019171465,
      "lng": 127.00056386090763,
      "title": "화서위브하늘채아파트",
      "description": "경기 수원시 팔달구 수성로244번길 25",
      "url": "http://place.map.kakao.com/11172390",
      "region": "경기도"
    },
    {
      "lat": 37.28047608043342,
      "lng": 127.05127212620965,
      "title": "광교두산위브아파트",
      "description": "경기 수원시 영통구 광교중앙로 55",
      "url": "http://place.map.kakao.com/848740996",
      "region": "경기도"
    },
    {
      "lat": 37.294078312797666,
      "lng": 127.01568214823226,
      "title": "두산위브더센트럴수원아파트 (2028년09월예정)",
      "description": "경기 수원시 장안구 영화동 93-6",
      "url": "http://place.map.kakao.com/83614128",
      "region": "경기도"
    },
    {
      "lat": 37.4554147256923,
      "lng": 127.164104024376,
      "title": "두산위브아파트",
      "description": "경기 성남시 중원구 은행로 13",
      "url": "http://place.map.kakao.com/12803695",
      "region": "경기도"
    },
    {
      "lat": 37.369518947561765,
      "lng": 127.10749714783351,
      "title": "위브제니스아파트",
      "description": "경기 성남시 분당구 정자일로232번길 25",
      "url": "http://place.map.kakao.com/7924115",
      "region": "경기도"
    },
    {
      "lat": 37.35533884682503,
      "lng": 127.10520593457827,
      "title": "청솔마을분당두산위브아파트",
      "description": "경기 성남시 분당구 정자일로 55",
      "url": "http://place.map.kakao.com/8534950",
      "region": "경기도"
    },
    {
      "lat": 37.694255397155224,
      "lng": 126.76274641643994,
      "title": "일산두산위브더제니스아파트",
      "description": "경기 고양시 일산서구 일현로 97-11",
      "url": "http://place.map.kakao.com/11540198",
      "region": "경기도"
    },
    {
      "lat": 37.62545818306876,
      "lng": 126.81557552219472,
      "title": "대곡역두산위브아파트",
      "description": "경기 고양시 덕양구 호수로 6",
      "url": "http://place.map.kakao.com/1439078665",
      "region": "경기도"
    },
    {
      "lat": 37.668762079052776,
      "lng": 126.7958699270052,
      "title": "숲속마을6단지두산위브아파트",
      "description": "경기 고양시 일산동구 숲속마을로 68",
      "url": "http://place.map.kakao.com/11538999",
      "region": "경기도"
    },
    {
      "lat": 37.665991806891384,
      "lng": 126.79862942902864,
      "title": "숲속마을2단지두산위브아파트",
      "description": "경기 고양시 일산동구 숲속마을1로 55",
      "url": "http://place.map.kakao.com/8123370",
      "region": "경기도"
    },
    {
      "lat": 37.60875136730252,
      "lng": 126.89613243558517,
      "title": "DMC두산위브더퍼스트아파트 다목적운동장",
      "description": "경기 고양시 덕양구 향기5로 66",
      "url": "http://place.map.kakao.com/1817260269",
      "region": "경기도"
    },
    {
      "lat": 37.283784530913806,
      "lng": 127.15002175372679,
      "title": "용인동백두산위브더제니스아파트",
      "description": "경기 용인시 기흥구 동백죽전대로 507",
      "url": "http://place.map.kakao.com/1180246530",
      "region": "경기도"
    },
    {
      "lat": 37.239597209545565,
      "lng": 127.16766399098435,
      "title": "용인행정타운두산위브2단지아파트",
      "description": "경기 용인시 처인구 지삼로590번길 9",
      "url": "http://place.map.kakao.com/13720523",
      "region": "경기도"
    },
    {
      "lat": 37.2786796873301,
      "lng": 127.150383721682,
      "title": "동백호수공원두산위브더제니스아파트",
      "description": "경기 용인시 기흥구 동백죽전대로 455-11",
      "url": "http://place.map.kakao.com/99354836",
      "region": "경기도"
    },
    {
      "lat": 37.30489912655046,
      "lng": 127.08745360588975,
      "title": "만현마을8단지두산위브아파트",
      "description": "경기 용인시 수지구 만현로 127",
      "url": "http://place.map.kakao.com/10340978",
      "region": "경기도"
    },
    {
      "lat": 37.24205811686504,
      "lng": 127.16627643346789,
      "title": "두산위브더제니스센트럴용인아파트 (2027년03월예정)",
      "description": "경기 용인시 처인구 삼가동 174",
      "url": "http://place.map.kakao.com/260808615",
      "region": "경기도"
    },
    {
      "lat": 37.23936800346787,
      "lng": 127.16980025536498,
      "title": "용인행정타운두산위브3단지아파트",
      "description": "경기 용인시 처인구 지삼로590번길 29",
      "url": "http://place.map.kakao.com/13720519",
      "region": "경기도"
    },
    {
      "lat": 37.238344255604176,
      "lng": 127.16545798119483,
      "title": "용인행정타운두산위브1단지아파트",
      "description": "경기 용인시 처인구 지삼로590번길 24",
      "url": "http://place.map.kakao.com/13720514",
      "region": "경기도"
    },
    {
      "lat": 37.5098063901773,
      "lng": 126.772601468623,
      "title": "두산위브트레지움2단지아파트",
      "description": "경기 부천시 원미구 도약로 206",
      "url": "http://place.map.kakao.com/11313535",
      "region": "경기도"
    },
    {
      "lat": 37.511611739562845,
      "lng": 126.76875488120706,
      "title": "부천두산위브트레지움1단지아파트",
      "description": "경기 부천시 원미구 수도로 18",
      "url": "http://place.map.kakao.com/11294876",
      "region": "경기도"
    },
    {
      "lat": 37.49746741996802,
      "lng": 126.77891740030847,
      "title": "위브더스테이트8단지아파트",
      "description": "경기 부천시 원미구 신흥로 150-1",
      "url": "http://place.map.kakao.com/12735792",
      "region": "경기도"
    },
    {
      "lat": 37.498720976127736,
      "lng": 126.77857444221848,
      "title": "위브더스테이트6단지아파트",
      "description": "경기 부천시 원미구 신흥로 170-1",
      "url": "http://place.map.kakao.com/12458696",
      "region": "경기도"
    },
    {
      "lat": 37.5106795039047,
      "lng": 126.771223457001,
      "title": "부천위브트레지움3단지아파트",
      "description": "경기 부천시 원미구 도약로 199",
      "url": "http://place.map.kakao.com/15188690",
      "region": "경기도"
    },
    {
      "lat": 37.50103718328234,
      "lng": 126.77794786411991,
      "title": "위브더스테이트2단지아파트",
      "description": "경기 부천시 원미구 신흥로 190-1",
      "url": "http://place.map.kakao.com/11331535",
      "region": "경기도"
    },
    {
      "lat": 37.51803700166816,
      "lng": 126.73699228574975,
      "title": "두산위브더센트럴부평아파트 (2028년04월예정)",
      "description": "인천 부평구 후정동로 5",
      "url": "http://place.map.kakao.com/286295339",
      "region": "인천광역시"
    },
    {
      "lat": 37.50272467279704,
      "lng": 126.73306511945081,
      "title": "두산위브&수자인부평더퍼스트아파트 (2028년09월예정)",
      "description": "인천 부평구 부개동 13-5",
      "url": "http://place.map.kakao.com/184193492",
      "region": "인천광역시"
    },
    {
      "lat": 37.30203300923313,
      "lng": 126.9044873064197,
      "title": "반월역두산위브더센트럴아파트",
      "description": "경기 안산시 상록구 건지미길 49",
      "url": "http://place.map.kakao.com/327610216",
      "region": "경기도"
    },
    {
      "lat": 37.32634954255662,
      "lng": 126.80385841922941,
      "title": "안산초지두산위브아파트",
      "description": "경기 안산시 단원구 원선1로 38",
      "url": "http://place.map.kakao.com/22135476",
      "region": "경기도"
    },
    {
      "lat": 37.336564217608505,
      "lng": 126.77531394375545,
      "title": "안산신길두산위브아파트",
      "description": "경기 안산시 단원구 새뿔길 42",
      "url": "http://place.map.kakao.com/8276162",
      "region": "경기도"
    },
    {
      "lat": 37.4124724168334,
      "lng": 126.915751485363,
      "title": "두산위브더아티움아파트",
      "description": "경기 안양시 만안구 예술공원로 51",
      "url": "http://place.map.kakao.com/334335575",
      "region": "경기도"
    },
    {
      "lat": 37.36725655933846,
      "lng": 126.95356153689961,
      "title": "평촌두산위브리버뷰아파트",
      "description": "경기 안양시 동안구 엘에스로45번길 30",
      "url": "http://place.map.kakao.com/822221890",
      "region": "경기도"
    },
    {
      "lat": 37.3672693563805,
      "lng": 126.951766576554,
      "title": "평촌두산위브더프라임아파트",
      "description": "경기 안양시 동안구 흥안대로58번길 14",
      "url": "http://place.map.kakao.com/1060961203",
      "region": "경기도"
    },
    {
      "lat": 37.390909285715836,
      "lng": 126.97836798345486,
      "title": "두산위브인덕원센트럴1단지아파트",
      "description": "경기 의왕시 평의길 48",
      "url": "http://place.map.kakao.com/11093301",
      "region": "경기도"
    },
    {
      "lat": 37.39129877925167,
      "lng": 126.97979074069225,
      "title": "두산위브인덕원센트럴2단지아파트",
      "description": "경기 의왕시 흥안대로434번길 86",
      "url": "http://place.map.kakao.com/11083964",
      "region": "경기도"
    },
    {
      "lat": 37.57843685138856,
      "lng": 127.21556515895864,
      "title": "덕소두산위브아파트",
      "description": "경기 남양주시 와부읍 덕소로 180",
      "url": "http://place.map.kakao.com/11301467",
      "region": "경기도"
    },
    {
      "lat": 37.66863954626364,
      "lng": 127.30408278891231,
      "title": "남양주두산위브트레지움아파트",
      "description": "경기 남양주시 화도읍 비룡로 186",
      "url": "http://place.map.kakao.com/234537312",
      "region": "경기도"
    },
    {
      "lat": 37.69666132571305,
      "lng": 127.19477723667099,
      "title": "남양주오남두산위브아파트",
      "description": "경기 남양주시 오남읍 양지로 261-11",
      "url": "http://place.map.kakao.com/11088041",
      "region": "경기도"
    },
    {
      "lat": 37.6406378544668,
      "lng": 127.29563751822056,
      "title": "남양주녹촌두산위브아파트",
      "description": "경기 남양주시 화도읍 녹촌로 87-29",
      "url": "http://place.map.kakao.com/11091638",
      "region": "경기도"
    },
    {
      "lat": 37.65628002879285,
      "lng": 127.24304377838205,
      "title": "호평두산위브파크아파트",
      "description": "경기 남양주시 호평로 33",
      "url": "http://place.map.kakao.com/11084660",
      "region": "경기도"
    },
    {
      "lat": 37.64368103280278,
      "lng": 127.29792024465742,
      "title": "신창현두산위브아파트",
      "description": "경기 남양주시 화도읍 녹촌로 51",
      "url": "http://place.map.kakao.com/11121360",
      "region": "경기도"
    },
    {
      "lat": 37.6534302116955,
      "lng": 127.24129613581,
      "title": "두산위브더제니스평내호평역N49아파트 (2029년05월예정)",
      "description": "경기 남양주시 평내동 660-6",
      "url": "http://place.map.kakao.com/106023214",
      "region": "경기도"
    },
    {
      "lat": 37.23684051889156,
      "lng": 127.06719795954464,
      "title": "반달마을1단지두산위브아파트",
      "description": "경기 화성시 영통로50번길 27",
      "url": "http://place.map.kakao.com/11254221",
      "region": "경기도"
    },
    {
      "lat": 37.20335331781675,
      "lng": 127.05437173232664,
      "title": "동탄푸른마을두산위브아파트",
      "description": "경기 화성시 동탄공원로 21-40",
      "url": "http://place.map.kakao.com/11336486",
      "region": "경기도"
    },
    {
      "lat": 37.23491728298611,
      "lng": 127.06468546508799,
      "title": "반달마을2단지두산위브아파트",
      "description": "경기 화성시 영통로50번길 14",
      "url": "http://place.map.kakao.com/11340359",
      "region": "경기도"
    },
    {
      "lat": 37.236071127797,
      "lng": 127.063753343346,
      "title": "반달마을4단지두산위브트레지움아파트",
      "description": "경기 화성시 영통로50번길 15",
      "url": "http://place.map.kakao.com/11623953",
      "region": "경기도"
    },
    {
      "lat": 37.7317038727584,
      "lng": 127.05141149543,
      "title": "의정부역센트럴자이앤위브캐슬아파트 커뮤니티센터",
      "description": "경기 의정부시 경의로 132",
      "url": "http://place.map.kakao.com/205692481",
      "region": "경기도"
    },
    {
      "lat": 37.7304789122404,
      "lng": 127.05058027359,
      "title": "의정부역센트럴자이앤위브캐슬아파트 1단지 상가C동",
      "description": "경기 의정부시 경의로132번길 63",
      "url": "http://place.map.kakao.com/150649614",
      "region": "경기도"
    },
    {
      "lat": 37.45088493301337,
      "lng": 126.78857046879118,
      "title": "대야역두산위브더파크아파트",
      "description": "경기 시흥시 서해안로 1645",
      "url": "http://place.map.kakao.com/1492680736",
      "region": "경기도"
    },
    {
      "lat": 37.85935721872151,
      "lng": 126.79263633265255,
      "title": "두산위브아파트",
      "description": "경기 파주시 문산읍 우계로 470",
      "url": "http://place.map.kakao.com/11083963",
      "region": "경기도"
    },
    {
      "lat": 37.728458289966845,
      "lng": 126.74472808837082,
      "title": "해솔마을1단지두산위브아파트",
      "description": "경기 파주시 해솔로 85",
      "url": "http://place.map.kakao.com/23820908",
      "region": "경기도"
    },
    {
      "lat": 37.52895776019889,
      "lng": 126.71964459830399,
      "title": "두산위브더제니스센트럴계양아파트 (2027년05월예정)",
      "description": "인천 계양구 작전동 786-81",
      "url": "http://place.map.kakao.com/477567405",
      "region": "인천광역시"
    },
    {
      "lat": 37.51281265938433,
      "lng": 126.69981372732335,
      "title": "부평두산위브더파크아파트",
      "description": "인천 부평구 마곡로 14",
      "url": "http://place.map.kakao.com/236988962",
      "region": "인천광역시"
    },
    {
      "lat": 37.41523018520408,
      "lng": 127.24054570981339,
      "title": "두산위브광주센트럴파크아파트",
      "description": "경기 광주시 회안대로 689",
      "url": "http://place.map.kakao.com/1593652125",
      "region": "경기도"
    },
    {
      "lat": 37.53800640051344,
      "lng": 127.21262570506917,
      "title": "하남두산위브파크아파트",
      "description": "경기 하남시 하남대로 747",
      "url": "http://place.map.kakao.com/11369335",
      "region": "경기도"
    },
    {
      "lat": 37.4782881262287,
      "lng": 126.648861690251,
      "title": "인천두산위브더센트럴아파트 (2026년01월예정)",
      "description": "인천 동구 송림동 42-215",
      "url": "http://place.map.kakao.com/1704237811",
      "region": "인천광역시"
    },
    {
      "lat": 37.463150543251764,
      "lng": 126.65259478067993,
      "title": "두산위브더제니스센트럴여의아파트",
      "description": "인천 미추홀구 독정이로 82",
      "url": "http://place.map.kakao.com/1306842990",
      "region": "인천광역시"
    },
    {
      "lat": 37.4749885021237,
      "lng": 126.66782002022435,
      "title": "두산위브더센트럴도화아파트 (2028년11월예정)",
      "description": "인천 미추홀구 도화동 53-28",
      "url": "http://place.map.kakao.com/1683399597",
      "region": "인천광역시"
    },
    {
      "lat": 37.442218061343354,
      "lng": 126.65559121376572,
      "title": "인천학익두산위브아파트",
      "description": "인천 미추홀구 노적산로 43",
      "url": "http://place.map.kakao.com/11263175",
      "region": "인천광역시"
    },
    {
      "lat": 37.49005388025397,
      "lng": 126.6861561356819,
      "title": "가좌두산위브트레지움아파트",
      "description": "인천 서구 여우재로 136",
      "url": "http://place.map.kakao.com/1041703431",
      "region": "인천광역시"
    },
    {
      "lat": 37.4778729757382,
      "lng": 126.648024759382,
      "title": "인천두산위브더센트럴아파트 103동",
      "description": "인천 동구 송림동 42-215",
      "url": "http://place.map.kakao.com/583453209",
      "region": "인천광역시"
    },
    {
      "lat": 37.49067257303362,
      "lng": 126.71745161959826,
      "title": "부평두산위브아파트",
      "description": "인천 부평구 경원대로1344번길 8",
      "url": "http://place.map.kakao.com/11345550",
      "region": "인천광역시"
    },
    {
      "lat": 37.73260428601424,
      "lng": 126.48614713932723,
      "title": "두산위브센트럴파크강화아파트 (2028년03월예정)",
      "description": "인천 강화군 선원면 창리 501",
      "url": "http://place.map.kakao.com/2019306909",
      "region": "인천광역시"
    },
    {
      "lat": 35.13204777644376,
      "lng": 129.0576535920101,
      "title": "두산위브더제니스하버시티아파트",
      "description": "부산 동구 범일로 21",
      "url": "http://place.map.kakao.com/2033962781",
      "region": "부산광역시"
    },
    {
      "lat": 35.1318254021576,
      "lng": 129.05514584298217,
      "title": "두산위브범일뉴타운아파트",
      "description": "부산 동구 성남일로 5",
      "url": "http://place.map.kakao.com/11337517",
      "region": "부산광역시"
    },
    {
      "lat": 35.13595863544903,
      "lng": 129.06391611974655,
      "title": "두산위브포세이돈II아파트",
      "description": "부산 동구 자성로116번길 2",
      "url": "http://place.map.kakao.com/10280130",
      "region": "부산광역시"
    },
    {
      "lat": 35.12686210803297,
      "lng": 129.07584656369926,
      "title": "두산위브더제니스오션시티아파트 (2026년01월예정)",
      "description": "부산 남구 우암로 168-1",
      "url": "http://place.map.kakao.com/1685638369",
      "region": "부산광역시"
    },
    {
      "lat": 35.144277698160934,
      "lng": 129.06246296754645,
      "title": "범천두산위브센티움아파트",
      "description": "부산 부산진구 자유평화로37번길 67",
      "url": "http://place.map.kakao.com/11325846",
      "region": "부산광역시"
    },
    {
      "lat": 35.083470918235,
      "lng": 128.970285141401,
      "title": "두산위브더제니스센트럴사하아파트",
      "description": "부산 사하구 장림로 199",
      "url": "http://place.map.kakao.com/1211023321",
      "region": "부산광역시"
    },
    {
      "lat": 35.1725013874388,
      "lng": 129.067945500894,
      "title": "두산위브더제니스센트럴양정아파트",
      "description": "부산 부산진구 거제대로 42",
      "url": "http://place.map.kakao.com/1042389997",
      "region": "부산광역시"
    },
    {
      "lat": 35.247444623663256,
      "lng": 129.0905608876182,
      "title": "구서역두산위브포세이돈아파트",
      "description": "부산 금정구 금정로233번길 63",
      "url": "http://place.map.kakao.com/663871196",
      "region": "부산광역시"
    },
    {
      "lat": 35.17402646055173,
      "lng": 129.13990948378762,
      "title": "해운대센텀두산위브아파트",
      "description": "부산 해운대구 해운대로383번길 93",
      "url": "http://place.map.kakao.com/17736046",
      "region": "부산광역시"
    },
    {
      "lat": 35.156626853045715,
      "lng": 129.1450704525124,
      "title": "해운대두산위브더제니스아파트",
      "description": "부산 해운대구 마린시티2로 33",
      "url": "http://place.map.kakao.com/11205376",
      "region": "부산광역시"
    },
    {
      "lat": 35.1548858141255,
      "lng": 129.14466483612185,
      "title": "마린시티두산위브포세이돈아파트",
      "description": "부산 해운대구 마린시티1로 91",
      "url": "http://place.map.kakao.com/7844738",
      "region": "부산광역시"
    },
    {
      "lat": 35.15966999245576,
      "lng": 129.15091452835338,
      "title": "해운대동백두산위브더제니스아파트",
      "description": "부산 해운대구 해운대로 540",
      "url": "http://place.map.kakao.com/27337170",
      "region": "부산광역시"
    },
    {
      "lat": 35.1604843191761,
      "lng": 129.1784061221363,
      "title": "해운대힐스테이트위브아파트",
      "description": "부산 해운대구 좌동순환로433번길 30",
      "url": "http://place.map.kakao.com/11506231",
      "region": "부산광역시"
    },
    {
      "lat": 35.1643332004258,
      "lng": 129.16714998932886,
      "title": "해운대중동두산위브아파트",
      "description": "부산 해운대구 해운대해변로 349-25",
      "url": "http://place.map.kakao.com/11362046",
      "region": "부산광역시"
    },
    {
      "lat": 35.0831292536515,
      "lng": 128.897763556486,
      "title": "명지두산위브포세이돈아파트",
      "description": "부산 강서구 명지오션시티11로 22",
      "url": "http://place.map.kakao.com/12898957",
      "region": "부산광역시"
    },
    {
      "lat": 35.320953534543406,
      "lng": 129.19593789233613,
      "title": "정관두산위브더테라스아파트",
      "description": "부산 기장군 정관읍 산단6로 33-8",
      "url": "http://place.map.kakao.com/370978521",
      "region": "부산광역시"
    },
    {
      "lat": 35.86824188491924,
      "lng": 128.62186083485358,
      "title": "신천두산위브아파트",
      "description": "대구 동구 국채보상로 829",
      "url": "http://place.map.kakao.com/11338106",
      "region": "대구광역시"
    },
    {
      "lat": 35.86015808140643,
      "lng": 128.62896246161034,
      "title": "수성범어두산위브더제니스아파트",
      "description": "대구 수성구 달구벌대로 2435",
      "url": "http://place.map.kakao.com/11091644",
      "region": "대구광역시"
    },
    {
      "lat": 35.89848164852369,
      "lng": 128.54328390662167,
      "title": "두산위브2001아파트",
      "description": "대구 북구 매천로2길 19",
      "url": "http://place.map.kakao.com/11093303",
      "region": "대구광역시"
    },
    {
      "lat": 35.84445251764279,
      "lng": 128.54579132086295,
      "title": "성당두산위브아파트",
      "description": "대구 달서구 당산로 82",
      "url": "http://place.map.kakao.com/10361999",
      "region": "대구광역시"
    },
    {
      "lat": 35.84004174702208,
      "lng": 128.53761548326997,
      "title": "두산위브더제니스센트럴달서아파트",
      "description": "대구 달서구 와룡로 80",
      "url": "http://place.map.kakao.com/831270250",
      "region": "대구광역시"
    },
    {
      "lat": 35.9545427402477,
      "lng": 128.557639498848,
      "title": "두산위브더제니스센트럴시티아파트 (2027년06월예정)",
      "description": "대구 북구 학정동 732-1",
      "url": "http://place.map.kakao.com/864632999",
      "region": "대구광역시"
    },
    {
      "lat": 35.159510944318875,
      "lng": 126.92394304725934,
      "title": "두산위브아파트",
      "description": "광주 동구 무등로 374",
      "url": "http://place.map.kakao.com/7846783",
      "region": "광주광역시"
    },
    {
      "lat": 35.157677223909346,
      "lng": 126.92481839701117,
      "title": "푸른길두산위브아파트",
      "description": "광주 동구 계림로30번길 15",
      "url": "http://place.map.kakao.com/1545542424",
      "region": "광주광역시"
    },
    {
      "lat": 35.15650997974453,
      "lng": 126.92199334209147,
      "title": "두산위브더파크아파트",
      "description": "광주 동구 중앙로290번길 16",
      "url": "http://place.map.kakao.com/1562675537",
      "region": "광주광역시"
    },
    {
      "lat": 35.1452681914329,
      "lng": 126.897734531844,
      "title": "두산위브트레지움월산아파트 (2026년12월예정)",
      "description": "광주 남구 월산동 242-1",
      "url": "http://place.map.kakao.com/822614990",
      "region": "광주광역시"
    },
    {
      "lat": 35.1604803884448,
      "lng": 126.923279207104,
      "title": "두산위브아파트 상가",
      "description": "광주 동구 무등로 374",
      "url": "http://place.map.kakao.com/26449970",
      "region": "광주광역시"
    },
    {
      "lat": 35.2211043276803,
      "lng": 126.848418255314,
      "title": "두산위브더첨단아파트 (예정)",
      "description": "광주 광산구 쌍암동 677-4",
      "url": "http://place.map.kakao.com/423321267",
      "region": "광주광역시"
    },
    {
      "lat": 35.54841835520661,
      "lng": 129.31011916896298,
      "title": "울산두산위브더제니스아파트",
      "description": "울산 남구 신정로203번길 61",
      "url": "http://place.map.kakao.com/8275731",
      "region": "울산광역시"
    },
    {
      "lat": 35.528681458463915,
      "lng": 129.3292242263476,
      "title": "울산번영로두산위브아파트",
      "description": "울산 남구 번영로 29",
      "url": "http://place.map.kakao.com/27276712",
      "region": "울산광역시"
    },
    {
      "lat": 35.55335248896766,
      "lng": 129.26646467149536,
      "title": "무거위브자이아파트",
      "description": "울산 남구 북부순환도로 35",
      "url": "http://place.map.kakao.com/13495596",
      "region": "울산광역시"
    },
    {
      "lat": 35.533183753193434,
      "lng": 129.3061832961572,
      "title": "울산문수로두산위브더제니스아파트",
      "description": "울산 남구 문수로 487",
      "url": "http://place.map.kakao.com/40001747",
      "region": "울산광역시"
    },
    {
      "lat": 35.63341597513314,
      "lng": 129.35398587746755,
      "title": "울산두산위브더센트럴아파트 (예정)",
      "description": "울산 북구 마동로 35",
      "url": "http://place.map.kakao.com/1394204942",
      "region": "울산광역시"
    },
    {
      "lat": 35.5688276025005,
      "lng": 129.11612238367442,
      "title": "서울산두산위브아파트",
      "description": "울산 울주군 언양읍 헌양길 202",
      "url": "http://place.map.kakao.com/11334841",
      "region": "울산광역시"
    },
    {
      "lat": 37.88871223422494,
      "lng": 127.75569489253719,
      "title": "춘천두산위브아파트",
      "description": "강원특별자치도 춘천시 동면 삭주로 231",
      "url": "http://place.map.kakao.com/11093299",
      "region": "강원특별자치도"
    },
    {
      "lat": 37.8896541996743,
      "lng": 127.755477159669,
      "title": "두산위브아파트 상가",
      "description": "강원특별자치도 춘천시 동면 만천로 240",
      "url": "http://place.map.kakao.com/23788040",
      "region": "강원특별자치도"
    },
    {
      "lat": 37.29115039789057,
      "lng": 127.91794770605517,
      "title": "남원주두산위브아파트",
      "description": "강원특별자치도 원주시 흥업면 북원로 1600",
      "url": "http://place.map.kakao.com/11329852",
      "region": "강원특별자치도"
    },
    {
      "lat": 37.3448775702387,
      "lng": 127.95209826939322,
      "title": "두산위브더제니스센트럴원주아파트 (2026년03월예정)",
      "description": "강원특별자치도 원주시 원동 129-1",
      "url": "http://place.map.kakao.com/580357418",
      "region": "강원특별자치도"
    },
    {
      "lat": 37.446358834209654,
      "lng": 129.1796257016187,
      "title": "삼척센트럴두산위브아파트",
      "description": "강원특별자치도 삼척시 동해대로 4098",
      "url": "http://place.map.kakao.com/1990282259",
      "region": "강원특별자치도"
    },
    {
      "lat": 36.643032202042185,
      "lng": 127.42919147864897,
      "title": "두산위브지웰시티2차아파트",
      "description": "충북 청주시 흥덕구 대농로 55",
      "url": "http://place.map.kakao.com/17398523",
      "region": "충청북도"
    },
    {
      "lat": 36.63710385581706,
      "lng": 127.47790307658555,
      "title": "두산위브더제니스아파트",
      "description": "충북 청주시 서원구 사운로 93",
      "url": "http://place.map.kakao.com/11332926",
      "region": "충청북도"
    },
    {
      "lat": 36.6479576666059,
      "lng": 127.468443310911,
      "title": "두산위브더제니스청주센트럴파크아파트 (2029년02월예정)",
      "description": "충북 청주시 흥덕구 1순환로501번길 15",
      "url": "http://place.map.kakao.com/1291640551",
      "region": "충청북도"
    },
    {
      "lat": 36.78227731762728,
      "lng": 127.14234046888899,
      "title": "천안용곡두산위브아파트",
      "description": "충남 천안시 동남구 풍세로 801",
      "url": "http://place.map.kakao.com/1482462406",
      "region": "충청남도"
    },
    {
      "lat": 36.7790317331577,
      "lng": 127.153041471412,
      "title": "천안행정타운두산위브센트럴아파트",
      "description": "충남 천안시 동남구 청당5로 20",
      "url": "http://place.map.kakao.com/412129454",
      "region": "충청남도"
    },
    {
      "lat": 36.779270553765606,
      "lng": 127.16120944983612,
      "title": "천안행정타운두산위브더파크아파트",
      "description": "충남 천안시 동남구 청당3길 147",
      "url": "http://place.map.kakao.com/27149023",
      "region": "충청남도"
    },
    {
      "lat": 36.799911134032726,
      "lng": 127.1281380323777,
      "title": "쌍용두산위브아파트",
      "description": "충남 천안시 서북구 미라5길 12",
      "url": "http://place.map.kakao.com/12007488",
      "region": "충청남도"
    },
    {
      "lat": 36.7774990143736,
      "lng": 127.147994201895,
      "title": "두산위브더제니스센트럴천안아파트 (2029년01월예정)",
      "description": "충남 천안시 동남구 청당동 310-6",
      "url": "http://place.map.kakao.com/1397200547",
      "region": "충청남도"
    },
    {
      "lat": 36.77223683300077,
      "lng": 127.16809238874227,
      "title": "행정타운두산위브트레지움아파트 (예정)",
      "description": "충남 천안시 동남구 삼룡동 378-2",
      "url": "http://place.map.kakao.com/1865897984",
      "region": "충청남도"
    },
    {
      "lat": 35.84143891620962,
      "lng": 127.15362636684344,
      "title": "위브어울림아파트",
      "description": "전북특별자치도 전주시 덕진구 견훤로 333",
      "url": "http://place.map.kakao.com/10678865",
      "region": "전북특별자치도"
    },
    {
      "lat": 35.93411785604694,
      "lng": 126.9662827304213,
      "title": "익산두산위브트레지움아파트 (예정)",
      "description": "전북특별자치도 익산시 서동로18길 66",
      "url": "http://place.map.kakao.com/1147964240",
      "region": "전북특별자치도"
    },
    {
      "lat": 34.97546299089172,
      "lng": 127.52449162227224,
      "title": "순천두산위브1단지아파트",
      "description": "전남 순천시 왕지3길 55",
      "url": "http://place.map.kakao.com/12612371",
      "region": "전라남도"
    },
    {
      "lat": 34.973960314855695,
      "lng": 127.52346691319673,
      "title": "순천두산위브2단지아파트",
      "description": "전남 순천시 왕지5길 9-26",
      "url": "http://place.map.kakao.com/12612369",
      "region": "전라남도"
    },
    {
      "lat": 36.07478843372583,
      "lng": 129.38154661899551,
      "title": "두산위브더제니스아파트",
      "description": "경북 포항시 북구 새천년대로 1235",
      "url": "http://place.map.kakao.com/11344524",
      "region": "경상북도"
    },
    {
      "lat": 36.0750117835889,
      "lng": 129.382865199163,
      "title": "두산위브더제니스아파트 상가",
      "description": "경북 포항시 북구 새천년대로 1235",
      "url": "http://place.map.kakao.com/2035363059",
      "region": "경상북도"
    },
    {
      "lat": 35.78196152894687,
      "lng": 129.3219634900556,
      "title": "경주두산위브아파트",
      "description": "경북 경주시 진현로 23",
      "url": "http://place.map.kakao.com/27221274",
      "region": "경상북도"
    },
    {
      "lat": 35.86940808042824,
      "lng": 129.22282470425603,
      "title": "경주두산위브트레지움아파트",
      "description": "경북 경주시 유림로 107",
      "url": "http://place.map.kakao.com/2091704572",
      "region": "경상북도"
    },
    {
      "lat": 36.112986167498,
      "lng": 128.350260109245,
      "title": "두산위브더제니스구미아파트 (2029년05월예정)",
      "description": "경북 구미시 광평동 227",
      "url": "http://place.map.kakao.com/47616126",
      "region": "경상북도"
    },
    {
      "lat": 36.98382572811944,
      "lng": 129.39339521954076,
      "title": "울진역센트럴두산위브아파트",
      "description": "경북 울진군 울진읍 토일2길 133",
      "url": "http://place.map.kakao.com/1742778466",
      "region": "경상북도"
    },
    {
      "lat": 35.253021489815545,
      "lng": 128.64467214542324,
      "title": "두산위브아파트",
      "description": "경남 창원시 의창구 도계로 135",
      "url": "http://place.map.kakao.com/11091639",
      "region": "경상남도"
    },
    {
      "lat": 35.2373054518545,
      "lng": 128.5879001823288,
      "title": "창원두산위브더센트럴아파트",
      "description": "경남 창원시 마산회원구 팔용로 89",
      "url": "http://place.map.kakao.com/1545884864",
      "region": "경상남도"
    },
    {
      "lat": 35.16034534097073,
      "lng": 128.68585582219663,
      "title": "경화두산위브아파트",
      "description": "경남 창원시 진해구 조천로 30",
      "url": "http://place.map.kakao.com/914194967",
      "region": "경상남도"
    },
    {
      "lat": 35.15476842150453,
      "lng": 128.67012116030082,
      "title": "창원메가시티자이앤위브아파트 (2028년12월예정)",
      "description": "경남 창원시 진해구 대야남로 49",
      "url": "http://place.map.kakao.com/356758044",
      "region": "경상남도"
    },
    {
      "lat": 35.220936593538084,
      "lng": 128.1490465624285,
      "title": "진주금산두산위브아파트",
      "description": "경남 진주시 금산면 중장로154번길 49",
      "url": "http://place.map.kakao.com/11346116",
      "region": "경상남도"
    },
    {
      "lat": 34.89106568968012,
      "lng": 128.64155898675682,
      "title": "거제신현두산위브아파트",
      "description": "경남 거제시 수양로 435",
      "url": "http://place.map.kakao.com/11338048",
      "region": "경상남도"
    },
    {
      "lat": 35.23446998677578,
      "lng": 128.83549233211403,
      "title": "김해센텀두산위브더제니스아파트",
      "description": "경남 김해시 주촌면 천곡로 26",
      "url": "http://place.map.kakao.com/701442129",
      "region": "경상남도"
    },
    {
      "lat": 35.23632759062916,
      "lng": 128.84513428914602,
      "title": "김해주촌두산위브더제니스아파트",
      "description": "경남 김해시 주촌면 주선로 34",
      "url": "http://place.map.kakao.com/302289859",
      "region": "경상남도"
    },
    {
      "lat": 35.26584855614591,
      "lng": 128.86079344320484,
      "title": "김해북부두산위브아파트",
      "description": "경남 김해시 김해대로 1784-27",
      "url": "http://place.map.kakao.com/11088042",
      "region": "경상남도"
    },
    {
      "lat": 35.20733348875588,
      "lng": 128.80406415725417,
      "title": "월산마을5단지두산위브아파트",
      "description": "경남 김해시 월산로 112-55",
      "url": "http://place.map.kakao.com/11320152",
      "region": "경상남도"
    },
    {
      "lat": 34.9077621939986,
      "lng": 128.686146532526,
      "title": "거제두산위브더포레스트아파트",
      "description": "경남 거제시 연초면 송정리 산 15-6",
      "url": "http://place.map.kakao.com/1014277614",
      "region": "경상남도"
    },
    {
      "lat": 35.41663015026161,
      "lng": 129.06741039934224,
      "title": "두산위브더제니스양산아파트",
      "description": "경남 양산시 상북면 석계로 15",
      "url": "http://place.map.kakao.com/360562899",
      "region": "경상남도"
    },
    {
      "lat": 35.37330968174225,
      "lng": 129.16228632919768,
      "title": "양산두산위브1차아파트",
      "description": "경남 양산시 신덕계3길 36",
      "url": "http://place.map.kakao.com/1871462539",
      "region": "경상남도"
    },
    {
      "lat": 35.375503678894695,
      "lng": 129.16204672217881,
      "title": "양산두산위브2차1단지아파트",
      "description": "경남 양산시 신덕계8길 37",
      "url": "http://place.map.kakao.com/202241439",
      "region": "경상남도"
    },
    {
      "lat": 35.3760010324488,
      "lng": 129.16053947706305,
      "title": "양산두산위브2차2단지아파트",
      "description": "경남 양산시 신덕계8길 40",
      "url": "http://place.map.kakao.com/1065346373",
      "region": "경상남도"
    },
    {
      "lat": 35.4187023784433,
      "lng": 129.068694090257,
      "title": "두산위브더제니스양산2차아파트 (예정)",
      "description": "경남 양산시 상북면 석계리 1167-1",
      "url": "http://place.map.kakao.com/202839465",
      "region": "경상남도"
    }
  ]
}