{
  "pins": [
    {
      "lat": 37.48129992722748,
      "lng": 127.09500098752727,
      "title": "강남더샵포레스트아파트",
      "description": "서울 강남구 광평로34길 35",
      "url": "http://place.map.kakao.com/25765713",
      "region": "서울특별시"
    },
    {
      "lat": 37.503960353364455,
      "lng": 127.0570408917096,
      "title": "포스코더샵아파트",
      "description": "서울 강남구 삼성로 417",
      "url": "http://place.map.kakao.com/10889270",
      "region": "서울특별시"
    },
    {
      "lat": 37.4848300737937,
      "lng": 127.057251347174,
      "title": "개포더샵트리에아파트",
      "description": "서울 강남구 개포로 311",
      "url": "http://place.map.kakao.com/1035430313",
      "region": "서울특별시"
    },
    {
      "lat": 37.5130866893324,
      "lng": 127.055016392631,
      "title": "삼성포스코더샵아파트",
      "description": "서울 강남구 봉은사로 510",
      "url": "http://place.map.kakao.com/11348046",
      "region": "서울특별시"
    },
    {
      "lat": 37.473209315637774,
      "lng": 127.05237797384518,
      "title": "더샵그린아파트",
      "description": "서울 강남구 논현로4길 28",
      "url": "http://place.map.kakao.com/11320354",
      "region": "서울특별시"
    },
    {
      "lat": 37.50416892586843,
      "lng": 127.08729193786907,
      "title": "잠실포스코더샵아파트",
      "description": "서울 송파구 백제고분로 188",
      "url": "http://place.map.kakao.com/11169716",
      "region": "서울특별시"
    },
    {
      "lat": 37.483973020490595,
      "lng": 127.01851786096024,
      "title": "더샵서초아파트",
      "description": "서울 서초구 서초중앙로2길 21",
      "url": "http://place.map.kakao.com/7836059",
      "region": "서울특별시"
    },
    {
      "lat": 37.45200020112929,
      "lng": 127.06378357970566,
      "title": "서초더샵포레아파트",
      "description": "서울 서초구 헌릉로8길 58",
      "url": "http://place.map.kakao.com/22961575",
      "region": "서울특별시"
    },
    {
      "lat": 37.53780427161658,
      "lng": 127.07263111759445,
      "title": "더샵스타시티아파트",
      "description": "서울 광진구 아차산로 262",
      "url": "http://place.map.kakao.com/7837099",
      "region": "서울특별시"
    },
    {
      "lat": 37.5002063393952,
      "lng": 127.117408815627,
      "title": "잠실더샵루벤아파트",
      "description": "서울 송파구 송이로12길 11",
      "url": "http://place.map.kakao.com/1488474360",
      "region": "서울특별시"
    },
    {
      "lat": 37.5317251231737,
      "lng": 127.146533392185,
      "title": "더샵둔촌포레아파트",
      "description": "서울 강동구 동남로49길 57",
      "url": "http://place.map.kakao.com/1426524983",
      "region": "서울특별시"
    },
    {
      "lat": 37.5391183365225,
      "lng": 127.128286807959,
      "title": "더샵강동센트럴시티아파트",
      "description": "서울 강동구 진황도로 14",
      "url": "http://place.map.kakao.com/1166270074",
      "region": "서울특별시"
    },
    {
      "lat": 37.52969257175612,
      "lng": 127.1449873948622,
      "title": "더샵파크솔레이유아파트",
      "description": "서울 강동구 진황도로61길 25-23",
      "url": "http://place.map.kakao.com/1603733276",
      "region": "서울특별시"
    },
    {
      "lat": 37.55463959834838,
      "lng": 127.18485981286385,
      "title": "미사강변더샵센트럴포레아파트",
      "description": "경기 하남시 미사강변대로 55",
      "url": "http://place.map.kakao.com/27157850",
      "region": "경기도"
    },
    {
      "lat": 37.59758109421354,
      "lng": 127.01034534548032,
      "title": "돈암동더샵아파트",
      "description": "서울 성북구 아리랑로5길 85",
      "url": "http://place.map.kakao.com/11089032",
      "region": "서울특별시"
    },
    {
      "lat": 37.62440974659213,
      "lng": 127.11163981339661,
      "title": "갈매더샵나인힐스아파트",
      "description": "경기 구리시 갈매순환로 10",
      "url": "http://place.map.kakao.com/24973956",
      "region": "경기도"
    },
    {
      "lat": 37.5958887497309,
      "lng": 127.092024600308,
      "title": "더샵퍼스트월드아파트 (2029년08월예정)",
      "description": "서울 중랑구 상봉동 83-1",
      "url": "http://place.map.kakao.com/1742794919",
      "region": "서울특별시"
    },
    {
      "lat": 37.4887916639123,
      "lng": 126.863471505985,
      "title": "광명자이더샵포레나아파트",
      "description": "경기 광명시 사성로75번길 1",
      "url": "http://place.map.kakao.com/1426798345",
      "region": "경기도"
    },
    {
      "lat": 37.5079272085936,
      "lng": 126.91671652887287,
      "title": "더샵파크프레스티지아파트",
      "description": "서울 영등포구 가마산로79길 37",
      "url": "http://place.map.kakao.com/624249675",
      "region": "서울특별시"
    },
    {
      "lat": 37.49924730936975,
      "lng": 126.90304925283452,
      "title": "더샵신풍역아파트 (예정)",
      "description": "서울 영등포구 신길동 413-8",
      "url": "http://place.map.kakao.com/506398372",
      "region": "서울특별시"
    },
    {
      "lat": 37.502457934616935,
      "lng": 126.94204985010734,
      "title": "상도더샵1차아파트",
      "description": "서울 동작구 장승배기로4길 9",
      "url": "http://place.map.kakao.com/11232606",
      "region": "서울특별시"
    },
    {
      "lat": 37.502591062556576,
      "lng": 126.94345323773082,
      "title": "상도더샵2차아파트",
      "description": "서울 동작구 장승배기로10길 100",
      "url": "http://place.map.kakao.com/21720865",
      "region": "서울특별시"
    },
    {
      "lat": 37.5123757451588,
      "lng": 126.951004882928,
      "title": "노들역포스코더샵리버포레아파트 (예정)",
      "description": "서울 동작구 노량진로 226",
      "url": "http://place.map.kakao.com/1973927412",
      "region": "서울특별시"
    },
    {
      "lat": 37.48256219650968,
      "lng": 127.00965560871826,
      "title": "서초더샵오데움1단지아파트",
      "description": "서울 서초구 효령로46길 21",
      "url": "http://place.map.kakao.com/7836060",
      "region": "서울특별시"
    },
    {
      "lat": 37.516979991353715,
      "lng": 127.1022787862143,
      "title": "잠실더샵스타파크아파트",
      "description": "서울 송파구 올림픽로35가길 10",
      "url": "http://place.map.kakao.com/19146918",
      "region": "서울특별시"
    },
    {
      "lat": 37.518001668968786,
      "lng": 127.10440677525776,
      "title": "더샵스타리버아파트",
      "description": "서울 송파구 올림픽로35길 93",
      "url": "http://place.map.kakao.com/19146946",
      "region": "서울특별시"
    },
    {
      "lat": 37.5070222470418,
      "lng": 126.916217631432,
      "title": "더샵파크프레스티지아파트 305동",
      "description": "서울 영등포구 가마산로79길 37",
      "url": "http://place.map.kakao.com/422850528",
      "region": "서울특별시"
    },
    {
      "lat": 37.72302495479102,
      "lng": 127.05699068249459,
      "title": "장암더샵포레스트아파트",
      "description": "경기 의정부시 장곡로226번길 83",
      "url": "http://place.map.kakao.com/1437797888",
      "region": "경기도"
    },
    {
      "lat": 37.65128510553915,
      "lng": 127.12521253768817,
      "title": "남양주별내더샵아파트",
      "description": "경기 남양주시 별내3로 115",
      "url": "http://place.map.kakao.com/11934726",
      "region": "경기도"
    },
    {
      "lat": 37.7238334462925,
      "lng": 127.10503644262,
      "title": "리듬시티더샵아파트",
      "description": "경기 의정부시 서광로 54",
      "url": "http://place.map.kakao.com/1488031001",
      "region": "경기도"
    },
    {
      "lat": 37.5568092147101,
      "lng": 127.040204434832,
      "title": "서울숲더샵아파트",
      "description": "서울 성동구 왕십리로 241",
      "url": "http://place.map.kakao.com/13096949",
      "region": "서울특별시"
    },
    {
      "lat": 37.56017888093015,
      "lng": 126.972067049122,
      "title": "순화더샵아파트",
      "description": "서울 중구 칠패로 27",
      "url": "http://place.map.kakao.com/11097224",
      "region": "서울특별시"
    },
    {
      "lat": 37.54441450895384,
      "lng": 126.94898218163739,
      "title": "공덕더샵아파트",
      "description": "서울 마포구 백범로 170",
      "url": "http://place.map.kakao.com/26938194",
      "region": "서울특별시"
    },
    {
      "lat": 37.59331001854205,
      "lng": 126.941809627805,
      "title": "북한산더샵아파트",
      "description": "서울 서대문구 통일로 510",
      "url": "http://place.map.kakao.com/26870751",
      "region": "서울특별시"
    },
    {
      "lat": 37.48186302974959,
      "lng": 127.00945652913519,
      "title": "더샵오데움2단지아파트",
      "description": "서울 서초구 반포대로7길 45",
      "url": "http://place.map.kakao.com/7836133",
      "region": "서울특별시"
    },
    {
      "lat": 37.47585985791547,
      "lng": 127.14307448433908,
      "title": "송파와이즈더샵아파트",
      "description": "서울 송파구 위례광장로 270",
      "url": "http://place.map.kakao.com/22676113",
      "region": "서울특별시"
    },
    {
      "lat": 37.499620279274,
      "lng": 127.130667580843,
      "title": "더샵송파루미스타아파트 (2026년05월예정)",
      "description": "서울 송파구 가락동 161-3",
      "url": "http://place.map.kakao.com/1426930948",
      "region": "서울특별시"
    },
    {
      "lat": 37.271484058549206,
      "lng": 127.06183605146443,
      "title": "광교더샵아파트",
      "description": "경기 수원시 영통구 광교호수로 15",
      "url": "http://place.map.kakao.com/26920964",
      "region": "경기도"
    },
    {
      "lat": 37.29820027105679,
      "lng": 127.01771767772333,
      "title": "더샵광교산퍼스트파크아파트",
      "description": "경기 수원시 장안구 송정로 190",
      "url": "http://place.map.kakao.com/1169138000",
      "region": "경기도"
    },
    {
      "lat": 37.38312159938936,
      "lng": 127.09500458272207,
      "title": "더샵판교퍼스트파크아파트",
      "description": "경기 성남시 분당구 판교백현로 38",
      "url": "http://place.map.kakao.com/679284729",
      "region": "경기도"
    },
    {
      "lat": 37.36471177186735,
      "lng": 127.07217270297213,
      "title": "더샵판교포레스트12단지아파트",
      "description": "경기 성남시 분당구 판교대장로5길 30",
      "url": "http://place.map.kakao.com/1036656690",
      "region": "경기도"
    },
    {
      "lat": 37.367985842374225,
      "lng": 127.07404983214116,
      "title": "더샵판교포레스트11단지아파트",
      "description": "경기 성남시 분당구 판교대장로5길 58",
      "url": "http://place.map.kakao.com/2114040614",
      "region": "경기도"
    },
    {
      "lat": 37.35512030783063,
      "lng": 127.11722761014741,
      "title": "더샵분당파크리버아파트",
      "description": "경기 성남시 분당구 돌마로 171",
      "url": "http://place.map.kakao.com/621814042",
      "region": "경기도"
    },
    {
      "lat": 37.339321039355596,
      "lng": 127.1169502698449,
      "title": "더샵분당센트로아파트 (예정)",
      "description": "경기 성남시 분당구 미금로 66",
      "url": "http://place.map.kakao.com/1193778323",
      "region": "경기도"
    },
    {
      "lat": 37.36098292360398,
      "lng": 127.1051596302164,
      "title": "분당더샵스타파크아파트",
      "description": "경기 성남시 분당구 정자일로 121",
      "url": "http://place.map.kakao.com/7827454",
      "region": "경기도"
    },
    {
      "lat": 37.36759716016172,
      "lng": 127.11128527024574,
      "title": "더샵분당티에르원아파트 (2027년10월예정)",
      "description": "경기 성남시 분당구 느티로 70",
      "url": "http://place.map.kakao.com/1046284011",
      "region": "경기도"
    },
    {
      "lat": 37.66454336555,
      "lng": 126.83673439405,
      "title": "고양더샵포레나아파트 (2028년02월예정)",
      "description": "경기 고양시 덕양구 주교동 559-1",
      "url": "http://place.map.kakao.com/1037923304",
      "region": "경기도"
    },
    {
      "lat": 37.6719937426169,
      "lng": 126.793714227161,
      "title": "더샵일산퍼스트월드1단지아파트",
      "description": "경기 고양시 일산동구 고풍로 161",
      "url": "http://place.map.kakao.com/1187492401",
      "region": "경기도"
    },
    {
      "lat": 37.6635482099285,
      "lng": 126.79437002209559,
      "title": "더샵일산퍼스트월드3단지아파트",
      "description": "경기 고양시 일산동구 고풍로 55",
      "url": "http://place.map.kakao.com/1187189676",
      "region": "경기도"
    },
    {
      "lat": 37.66863582529278,
      "lng": 126.79270341831668,
      "title": "더샵일산퍼스트월드2단지아파트",
      "description": "경기 고양시 일산동구 풍동 767",
      "url": "http://place.map.kakao.com/629886156",
      "region": "경기도"
    },
    {
      "lat": 37.27233185656429,
      "lng": 127.11867309078931,
      "title": "기흥역더샵아파트",
      "description": "경기 용인시 기흥구 기흥역로58번길 78",
      "url": "http://place.map.kakao.com/27320636",
      "region": "경기도"
    },
    {
      "lat": 37.33321633644651,
      "lng": 127.09164679852412,
      "title": "더샵동천이스트포레아파트",
      "description": "경기 용인시 수지구 수풍로 89",
      "url": "http://place.map.kakao.com/1783434333",
      "region": "경기도"
    },
    {
      "lat": 37.307660761012684,
      "lng": 127.08871679012367,
      "title": "더샵수지포레아파트",
      "description": "경기 용인시 수지구 만현로67번길 20",
      "url": "http://place.map.kakao.com/1104256032",
      "region": "경기도"
    },
    {
      "lat": 37.28182069007487,
      "lng": 127.11030411164268,
      "title": "기흥더샵프라임뷰아파트",
      "description": "경기 용인시 기흥구 구갈로 71-18",
      "url": "http://place.map.kakao.com/19922930",
      "region": "경기도"
    },
    {
      "lat": 37.311026072033115,
      "lng": 127.11022155018753,
      "title": "더샵보정애비뉴1단지아파트",
      "description": "경기 용인시 기흥구 용구대로2518번길 15",
      "url": "http://place.map.kakao.com/11373869",
      "region": "경기도"
    },
    {
      "lat": 37.338459086931834,
      "lng": 127.08611351244436,
      "title": "더샵동천포레스트아파트",
      "description": "경기 용인시 수지구 동천로178번길 4",
      "url": "http://place.map.kakao.com/27021010",
      "region": "경기도"
    },
    {
      "lat": 37.30869785511524,
      "lng": 127.10918826544612,
      "title": "더샵보정애비뉴2단지아파트",
      "description": "경기 용인시 기흥구 신촌로47번길 11",
      "url": "http://place.map.kakao.com/12777778",
      "region": "경기도"
    },
    {
      "lat": 37.51579845771826,
      "lng": 126.7029745891708,
      "title": "부평캐슬앤더샵퍼스트아파트",
      "description": "인천 부평구 산청로 60",
      "url": "http://place.map.kakao.com/110917425",
      "region": "인천광역시"
    },
    {
      "lat": 37.47714750102216,
      "lng": 126.6984652521082,
      "title": "더샵부평센트럴시티아파트",
      "description": "인천 부평구 열우물로 90",
      "url": "http://place.map.kakao.com/637873028",
      "region": "인천광역시"
    },
    {
      "lat": 37.46297401354067,
      "lng": 126.70535505087939,
      "title": "포레나더샵인천시청역아파트 (예정)",
      "description": "인천 남동구 간석동 311-1",
      "url": "http://place.map.kakao.com/2066854587",
      "region": "인천광역시"
    },
    {
      "lat": 37.39837853467386,
      "lng": 126.92782664735974,
      "title": "안양역푸르지오더샵아파트",
      "description": "경기 안양시 만안구 안양천서로 249",
      "url": "http://place.map.kakao.com/1139759536",
      "region": "경기도"
    },
    {
      "lat": 37.37643341837563,
      "lng": 126.95815671064967,
      "title": "평촌더샵아이파크아파트",
      "description": "경기 안양시 동안구 경수대로610번길 36",
      "url": "http://place.map.kakao.com/1694812166",
      "region": "경기도"
    },
    {
      "lat": 37.400214929132424,
      "lng": 126.96330030916509,
      "title": "평촌더샵센트럴시티아파트",
      "description": "경기 안양시 동안구 시민대로327번길 55",
      "url": "http://place.map.kakao.com/22373932",
      "region": "경기도"
    },
    {
      "lat": 37.3724017765301,
      "lng": 126.954485256193,
      "title": "평촌어바인퍼스트더샵아파트",
      "description": "경기 안양시 동안구 흥안대로81번길 66",
      "url": "http://place.map.kakao.com/1678431267",
      "region": "경기도"
    },
    {
      "lat": 37.73724603006152,
      "lng": 127.1988315548351,
      "title": "더샵남양주퍼스트시티아파트",
      "description": "경기 남양주시 진접읍 부평로48번길 140",
      "url": "http://place.map.kakao.com/1035404483",
      "region": "경기도"
    },
    {
      "lat": 37.57389838310346,
      "lng": 127.18599753450147,
      "title": "미사강변더샵리버포레아파트",
      "description": "경기 하남시 미사강변북로 65",
      "url": "http://place.map.kakao.com/25015635",
      "region": "경기도"
    },
    {
      "lat": 37.173973656076996,
      "lng": 127.10910444698523,
      "title": "동탄더샵레이크에듀타운아파트",
      "description": "경기 화성시 동탄대로10길 20",
      "url": "http://place.map.kakao.com/597224146",
      "region": "경기도"
    },
    {
      "lat": 37.19870029511129,
      "lng": 127.09999827837832,
      "title": "동탄역시범더샵센트럴시티아파트",
      "description": "경기 화성시 동탄대로시범길 19",
      "url": "http://place.map.kakao.com/19512369",
      "region": "경기도"
    },
    {
      "lat": 37.188961277052854,
      "lng": 127.08927150581134,
      "title": "동탄역더샵센트럴시티2차아파트",
      "description": "경기 화성시 동탄감배산로 19",
      "url": "http://place.map.kakao.com/400948203",
      "region": "경기도"
    },
    {
      "lat": 37.20308138570533,
      "lng": 127.057786936416,
      "title": "푸른마을포스코더샵2차아파트",
      "description": "경기 화성시 동탄공원로 21-12",
      "url": "http://place.map.kakao.com/11264133",
      "region": "경기도"
    },
    {
      "lat": 37.19949252596264,
      "lng": 127.06947620702118,
      "title": "시범다은마을동탄포스코더샵아파트",
      "description": "경기 화성시 동탄문화센터로 39",
      "url": "http://place.map.kakao.com/11506014",
      "region": "경기도"
    },
    {
      "lat": 37.02272514668497,
      "lng": 127.0739392771612,
      "title": "지제역더샵센트럴시티아파트",
      "description": "경기 평택시 지제동삭1로 41",
      "url": "http://place.map.kakao.com/642504357",
      "region": "경기도"
    },
    {
      "lat": 37.00144166326775,
      "lng": 127.124550035575,
      "title": "소사벌더샵마스터뷰아파트",
      "description": "경기 평택시 죽백4로 16",
      "url": "http://place.map.kakao.com/2102654905",
      "region": "경기도"
    },
    {
      "lat": 37.022111648987234,
      "lng": 127.08824431741206,
      "title": "더샵지제역센트럴파크1단지아파트",
      "description": "경기 평택시 지제동삭1로 163",
      "url": "http://place.map.kakao.com/906307572",
      "region": "경기도"
    },
    {
      "lat": 37.01848174101006,
      "lng": 127.09227427376054,
      "title": "더샵지제역센트럴파크2단지아파트",
      "description": "경기 평택시 지제동삭2로 177",
      "url": "http://place.map.kakao.com/1921584752",
      "region": "경기도"
    },
    {
      "lat": 37.07198958611618,
      "lng": 127.06135771671579,
      "title": "평택더샵아파트",
      "description": "경기 평택시 서정북로 99",
      "url": "http://place.map.kakao.com/11305202",
      "region": "경기도"
    },
    {
      "lat": 37.022067228886144,
      "lng": 127.09330573791736,
      "title": "더샵지제역센트럴파크3단지아파트",
      "description": "경기 평택시 동삭1로22번길 40",
      "url": "http://place.map.kakao.com/1395066344",
      "region": "경기도"
    },
    {
      "lat": 37.74175207408747,
      "lng": 127.03190848103594,
      "title": "의정부더샵파크에비뉴아파트",
      "description": "경기 의정부시 호국로1162번길 24",
      "url": "http://place.map.kakao.com/1600531589",
      "region": "경기도"
    },
    {
      "lat": 37.7425845035377,
      "lng": 127.04087653319,
      "title": "더샵의정부역링크시티아파트 (2027년10월예정)",
      "description": "경기 의정부시 의정부동 248-3",
      "url": "http://place.map.kakao.com/183899278",
      "region": "경기도"
    },
    {
      "lat": 37.530944721340134,
      "lng": 126.6385074349464,
      "title": "청라더샵레이크파크아파트",
      "description": "인천 서구 크리스탈로74번길 26",
      "url": "http://place.map.kakao.com/11521605",
      "region": "인천광역시"
    },
    {
      "lat": 37.361144056782265,
      "lng": 126.96409822207468,
      "title": "의왕더샵캐슬아파트",
      "description": "경기 의왕시 어내들로 5",
      "url": "http://place.map.kakao.com/1578081949",
      "region": "경기도"
    },
    {
      "lat": 37.373149374201155,
      "lng": 127.23083182252044,
      "title": "더샵오포센트리체아파트",
      "description": "경기 광주시 태봉로 225",
      "url": "http://place.map.kakao.com/749551743",
      "region": "경기도"
    },
    {
      "lat": 37.3767119267611,
      "lng": 127.22902611437424,
      "title": "더샵오포센트럴포레아파트",
      "description": "경기 광주시 태성1로 16",
      "url": "http://place.map.kakao.com/1212800865",
      "region": "경기도"
    },
    {
      "lat": 37.191650358996235,
      "lng": 127.06360672861136,
      "title": "서동탄역더샵파크시티아파트",
      "description": "경기 오산시 문시로 183-19",
      "url": "http://place.map.kakao.com/1630460734",
      "region": "경기도"
    },
    {
      "lat": 37.154575585807315,
      "lng": 127.04589605440208,
      "title": "더샵오산엘리포레아파트",
      "description": "경기 오산시 여들동로 26",
      "url": "http://place.map.kakao.com/1488197749",
      "region": "경기도"
    },
    {
      "lat": 37.16772252319069,
      "lng": 127.06584865473606,
      "title": "더샵오산센트럴아파트",
      "description": "경기 오산시 내삼미로 65",
      "url": "http://place.map.kakao.com/1686276207",
      "region": "경기도"
    },
    {
      "lat": 37.1482570756005,
      "lng": 127.06056942034,
      "title": "더샵오산역아크시티아파트(민간임대) (2029년06월예정)",
      "description": "경기 오산시 가수동 453",
      "url": "http://place.map.kakao.com/2027759280",
      "region": "경기도"
    },
    {
      "lat": 36.87987078305356,
      "lng": 127.15739268538478,
      "title": "더샵천안레이크마크아파트",
      "description": "충남 천안시 서북구 직산읍 직산로 18-33",
      "url": "http://place.map.kakao.com/1515093305",
      "region": "충청남도"
    },
    {
      "lat": 37.3619673002509,
      "lng": 126.966152285091,
      "title": "의왕더샵캐슬아파트 후문상가",
      "description": "경기 의왕시 어내들로 5",
      "url": "http://place.map.kakao.com/615877921",
      "region": "경기도"
    },
    {
      "lat": 37.543685578316264,
      "lng": 127.20539423097226,
      "title": "더샵하남에디피스아파트",
      "description": "경기 하남시 하남대로 830",
      "url": "http://place.map.kakao.com/1048985400",
      "region": "경기도"
    },
    {
      "lat": 37.50265434476425,
      "lng": 127.16493002817084,
      "title": "더샵포웰시티아파트",
      "description": "경기 하남시 감일백제로 70",
      "url": "http://place.map.kakao.com/316324037",
      "region": "경기도"
    },
    {
      "lat": 37.54489893228779,
      "lng": 127.20400233128957,
      "title": "하남더샵센트럴뷰아파트",
      "description": "경기 하남시 하남대로 856",
      "url": "http://place.map.kakao.com/24889762",
      "region": "경기도"
    },
    {
      "lat": 37.5737722117517,
      "lng": 127.184870871444,
      "title": "미사강변더샵리버포레 상가",
      "description": "경기 하남시 미사강변북로 65-1",
      "url": "http://place.map.kakao.com/2009434071",
      "region": "경기도"
    },
    {
      "lat": 37.72421242419407,
      "lng": 127.05701427826506,
      "title": "장암더샵포레스트아파트 108동",
      "description": "경기 의정부시 장곡로226번길 83",
      "url": "http://place.map.kakao.com/78445630",
      "region": "경기도"
    },
    {
      "lat": 37.498689430384026,
      "lng": 127.48573253089401,
      "title": "더샵양평리버포레아파트",
      "description": "경기 양평군 양평읍 마유산로 33",
      "url": "http://place.map.kakao.com/1488168297",
      "region": "경기도"
    },
    {
      "lat": 37.887259969132,
      "lng": 127.725328302906,
      "title": "더샵소양스타리버아파트 105동",
      "description": "강원특별자치도 춘천시 모수물길 57",
      "url": "http://place.map.kakao.com/1039373677",
      "region": "강원특별자치도"
    },
    {
      "lat": 37.469169181063606,
      "lng": 126.66346084782181,
      "title": "더샵인천스카이타워2단지아파트",
      "description": "인천 미추홀구 숙골로87번길 5",
      "url": "http://place.map.kakao.com/2024300948",
      "region": "인천광역시"
    },
    {
      "lat": 37.47009307099287,
      "lng": 126.6651727144239,
      "title": "더샵인천스카이타워1단지아파트",
      "description": "인천 미추홀구 숙골로88번길 12",
      "url": "http://place.map.kakao.com/181971980",
      "region": "인천광역시"
    },
    {
      "lat": 37.45611215942516,
      "lng": 126.69098170072785,
      "title": "더샵아르테아파트",
      "description": "인천 미추홀구 구월로8번길 18-62",
      "url": "http://place.map.kakao.com/1671694409",
      "region": "인천광역시"
    },
    {
      "lat": 37.41255742800424,
      "lng": 126.61162848412329,
      "title": "더샵송도마리나베이아파트",
      "description": "인천 연수구 랜드마크로 160",
      "url": "http://place.map.kakao.com/774658070",
      "region": "인천광역시"
    },
    {
      "lat": 37.45239125617425,
      "lng": 126.69281206961817,
      "title": "주안캐슬앤더샵에듀포레아파트",
      "description": "인천 미추홀구 경원대로780번길 22",
      "url": "http://place.map.kakao.com/1373708724",
      "region": "인천광역시"
    },
    {
      "lat": 37.4157283216907,
      "lng": 126.620296639676,
      "title": "랜드마크시티센트럴더샵아파트",
      "description": "인천 연수구 랜드마크로 68",
      "url": "http://place.map.kakao.com/1691774419",
      "region": "인천광역시"
    },
    {
      "lat": 37.39107646386233,
      "lng": 126.64824126085333,
      "title": "송도더샵퍼스트월드아파트",
      "description": "인천 연수구 해돋이로 107",
      "url": "http://place.map.kakao.com/11124846",
      "region": "인천광역시"
    },
    {
      "lat": 37.371823726180004,
      "lng": 126.65320830049707,
      "title": "송도더샵그린스퀘어아파트",
      "description": "인천 연수구 송도문화로28번길 81",
      "url": "http://place.map.kakao.com/13133330",
      "region": "인천광역시"
    },
    {
      "lat": 37.39831003491,
      "lng": 126.629140462337,
      "title": "더샵송도아크베이아파트",
      "description": "인천 연수구 워터프런트로 150",
      "url": "http://place.map.kakao.com/1488095590",
      "region": "인천광역시"
    },
    {
      "lat": 37.37387126925766,
      "lng": 126.65120732829415,
      "title": "송도더샵센트럴시티아파트",
      "description": "인천 연수구 송도국제대로 261",
      "url": "http://place.map.kakao.com/26920965",
      "region": "인천광역시"
    },
    {
      "lat": 37.3860581814242,
      "lng": 126.66291578082,
      "title": "송도아메리칸타운더샵아파트",
      "description": "인천 연수구 송도과학로27번길 27",
      "url": "http://place.map.kakao.com/554446966",
      "region": "인천광역시"
    },
    {
      "lat": 37.3852028635332,
      "lng": 126.636665412367,
      "title": "송도더샵파크애비뉴아파트",
      "description": "인천 연수구 컨벤시아대로252번길 10",
      "url": "http://place.map.kakao.com/2107563652",
      "region": "인천광역시"
    },
    {
      "lat": 37.39818888009611,
      "lng": 126.6463558731674,
      "title": "송도더샵하버뷰13단지아파트",
      "description": "인천 연수구 아트센터대로97번길 75",
      "url": "http://place.map.kakao.com/11310214",
      "region": "인천광역시"
    },
    {
      "lat": 37.385139593461936,
      "lng": 126.62848154628651,
      "title": "더샵송도프라임뷰20BL아파트",
      "description": "인천 연수구 인천타워대로231번길 97",
      "url": "http://place.map.kakao.com/1280467129",
      "region": "인천광역시"
    },
    {
      "lat": 37.38676337939259,
      "lng": 126.63083127664514,
      "title": "더샵송도센터니얼아파트",
      "description": "인천 연수구 컨벤시아대로274번길 62",
      "url": "http://place.map.kakao.com/1545699429",
      "region": "인천광역시"
    },
    {
      "lat": 37.39673543166136,
      "lng": 126.63768939441741,
      "title": "더샵센트럴파크1차아파트",
      "description": "인천 연수구 센트럴로 232",
      "url": "http://place.map.kakao.com/11361943",
      "region": "인천광역시"
    },
    {
      "lat": 37.40192160055501,
      "lng": 126.64478877492967,
      "title": "더샵엑스포9단지아파트",
      "description": "인천 연수구 컨벤시아대로42번길 77",
      "url": "http://place.map.kakao.com/11732055",
      "region": "인천광역시"
    },
    {
      "lat": 37.3997221188005,
      "lng": 126.64806984660913,
      "title": "송도더샵그린애비뉴7단지아파트",
      "description": "인천 연수구 컨벤시아대로42번길 35",
      "url": "http://place.map.kakao.com/11886004",
      "region": "인천광역시"
    },
    {
      "lat": 37.389151738438585,
      "lng": 126.63862927171172,
      "title": "더샵송도센트럴파크3차아파트",
      "description": "인천 연수구 인천타워대로180번길 11",
      "url": "http://place.map.kakao.com/11344851",
      "region": "인천광역시"
    },
    {
      "lat": 37.404544630457394,
      "lng": 126.64454598404188,
      "title": "더샵엑스포6단지아파트",
      "description": "인천 연수구 컨벤시아대로42번길 96",
      "url": "http://place.map.kakao.com/13025371",
      "region": "인천광역시"
    },
    {
      "lat": 37.39451105389674,
      "lng": 126.64101573645314,
      "title": "더샵센트럴파크2차아파트",
      "description": "인천 연수구 센트럴로 194",
      "url": "http://place.map.kakao.com/11256332",
      "region": "인천광역시"
    },
    {
      "lat": 37.403080881908004,
      "lng": 126.64318402655596,
      "title": "더샵엑스포10단지아파트",
      "description": "인천 연수구 컨벤시아대로42번길 95",
      "url": "http://place.map.kakao.com/13025379",
      "region": "인천광역시"
    },
    {
      "lat": 37.38410186744123,
      "lng": 126.62999746501102,
      "title": "송도더샵마스터뷰21블록아파트",
      "description": "인천 연수구 컨벤시아대로274번길 55",
      "url": "http://place.map.kakao.com/19148002",
      "region": "인천광역시"
    },
    {
      "lat": 37.38616177686096,
      "lng": 126.63527641279275,
      "title": "송도더샵퍼스트파크F15블록아파트",
      "description": "인천 연수구 컨벤시아대로252번길 30",
      "url": "http://place.map.kakao.com/26314425",
      "region": "인천광역시"
    },
    {
      "lat": 37.39892749574212,
      "lng": 126.64149611177913,
      "title": "송도더샵16단지그린워크1차아파트",
      "description": "인천 연수구 아트센터대로97번길 30",
      "url": "http://place.map.kakao.com/15299211",
      "region": "인천광역시"
    },
    {
      "lat": 37.39776493206673,
      "lng": 126.64320019556672,
      "title": "송도더샵하버뷰II15단지아파트",
      "description": "인천 연수구 아트센터대로97번길 56",
      "url": "http://place.map.kakao.com/11521598",
      "region": "인천광역시"
    },
    {
      "lat": 37.400809216700424,
      "lng": 126.64641584139237,
      "title": "송도더샵8단지그린애비뉴아파트",
      "description": "인천 연수구 컨벤시아대로42번길 61",
      "url": "http://place.map.kakao.com/11886005",
      "region": "인천광역시"
    },
    {
      "lat": 37.3839632215804,
      "lng": 126.626878318805,
      "title": "더샵송도프라임뷰25BL아파트",
      "description": "인천 연수구 인천타워대로231번길 117",
      "url": "http://place.map.kakao.com/1355187454",
      "region": "인천광역시"
    },
    {
      "lat": 37.396462383332434,
      "lng": 126.64510364967184,
      "title": "송도더샵하버뷰14단지아파트",
      "description": "인천 연수구 아트센터대로97번길 76",
      "url": "http://place.map.kakao.com/11126599",
      "region": "인천광역시"
    },
    {
      "lat": 37.38208668033102,
      "lng": 126.63330551693674,
      "title": "송도더샵마스터뷰23블록아파트",
      "description": "인천 연수구 컨벤시아대로274번길 15",
      "url": "http://place.map.kakao.com/19148068",
      "region": "인천광역시"
    },
    {
      "lat": 37.38845726108489,
      "lng": 126.63197702621086,
      "title": "송도더샵퍼스트파크F13-1블록아파트",
      "description": "인천 연수구 컨벤시아대로252번길 70",
      "url": "http://place.map.kakao.com/26314417",
      "region": "인천광역시"
    },
    {
      "lat": 37.387333249916765,
      "lng": 126.63357581540421,
      "title": "송도더샵퍼스트파크F14블록아파트",
      "description": "인천 연수구 컨벤시아대로252번길 50",
      "url": "http://place.map.kakao.com/26314424",
      "region": "인천광역시"
    },
    {
      "lat": 37.38299897307363,
      "lng": 126.63200370346601,
      "title": "송도더샵마스터뷰22블록아파트",
      "description": "인천 연수구 컨벤시아대로274번길 35",
      "url": "http://place.map.kakao.com/19148022",
      "region": "인천광역시"
    },
    {
      "lat": 37.39870060208099,
      "lng": 126.63800067423529,
      "title": "송도더샵그린워크3차18블럭아파트",
      "description": "인천 연수구 컨벤시아대로130번길 100",
      "url": "http://place.map.kakao.com/20243052",
      "region": "인천광역시"
    },
    {
      "lat": 37.4758147242723,
      "lng": 126.697334426719,
      "title": "더샵부평센트럴시티아파트 상가 D동",
      "description": "인천 부평구 열우물로 90",
      "url": "http://place.map.kakao.com/1006415927",
      "region": "인천광역시"
    },
    {
      "lat": 37.5314764553715,
      "lng": 126.639439376477,
      "title": "청라더샵레이크파크아파트 상가",
      "description": "인천 서구 크리스탈로74번길 26",
      "url": "http://place.map.kakao.com/1296034597",
      "region": "인천광역시"
    },
    {
      "lat": 35.118987861770094,
      "lng": 129.0125432098911,
      "title": "대신더샵아파트",
      "description": "부산 서구 꽃마을로 48",
      "url": "http://place.map.kakao.com/26899671",
      "region": "부산광역시"
    },
    {
      "lat": 35.1180609504281,
      "lng": 129.012302146187,
      "title": "대신더샵아파트 상가",
      "description": "부산 서구 꽃마을로 48",
      "url": "http://place.map.kakao.com/221445390",
      "region": "부산광역시"
    },
    {
      "lat": 35.15147796542505,
      "lng": 129.0610351017917,
      "title": "서면더샵센트럴스타아파트",
      "description": "부산 부산진구 중앙대로666번길 50",
      "url": "http://place.map.kakao.com/19147012",
      "region": "부산광역시"
    },
    {
      "lat": 35.107399859480104,
      "lng": 128.9776054479993,
      "title": "더샵당리센트리체아파트 (2027년07월예정)",
      "description": "부산 사하구 제석로 96",
      "url": "http://place.map.kakao.com/1794957384",
      "region": "부산광역시"
    },
    {
      "lat": 35.1435682490455,
      "lng": 129.06274128272713,
      "title": "더샵골드III아파트",
      "description": "부산 부산진구 자유평화로37번길 51",
      "url": "http://place.map.kakao.com/27277830",
      "region": "부산광역시"
    },
    {
      "lat": 35.1254806998021,
      "lng": 128.974099264922,
      "title": "더샵리오몬트아파트 (2027년06월예정)",
      "description": "부산 사상구 엄궁동 132",
      "url": "http://place.map.kakao.com/1487896526",
      "region": "부산광역시"
    },
    {
      "lat": 35.1335107499892,
      "lng": 129.091467294031,
      "title": "더샵시티아파트",
      "description": "부산 남구 유엔평화로14번길 7",
      "url": "http://place.map.kakao.com/1015671229",
      "region": "부산광역시"
    },
    {
      "lat": 35.13612495059852,
      "lng": 129.08854593812333,
      "title": "더샵캐슬아파트",
      "description": "부산 남구 못골로53번길 12-6",
      "url": "http://place.map.kakao.com/975292537",
      "region": "부산광역시"
    },
    {
      "lat": 35.13449750473763,
      "lng": 129.08859540881457,
      "title": "더샵골드아파트",
      "description": "부산 남구 유엔평화로4번길 60",
      "url": "http://place.map.kakao.com/1418915108",
      "region": "부산광역시"
    },
    {
      "lat": 35.14156532921139,
      "lng": 129.1054065802158,
      "title": "더샵남천프레스티지아파트",
      "description": "부산 수영구 수영로 389",
      "url": "http://place.map.kakao.com/1619620472",
      "region": "부산광역시"
    },
    {
      "lat": 35.171373086266726,
      "lng": 129.0762160813434,
      "title": "양정자이더샵SKVIEW아파트",
      "description": "부산 부산진구 연수로 38",
      "url": "http://place.map.kakao.com/1287837027",
      "region": "부산광역시"
    },
    {
      "lat": 35.1735832985171,
      "lng": 129.08446959742375,
      "title": "연산더샵아파트",
      "description": "부산 연제구 연수로 130",
      "url": "http://place.map.kakao.com/227852188",
      "region": "부산광역시"
    },
    {
      "lat": 35.175310398219935,
      "lng": 129.07420895806473,
      "title": "더샵골드5아파트",
      "description": "부산 부산진구 중앙대로970번길 18",
      "url": "http://place.map.kakao.com/744252549",
      "region": "부산광역시"
    },
    {
      "lat": 35.18100650150785,
      "lng": 129.07663346073954,
      "title": "부산더샵시티애비뉴1차아파트",
      "description": "부산 연제구 시청로 6",
      "url": "http://place.map.kakao.com/19731967",
      "region": "부산광역시"
    },
    {
      "lat": 35.18122830822009,
      "lng": 129.07594321760396,
      "title": "부산더샵시티애비뉴2차아파트",
      "description": "부산 연제구 시청로 12",
      "url": "http://place.map.kakao.com/26257068",
      "region": "부산광역시"
    },
    {
      "lat": 35.215553535997294,
      "lng": 129.0800729157534,
      "title": "더샵동래아파트",
      "description": "부산 동래구 온천장로 38",
      "url": "http://place.map.kakao.com/685925423",
      "region": "부산광역시"
    },
    {
      "lat": 35.22234315299432,
      "lng": 129.0825150363353,
      "title": "더샵온천헤리티지아파트",
      "description": "부산 동래구 온천장로119번길 56",
      "url": "http://place.map.kakao.com/1303932973",
      "region": "부산광역시"
    },
    {
      "lat": 35.190960898141526,
      "lng": 129.09731910664217,
      "title": "더샵파크시티아파트",
      "description": "부산 연제구 안연로 33",
      "url": "http://place.map.kakao.com/18189018",
      "region": "부산광역시"
    },
    {
      "lat": 35.15063061334935,
      "lng": 129.11174056707344,
      "title": "광안더샵아파트",
      "description": "부산 수영구 수영로 506",
      "url": "http://place.map.kakao.com/26817714",
      "region": "부산광역시"
    },
    {
      "lat": 35.18130770327499,
      "lng": 129.07556985284558,
      "title": "부산더샵시티애비뉴2차아파트 203동",
      "description": "부산 연제구 시청로 12",
      "url": "http://place.map.kakao.com/26653329",
      "region": "부산광역시"
    },
    {
      "lat": 35.161002986241684,
      "lng": 129.16838607809967,
      "title": "해운대엘시티더샵아파트",
      "description": "부산 해운대구 달맞이길 30",
      "url": "http://place.map.kakao.com/27225844",
      "region": "부산광역시"
    },
    {
      "lat": 35.177781443698976,
      "lng": 129.12446107506776,
      "title": "더샵센텀스타아파트",
      "description": "부산 해운대구 센텀동로 123",
      "url": "http://place.map.kakao.com/11317385",
      "region": "부산광역시"
    },
    {
      "lat": 35.17821304217376,
      "lng": 129.12204889208465,
      "title": "더샵센텀파크1차아파트",
      "description": "부산 해운대구 센텀중앙로 145",
      "url": "http://place.map.kakao.com/11006588",
      "region": "부산광역시"
    },
    {
      "lat": 35.19496729871633,
      "lng": 129.12532796106046,
      "title": "해운대더샵센텀그린아파트",
      "description": "부산 해운대구 해운대로61번길 73",
      "url": "http://place.map.kakao.com/1922219329",
      "region": "부산광역시"
    },
    {
      "lat": 35.17795795783064,
      "lng": 129.12877687751916,
      "title": "해운대더샵센텀누리아파트",
      "description": "부산 해운대구 해운대로 253",
      "url": "http://place.map.kakao.com/17319251",
      "region": "부산광역시"
    },
    {
      "lat": 35.17942333635891,
      "lng": 129.12312525613785,
      "title": "더샵센텀파크2차아파트",
      "description": "부산 해운대구 센텀중앙로 142",
      "url": "http://place.map.kakao.com/11355498",
      "region": "부산광역시"
    },
    {
      "lat": 35.09570641763947,
      "lng": 128.9059191649708,
      "title": "더샵명지퍼스트월드3단지아파트",
      "description": "부산 강서구 명지국제2로 41",
      "url": "http://place.map.kakao.com/1984801862",
      "region": "부산광역시"
    },
    {
      "lat": 35.09822168741632,
      "lng": 128.90631874379562,
      "title": "더샵명지퍼스트월드2단지아파트",
      "description": "부산 강서구 명지국제7로 37",
      "url": "http://place.map.kakao.com/1432304569",
      "region": "부산광역시"
    },
    {
      "lat": 35.2380848476301,
      "lng": 129.09413195016,
      "title": "더샵금정위버시티아파트 (2027년02월예정)",
      "description": "부산 금정구 윤산로13번길 60",
      "url": "http://place.map.kakao.com/1862629265",
      "region": "부산광역시"
    },
    {
      "lat": 35.165050162765176,
      "lng": 129.12414515246948,
      "title": "부산더샵센텀포레아파트",
      "description": "부산 수영구 수영로 776",
      "url": "http://place.map.kakao.com/11071316",
      "region": "부산광역시"
    },
    {
      "lat": 35.17314623975042,
      "lng": 129.10649515293386,
      "title": "더샵파크리치아파트",
      "description": "부산 수영구 연수로315번길 16",
      "url": "http://place.map.kakao.com/8256823",
      "region": "부산광역시"
    },
    {
      "lat": 35.24758112741971,
      "lng": 129.21839132800534,
      "title": "포스코더샵아파트",
      "description": "부산 기장군 기장읍 차성동로116번길 12",
      "url": "http://place.map.kakao.com/11039492",
      "region": "부산광역시"
    },
    {
      "lat": 35.86920643367254,
      "lng": 128.59864736708008,
      "title": "더샵동성로센트리엘아파트",
      "description": "대구 중구 동성로3길 90",
      "url": "http://place.map.kakao.com/2101212812",
      "region": "대구광역시"
    },
    {
      "lat": 35.85656750238294,
      "lng": 128.60070705650378,
      "title": "더샵리비테르1차아파트",
      "description": "대구 중구 대봉로43길 21",
      "url": "http://place.map.kakao.com/304833242",
      "region": "대구광역시"
    },
    {
      "lat": 35.85817874840689,
      "lng": 128.6002335667715,
      "title": "더샵리비테르2차아파트",
      "description": "대구 중구 대봉로43길 22",
      "url": "http://place.map.kakao.com/1390346941",
      "region": "대구광역시"
    },
    {
      "lat": 35.8713186938844,
      "lng": 128.594513591657,
      "title": "대구사일동더샵아파트 (예정)",
      "description": "대구 중구 사일동 15-1",
      "url": "http://place.map.kakao.com/457577515",
      "region": "대구광역시"
    },
    {
      "lat": 35.8717838249942,
      "lng": 128.602154623354,
      "title": "대구동인동더샵아파트 (예정)",
      "description": "대구 중구 동인동1가 9",
      "url": "http://place.map.kakao.com/62403274",
      "region": "대구광역시"
    },
    {
      "lat": 35.87675890491178,
      "lng": 128.62343511642894,
      "title": "동대구역더샵센터시티아파트",
      "description": "대구 동구 동부로19길 18",
      "url": "http://place.map.kakao.com/565632316",
      "region": "대구광역시"
    },
    {
      "lat": 35.86988322219649,
      "lng": 128.6310835260336,
      "title": "더샵디어엘로아파트",
      "description": "대구 동구 화랑로 33",
      "url": "http://place.map.kakao.com/1605453740",
      "region": "대구광역시"
    },
    {
      "lat": 35.84871812391344,
      "lng": 128.60883289161117,
      "title": "더샵수성오클레어아파트",
      "description": "대구 수성구 희망로19길 29",
      "url": "http://place.map.kakao.com/1488471459",
      "region": "대구광역시"
    },
    {
      "lat": 35.889665887939586,
      "lng": 128.59295564613117,
      "title": "더샵프리미엘아파트",
      "description": "대구 북구 침산로32길 20",
      "url": "http://place.map.kakao.com/1531963071",
      "region": "대구광역시"
    },
    {
      "lat": 35.9241338506147,
      "lng": 128.6383215462772,
      "title": "이시아폴리스더샵3차아파트",
      "description": "대구 동구 팔공로51길 10",
      "url": "http://place.map.kakao.com/15104316",
      "region": "대구광역시"
    },
    {
      "lat": 35.92492875493517,
      "lng": 128.64240173135582,
      "title": "이시아폴리스더샵2차아파트",
      "description": "대구 동구 팔공로 274",
      "url": "http://place.map.kakao.com/14102594",
      "region": "대구광역시"
    },
    {
      "lat": 35.92527484806888,
      "lng": 128.6352695363283,
      "title": "이시아폴리스더샵4차아파트",
      "description": "대구 동구 팔공로53길 40",
      "url": "http://place.map.kakao.com/17697592",
      "region": "대구광역시"
    },
    {
      "lat": 35.92593071594278,
      "lng": 128.63977232118438,
      "title": "이시아폴리스더샵1차아파트",
      "description": "대구 동구 팔공로53길 10",
      "url": "http://place.map.kakao.com/12789392",
      "region": "대구광역시"
    },
    {
      "lat": 35.889906386801236,
      "lng": 128.57162706074973,
      "title": "더샵엘리체아파트 (예정)",
      "description": "대구 북구 노원동2가 319",
      "url": "http://place.map.kakao.com/230466229",
      "region": "대구광역시"
    },
    {
      "lat": 35.84229965929776,
      "lng": 128.54782140595768,
      "title": "성당더샵아파트",
      "description": "대구 달서구 장기로 115",
      "url": "http://place.map.kakao.com/11232605",
      "region": "대구광역시"
    },
    {
      "lat": 35.838391776074296,
      "lng": 128.54386644624137,
      "title": "더샵달서센트럴아파트",
      "description": "대구 달서구 당산로 17",
      "url": "http://place.map.kakao.com/932507221",
      "region": "대구광역시"
    },
    {
      "lat": 35.82008458879792,
      "lng": 128.61317405904998,
      "title": "수성더팰리스푸르지오더샵아파트",
      "description": "대구 수성구 파동로 190",
      "url": "http://place.map.kakao.com/1352563508",
      "region": "대구광역시"
    },
    {
      "lat": 35.8232996572758,
      "lng": 128.630019044312,
      "title": "더샵수성라크에르아파트",
      "description": "대구 수성구 지산로3길 33",
      "url": "http://place.map.kakao.com/136425786",
      "region": "대구광역시"
    },
    {
      "lat": 35.81378226305802,
      "lng": 128.50851358361908,
      "title": "유천포스코더샵아파트",
      "description": "대구 달서구 달서대로 67",
      "url": "http://place.map.kakao.com/11342069",
      "region": "대구광역시"
    },
    {
      "lat": 35.818680319097275,
      "lng": 128.52966850617497,
      "title": "월배역포스코더샵아파트",
      "description": "대구 달서구 월서로 51",
      "url": "http://place.map.kakao.com/11327100",
      "region": "대구광역시"
    },
    {
      "lat": 35.8356985601922,
      "lng": 128.536529007888,
      "title": "더샵달서센트엘로아파트 (2026년06월예정)",
      "description": "대구 달서구 본동 888-2",
      "url": "http://place.map.kakao.com/1332563170",
      "region": "대구광역시"
    },
    {
      "lat": 35.813806746441,
      "lng": 128.509434552299,
      "title": "유천동포스코더샵아파트 상가",
      "description": "대구 달서구 달서대로 67",
      "url": "http://place.map.kakao.com/24013079",
      "region": "대구광역시"
    },
    {
      "lat": 35.120112547921124,
      "lng": 126.91598447609697,
      "title": "봉선포스코더샵아파트",
      "description": "광주 남구 효사랑길 14",
      "url": "http://place.map.kakao.com/11046786",
      "region": "광주광역시"
    },
    {
      "lat": 35.1544088026203,
      "lng": 126.899787487657,
      "title": "더샵루미트리에아파트 (예정)",
      "description": "광주 서구 천변좌로222번길 18",
      "url": "http://place.map.kakao.com/296042230",
      "region": "광주광역시"
    },
    {
      "lat": 35.184973378471824,
      "lng": 126.92989305076564,
      "title": "더샵광주포레스트아파트",
      "description": "광주 북구 동문대로249번길 12",
      "url": "http://place.map.kakao.com/2122871638",
      "region": "광주광역시"
    },
    {
      "lat": 35.139608572682604,
      "lng": 126.87472577563783,
      "title": "더샵염주센트럴파크아파트",
      "description": "광주 서구 월드컵4강로 27",
      "url": "http://place.map.kakao.com/1181640549",
      "region": "광주광역시"
    },
    {
      "lat": 36.332750902716256,
      "lng": 127.41412783766235,
      "title": "목동더샵리슈빌아파트",
      "description": "대전 중구 선화서로 115",
      "url": "http://place.map.kakao.com/1411269706",
      "region": "대전광역시"
    },
    {
      "lat": 36.33792691916964,
      "lng": 127.39859019894361,
      "title": "둔산더샵엘리프아파트",
      "description": "대전 서구 탄방로 132",
      "url": "http://place.map.kakao.com/2056473454",
      "region": "대전광역시"
    },
    {
      "lat": 36.33355902812072,
      "lng": 127.41027504440238,
      "title": "대전목동더샵아파트",
      "description": "대전 중구 목동로22번길 16",
      "url": "http://place.map.kakao.com/11387784",
      "region": "대전광역시"
    },
    {
      "lat": 36.2928536363085,
      "lng": 127.326307791531,
      "title": "관저더샵2차아파트",
      "description": "대전 서구 구봉산북로 52",
      "url": "http://place.map.kakao.com/1566930645",
      "region": "대전광역시"
    },
    {
      "lat": 36.29463968067987,
      "lng": 127.3293042901011,
      "title": "관저1차더샵아파트",
      "description": "대전 서구 관저서로 19",
      "url": "http://place.map.kakao.com/27286171",
      "region": "대전광역시"
    },
    {
      "lat": 36.39155633832979,
      "lng": 127.30505150747001,
      "title": "반석더샵아파트",
      "description": "대전 유성구 반석로 80",
      "url": "http://place.map.kakao.com/541867736",
      "region": "대전광역시"
    },
    {
      "lat": 35.568290133411914,
      "lng": 129.33723014305605,
      "title": "약사더샵아파트",
      "description": "울산 중구 약사로 20",
      "url": "http://place.map.kakao.com/26625438",
      "region": "울산광역시"
    },
    {
      "lat": 35.55922337627859,
      "lng": 129.33222518082275,
      "title": "더샵시에르네아파트 (2027년05월예정)",
      "description": "울산 중구 학성동 397-1",
      "url": "http://place.map.kakao.com/953258148",
      "region": "울산광역시"
    },
    {
      "lat": 35.54392909211819,
      "lng": 129.30513940432363,
      "title": "울산남산포스코더샵아파트",
      "description": "울산 남구 봉월로 133",
      "url": "http://place.map.kakao.com/11346772",
      "region": "울산광역시"
    },
    {
      "lat": 35.52815134283738,
      "lng": 129.33194251540843,
      "title": "더샵번영센트로아파트",
      "description": "울산 남구 번영로16번길 19",
      "url": "http://place.map.kakao.com/1683229278",
      "region": "울산광역시"
    },
    {
      "lat": 35.523614656479666,
      "lng": 129.3270849541064,
      "title": "울산대현더샵2단지아파트",
      "description": "울산 남구 야음로26번길 34",
      "url": "http://place.map.kakao.com/27320627",
      "region": "울산광역시"
    },
    {
      "lat": 35.52543377959716,
      "lng": 129.3270912046523,
      "title": "울산대현더샵1단지아파트",
      "description": "울산 남구 수암로190번길 18",
      "url": "http://place.map.kakao.com/27320628",
      "region": "울산광역시"
    },
    {
      "lat": 35.55099518227832,
      "lng": 129.25108543397073,
      "title": "문수산더샵아파트",
      "description": "울산 울주군 범서읍 장검길 88",
      "url": "http://place.map.kakao.com/13727243",
      "region": "울산광역시"
    },
    {
      "lat": 36.48899761839773,
      "lng": 127.25162420717571,
      "title": "새뜸마을10단지더샵힐스테이트아파트",
      "description": "세종특별자치시 새롬중앙로 90",
      "url": "http://place.map.kakao.com/26257063",
      "region": "세종특별자치시"
    },
    {
      "lat": 36.500132814184056,
      "lng": 127.31378123904047,
      "title": "수루배마을4단지더샵예미지아파트",
      "description": "세종특별자치시 시청대로 500",
      "url": "http://place.map.kakao.com/400381938",
      "region": "세종특별자치시"
    },
    {
      "lat": 36.50491582408773,
      "lng": 127.27443045527603,
      "title": "한뜰마을3단지세종더샵레이크파크아파트",
      "description": "세종특별자치시 다솜로 290",
      "url": "http://place.map.kakao.com/17052652",
      "region": "세종특별자치시"
    },
    {
      "lat": 36.506168813211474,
      "lng": 127.26911921370862,
      "title": "한뜰마을2단지세종더샵센트럴시티아파트",
      "description": "세종특별자치시 갈매로 480",
      "url": "http://place.map.kakao.com/17052649",
      "region": "세종특별자치시"
    },
    {
      "lat": 36.48940616363117,
      "lng": 127.2536008964693,
      "title": "새뜸마을11단지더샵힐스테이트아파트",
      "description": "세종특별자치시 새롬로 55",
      "url": "http://place.map.kakao.com/26257061",
      "region": "세종특별자치시"
    },
    {
      "lat": 36.489585792735575,
      "lng": 127.2547297879574,
      "title": "새뜸마을14단지더샵힐스테이트아파트",
      "description": "세종특별자치시 새롬로 56",
      "url": "http://place.map.kakao.com/26257069",
      "region": "세종특별자치시"
    },
    {
      "lat": 37.879730903617,
      "lng": 127.74793297856304,
      "title": "춘천더샵아파트",
      "description": "강원특별자치도 춘천시 후석로 325",
      "url": "http://place.map.kakao.com/11221833",
      "region": "강원특별자치도"
    },
    {
      "lat": 37.88760260477231,
      "lng": 127.72615923687809,
      "title": "더샵소양스타리버아파트",
      "description": "강원특별자치도 춘천시 모수물길 57",
      "url": "http://place.map.kakao.com/1074645242",
      "region": "강원특별자치도"
    },
    {
      "lat": 37.8795642009616,
      "lng": 127.746376354447,
      "title": "춘천더샵아파트 상가",
      "description": "강원특별자치도 춘천시 춘천로296번길 21",
      "url": "http://place.map.kakao.com/24051800",
      "region": "강원특별자치도"
    },
    {
      "lat": 37.32153111313491,
      "lng": 127.93785714050082,
      "title": "원주더샵아파트",
      "description": "강원특별자치도 원주시 판부면 시청로 264",
      "url": "http://place.map.kakao.com/11226331",
      "region": "강원특별자치도"
    },
    {
      "lat": 37.3371840788052,
      "lng": 127.93900637797488,
      "title": "더샵원주센트럴파크2단지아파트",
      "description": "강원특별자치도 원주시 서원대로 290",
      "url": "http://place.map.kakao.com/1252762990",
      "region": "강원특별자치도"
    },
    {
      "lat": 37.33518196324176,
      "lng": 127.93754164009333,
      "title": "더샵원주센트럴파크1단지아파트",
      "description": "강원특별자치도 원주시 한지공원길 120",
      "url": "http://place.map.kakao.com/1968749998",
      "region": "강원특별자치도"
    },
    {
      "lat": 37.32900186290907,
      "lng": 127.94198362864489,
      "title": "더샵원주센트럴파크3단지아파트",
      "description": "강원특별자치도 원주시 한지공원길 25-2",
      "url": "http://place.map.kakao.com/177584149",
      "region": "강원특별자치도"
    },
    {
      "lat": 37.33214224447746,
      "lng": 127.93625817915297,
      "title": "더샵원주센트럴파크4단지아파트",
      "description": "강원특별자치도 원주시 무실새골길 66",
      "url": "http://place.map.kakao.com/451977644",
      "region": "강원특별자치도"
    },
    {
      "lat": 37.74996789554018,
      "lng": 128.9095386520878,
      "title": "강릉더샵아파트",
      "description": "강원특별자치도 강릉시 입암로29번길 11",
      "url": "http://place.map.kakao.com/11365429",
      "region": "강원특별자치도"
    },
    {
      "lat": 38.209739609824,
      "lng": 128.572926403801,
      "title": "더샵속초프라임뷰아파트 (2027년07월예정)",
      "description": "강원특별자치도 속초시 금호동 617-21",
      "url": "http://place.map.kakao.com/706924590",
      "region": "강원특별자치도"
    },
    {
      "lat": 36.636308909144745,
      "lng": 127.4417544582103,
      "title": "더샵청주센트럴아파트",
      "description": "충북 청주시 흥덕구 복대로 220",
      "url": "http://place.map.kakao.com/1877099030",
      "region": "충청북도"
    },
    {
      "lat": 36.615110400191256,
      "lng": 127.47667184126816,
      "title": "더샵청주퍼스트파크아파트",
      "description": "충북 청주시 서원구 수곡로 20",
      "url": "http://place.map.kakao.com/2101980532",
      "region": "충청북도"
    },
    {
      "lat": 36.622707747040224,
      "lng": 127.46506523079292,
      "title": "더샵청주그리니티아파트 (2026년01월예정)",
      "description": "충북 청주시 서원구 서부로 1478",
      "url": "http://place.map.kakao.com/1488239272",
      "region": "충청북도"
    },
    {
      "lat": 36.7114009054749,
      "lng": 127.432561990371,
      "title": "더샵오창프레스티지아파트 (2027년08월예정)",
      "description": "충북 청주시 청원구 오창읍 양청리 814-2",
      "url": "http://place.map.kakao.com/1862586084",
      "region": "충청북도"
    },
    {
      "lat": 36.8278021500622,
      "lng": 127.15954126904576,
      "title": "더샵신부센트라아파트",
      "description": "충남 천안시 동남구 북일로 85",
      "url": "http://place.map.kakao.com/828660490",
      "region": "충청남도"
    },
    {
      "lat": 36.82982622502906,
      "lng": 127.12470621979595,
      "title": "백석더샵아파트",
      "description": "충남 천안시 서북구 한들3로 70",
      "url": "http://place.map.kakao.com/25098493",
      "region": "충청남도"
    },
    {
      "lat": 36.8149985862022,
      "lng": 127.10500312185088,
      "title": "천안불당지웰더샵아파트",
      "description": "충남 천안시 서북구 불당26로 77",
      "url": "http://place.map.kakao.com/25765737",
      "region": "충청남도"
    },
    {
      "lat": 36.775364569951115,
      "lng": 127.0786106916186,
      "title": "더샵센트로아파트",
      "description": "충남 아산시 배방읍 북수로 163",
      "url": "http://place.map.kakao.com/1488015934",
      "region": "충청남도"
    },
    {
      "lat": 36.84400176057418,
      "lng": 127.06600167659143,
      "title": "아산더샵레이크시티3차아파트",
      "description": "충남 아산시 음봉면 음봉로 515-37",
      "url": "http://place.map.kakao.com/22106792",
      "region": "충청남도"
    },
    {
      "lat": 36.79469198904965,
      "lng": 127.01020499402267,
      "title": "아산더샵퍼스트타워아파트",
      "description": "충남 아산시 권곡로 47",
      "url": "http://place.map.kakao.com/11333263",
      "region": "충청남도"
    },
    {
      "lat": 36.84429894943908,
      "lng": 127.07099896898495,
      "title": "아산더샵레이크시티2차아파트",
      "description": "충남 아산시 음봉면 음봉로 515-38",
      "url": "http://place.map.kakao.com/19731939",
      "region": "충청남도"
    },
    {
      "lat": 36.84108812511174,
      "lng": 127.0727920335974,
      "title": "더샵레이크사이드아파트",
      "description": "충남 아산시 음봉면 음봉로 567",
      "url": "http://place.map.kakao.com/8131706",
      "region": "충청남도"
    },
    {
      "lat": 36.8401400104353,
      "lng": 127.073037778198,
      "title": "더샵레이크사이드아파트 상가",
      "description": "충남 아산시 음봉면 음봉로 567",
      "url": "http://place.map.kakao.com/26448661",
      "region": "충청남도"
    },
    {
      "lat": 36.7903457886106,
      "lng": 127.076958869643,
      "title": "더샵탕정인피니티시티2차아파트 (2027년02월예정)",
      "description": "충남 아산시 탕정면 매곡리 835",
      "url": "http://place.map.kakao.com/1882567354",
      "region": "충청남도"
    },
    {
      "lat": 36.7884085203291,
      "lng": 127.076761991069,
      "title": "더샵탕정인피니티시티1차아파트 (2026년12월예정)",
      "description": "충남 아산시 탕정면 매곡리 857",
      "url": "http://place.map.kakao.com/169703392",
      "region": "충청남도"
    },
    {
      "lat": 36.7904943724442,
      "lng": 127.071336943794,
      "title": "더샵탕정인피니티시티3차아파트 (2027년10월예정)",
      "description": "충남 아산시 탕정면 갈산리 260-1",
      "url": "http://place.map.kakao.com/1818009864",
      "region": "충청남도"
    },
    {
      "lat": 36.8449224878738,
      "lng": 127.067961160885,
      "title": "아산더샵레이크시티3차 상가",
      "description": "충남 아산시 음봉면 음봉로 515-37",
      "url": "http://place.map.kakao.com/1632453616",
      "region": "충청남도"
    },
    {
      "lat": 36.267617673440114,
      "lng": 127.27110722291299,
      "title": "계룡더샵아파트",
      "description": "충남 계룡시 두마면 사계로 101",
      "url": "http://place.map.kakao.com/11360844",
      "region": "충청남도"
    },
    {
      "lat": 36.26794134219742,
      "lng": 127.27144220176677,
      "title": "계룡더샵아파트 상가",
      "description": "충남 계룡시 두마면 사계로 101",
      "url": "http://place.map.kakao.com/26446594",
      "region": "충청남도"
    },
    {
      "lat": 36.2937802931793,
      "lng": 127.326220365392,
      "title": "관저더샵2차아파트 상가",
      "description": "대전 서구 구봉산북로 52",
      "url": "http://place.map.kakao.com/656869354",
      "region": "대전광역시"
    },
    {
      "lat": 35.98333788732646,
      "lng": 126.74461854882055,
      "title": "더샵군산프리미엘아파트",
      "description": "전북특별자치도 군산시 구암로 53",
      "url": "http://place.map.kakao.com/467730517",
      "region": "전북특별자치도"
    },
    {
      "lat": 35.978767108129986,
      "lng": 126.74602370201211,
      "title": "더샵디오션시티아파트",
      "description": "전북특별자치도 군산시 궁포1로 79",
      "url": "http://place.map.kakao.com/864890064",
      "region": "전북특별자치도"
    },
    {
      "lat": 35.981304193773326,
      "lng": 126.74607655843747,
      "title": "더샵디오션시티그랑시엘아파트",
      "description": "전북특별자치도 군산시 궁포2로 77",
      "url": "http://place.map.kakao.com/183876842",
      "region": "전북특별자치도"
    },
    {
      "lat": 35.9826250910301,
      "lng": 126.744232748994,
      "title": "더샵군산프리미엄엘아파트 근린생활시설",
      "description": "전북특별자치도 군산시 구암로 53",
      "url": "http://place.map.kakao.com/541216032",
      "region": "전북특별자치도"
    },
    {
      "lat": 35.81113343496749,
      "lng": 127.1088094236377,
      "title": "더샵효자1차아파트",
      "description": "전북특별자치도 전주시 완산구 세내로 239",
      "url": "http://place.map.kakao.com/11327828",
      "region": "전북특별자치도"
    },
    {
      "lat": 35.836860794904545,
      "lng": 127.16366744294167,
      "title": "더샵인후센트럴아파트",
      "description": "전북특별자치도 전주시 덕진구 진버들5길 21",
      "url": "http://place.map.kakao.com/1875179656",
      "region": "전북특별자치도"
    },
    {
      "lat": 35.87755934886004,
      "lng": 127.13726804208842,
      "title": "에코시티더샵3차아파트",
      "description": "전북특별자치도 전주시 덕진구 세병로 136",
      "url": "http://place.map.kakao.com/598653472",
      "region": "전북특별자치도"
    },
    {
      "lat": 35.8270230275028,
      "lng": 127.15732034769746,
      "title": "전주더샵라비온드아파트 (2028년06월예정)",
      "description": "전북특별자치도 전주시 완산구 중노송동 395-3",
      "url": "http://place.map.kakao.com/336908756",
      "region": "전북특별자치도"
    },
    {
      "lat": 35.80902504804973,
      "lng": 127.10818252001941,
      "title": "더샵효자2차아파트",
      "description": "전북특별자치도 전주시 완산구 봉곡로 140",
      "url": "http://place.map.kakao.com/11276900",
      "region": "전북특별자치도"
    },
    {
      "lat": 35.830043870603326,
      "lng": 127.12086974370801,
      "title": "서신더샵비발디아파트 (2026년11월예정)",
      "description": "전북특별자치도 전주시 완산구 서신동 40-4",
      "url": "http://place.map.kakao.com/821928721",
      "region": "전북특별자치도"
    },
    {
      "lat": 35.877504592640754,
      "lng": 127.13306764409175,
      "title": "에코시티더샵2차아파트",
      "description": "전북특별자치도 전주시 덕진구 세병로 175",
      "url": "http://place.map.kakao.com/205690867",
      "region": "전북특별자치도"
    },
    {
      "lat": 35.8781165997779,
      "lng": 127.126336834423,
      "title": "에코시티더샵4차아파트 (2027년01월예정)",
      "description": "전북특별자치도 전주시 덕진구 송천동2가 1317",
      "url": "http://place.map.kakao.com/1796631836",
      "region": "전북특별자치도"
    },
    {
      "lat": 35.87194869710887,
      "lng": 127.12863466742434,
      "title": "에코시티더샵1차아파트",
      "description": "전북특별자치도 전주시 덕진구 세병로 42",
      "url": "http://place.map.kakao.com/567108443",
      "region": "전북특별자치도"
    },
    {
      "lat": 35.83744429514627,
      "lng": 127.16338308043093,
      "title": "더샵인후센트럴아파트 상가",
      "description": "전북특별자치도 전주시 덕진구 진버들5길 21",
      "url": "http://place.map.kakao.com/192724399",
      "region": "전북특별자치도"
    },
    {
      "lat": 35.94411872548788,
      "lng": 126.93022507966734,
      "title": "익산더샵아파트",
      "description": "전북특별자치도 익산시 학곤로20길 77",
      "url": "http://place.map.kakao.com/24767974",
      "region": "전북특별자치도"
    },
    {
      "lat": 34.91549077315398,
      "lng": 127.6367241943151,
      "title": "더샵광양베이센트아파트",
      "description": "전남 광양시 황금1로 66",
      "url": "http://place.map.kakao.com/1585487887",
      "region": "전라남도"
    },
    {
      "lat": 34.9384056117466,
      "lng": 127.68076027419,
      "title": "광양더샵프리모성황아파트",
      "description": "전남 광양시 성황수동로 13",
      "url": "http://place.map.kakao.com/904561485",
      "region": "전라남도"
    },
    {
      "lat": 34.9499521697085,
      "lng": 127.703381052168,
      "title": "더샵광양레이크센텀아파트(1회차) (2027년01월예정)",
      "description": "전남 광양시 마동 348-4",
      "url": "http://place.map.kakao.com/906699244",
      "region": "전라남도"
    },
    {
      "lat": 34.9501380880782,
      "lng": 127.70318449232,
      "title": "더샵광양레이크센텀아파트(2회차) (2027년01월예정)",
      "description": "전남 광양시 마동 348-4",
      "url": "http://place.map.kakao.com/759852844",
      "region": "전라남도"
    },
    {
      "lat": 36.01917174978297,
      "lng": 129.33611608476767,
      "title": "힐스테이트더샵상생공원2단지아파트 (2027년09월예정)",
      "description": "경북 포항시 남구 대잠동 산 81-4",
      "url": "http://place.map.kakao.com/183178872",
      "region": "경상북도"
    },
    {
      "lat": 36.02172093933074,
      "lng": 129.33406741915306,
      "title": "힐스테이트더샵상생공원1단지아파트 (2027년09월예정)",
      "description": "경북 포항시 남구 대잠동 871",
      "url": "http://place.map.kakao.com/183049488",
      "region": "경상북도"
    },
    {
      "lat": 36.0084578827161,
      "lng": 129.327505012715,
      "title": "포항서초교부지더샵아파트 (예정)",
      "description": "경북 포항시 남구 지곡로 25",
      "url": "http://place.map.kakao.com/1488424347",
      "region": "경상북도"
    },
    {
      "lat": 36.12995107238979,
      "lng": 128.33691974909593,
      "title": "구미아이파크더샵아파트",
      "description": "경북 구미시 금오산로6길 12",
      "url": "http://place.map.kakao.com/2051316578",
      "region": "경상북도"
    },
    {
      "lat": 35.8290103415946,
      "lng": 128.72125217340246,
      "title": "펜타힐즈더샵1차아파트",
      "description": "경북 경산시 펜타힐즈2로 60",
      "url": "http://place.map.kakao.com/25911329",
      "region": "경상북도"
    },
    {
      "lat": 35.82696225392248,
      "lng": 128.72054734145567,
      "title": "펜타힐즈더샵2차아파트",
      "description": "경북 경산시 펜타힐즈2로 40",
      "url": "http://place.map.kakao.com/27237514",
      "region": "경상북도"
    },
    {
      "lat": 35.23178453798448,
      "lng": 128.6752627526393,
      "title": "용지더샵레이크파크아파트",
      "description": "경남 창원시 성산구 외동반림로 156",
      "url": "http://place.map.kakao.com/320024266",
      "region": "경상남도"
    },
    {
      "lat": 35.160134562075854,
      "lng": 128.67897068577992,
      "title": "경화포스코더샵아파트",
      "description": "경남 창원시 진해구 조천북로 65",
      "url": "http://place.map.kakao.com/23825751",
      "region": "경상남도"
    },
    {
      "lat": 35.142026780377684,
      "lng": 128.70972752329465,
      "title": "자은더샵아파트",
      "description": "경남 창원시 진해구 진해대로975번길 26",
      "url": "http://place.map.kakao.com/11222611",
      "region": "경상남도"
    },
    {
      "lat": 35.20920190617978,
      "lng": 128.69853240146614,
      "title": "창원더샵센트럴파크2단지아파트",
      "description": "경남 창원시 성산구 원이대로863번길 19",
      "url": "http://place.map.kakao.com/26314422",
      "region": "경상남도"
    },
    {
      "lat": 35.208104567304154,
      "lng": 128.7001127051986,
      "title": "창원더샵센트럴파크1단지아파트",
      "description": "경남 창원시 성산구 대정로40번길 7",
      "url": "http://place.map.kakao.com/26314418",
      "region": "경상남도"
    },
    {
      "lat": 35.21021650803372,
      "lng": 128.6970667303884,
      "title": "창원더샵센트럴파크3단지아파트",
      "description": "경남 창원시 성산구 원이대로863번길 7",
      "url": "http://place.map.kakao.com/26314423",
      "region": "경상남도"
    },
    {
      "lat": 35.2310891930393,
      "lng": 128.676275431122,
      "title": "용지더샵레이크파크아파트 상가",
      "description": "경남 창원시 성산구 용호로 9",
      "url": "http://place.map.kakao.com/156256424",
      "region": "경상남도"
    },
    {
      "lat": 35.21124375304758,
      "lng": 128.1072061867337,
      "title": "더샵진주피에르테아파트",
      "description": "경남 진주시 초장로 123",
      "url": "http://place.map.kakao.com/1488092136",
      "region": "경상남도"
    },
    {
      "lat": 34.8663220131118,
      "lng": 128.631728500886,
      "title": "더샵거제디클리브아파트",
      "description": "경남 거제시 상동5길 46",
      "url": "http://place.map.kakao.com/119496638",
      "region": "경상남도"
    },
    {
      "lat": 34.86316184817313,
      "lng": 128.6298017175523,
      "title": "거제더샵블루시티아파트",
      "description": "경남 거제시 상동5길 100",
      "url": "http://place.map.kakao.com/26418907",
      "region": "경상남도"
    },
    {
      "lat": 34.885904641883165,
      "lng": 128.64358696062465,
      "title": "거제더샵아파트",
      "description": "경남 거제시 제산로 86",
      "url": "http://place.map.kakao.com/11387748",
      "region": "경상남도"
    },
    {
      "lat": 35.19846686052762,
      "lng": 128.82359186810797,
      "title": "더샵신문그리니티아파트 (2026년02월예정)",
      "description": "경남 김해시 신문동",
      "url": "http://place.map.kakao.com/87909965",
      "region": "경상남도"
    },
    {
      "lat": 35.19920914098506,
      "lng": 128.81437611411027,
      "title": "장유더샵아파트",
      "description": "경남 김해시 장유로288번길 15",
      "url": "http://place.map.kakao.com/23836598",
      "region": "경상남도"
    },
    {
      "lat": 35.19629141989091,
      "lng": 128.82472454371415,
      "title": "더샵신문그리니티2차아파트 (2028년07월예정)",
      "description": "경남 김해시 신문동 437-6",
      "url": "http://place.map.kakao.com/1399859707",
      "region": "경상남도"
    },
    {
      "lat": 35.31370761227909,
      "lng": 129.0298992361806,
      "title": "더샵남양산센텀포레아파트",
      "description": "경남 양산시 동면 석산2길 14",
      "url": "http://place.map.kakao.com/531515524",
      "region": "경상남도"
    },
    {
      "lat": 35.309600511347085,
      "lng": 129.06873572673624,
      "title": "양산사송더샵데시앙3차아파트",
      "description": "경남 양산시 동면 사송로 133",
      "url": "http://place.map.kakao.com/1488510325",
      "region": "경상남도"
    },
    {
      "lat": 35.32083721072261,
      "lng": 129.06650085248867,
      "title": "사송더샵데시앙1단지아파트",
      "description": "경남 양산시 동면 내송큰들로 141",
      "url": "http://place.map.kakao.com/509230751",
      "region": "경상남도"
    },
    {
      "lat": 35.31341794292755,
      "lng": 129.07587243323295,
      "title": "사송더샵데시앙2차7단지아파트",
      "description": "경남 양산시 동면 외송로 30",
      "url": "http://place.map.kakao.com/293771588",
      "region": "경상남도"
    },
    {
      "lat": 35.32134402758612,
      "lng": 129.07005967100517,
      "title": "사송더샵데시앙4단지아파트",
      "description": "경남 양산시 동면 내송큰들로 73",
      "url": "http://place.map.kakao.com/52490236",
      "region": "경상남도"
    },
    {
      "lat": 35.3149779079585,
      "lng": 129.075027276639,
      "title": "사송더샵데시앙2차6단지아파트",
      "description": "경남 양산시 동면 외송로 50",
      "url": "http://place.map.kakao.com/293553845",
      "region": "경상남도"
    },
    {
      "lat": 35.31563104674599,
      "lng": 129.07293745758253,
      "title": "사송더샵데시앙2차5단지아파트",
      "description": "경남 양산시 동면 외송로 60",
      "url": "http://place.map.kakao.com/580804289",
      "region": "경상남도"
    },
    {
      "lat": 35.32239938483215,
      "lng": 129.06842080311165,
      "title": "사송더샵데시앙3단지아파트",
      "description": "경남 양산시 동면 내송큰들로 107",
      "url": "http://place.map.kakao.com/2125772075",
      "region": "경상남도"
    },
    {
      "lat": 35.692029513649906,
      "lng": 127.89972127334849,
      "title": "더샵거창포르시엘아파트",
      "description": "경남 거창군 거창읍 거열로8길 76",
      "url": "http://place.map.kakao.com/1292071277",
      "region": "경상남도"
    },
    {
      "lat": 35.69301666852886,
      "lng": 127.90016433142947,
      "title": "더샵거창포르시엘2차아파트",
      "description": "경남 거창군 거창읍 성산길 109",
      "url": "http://place.map.kakao.com/736418489",
      "region": "경상남도"
    },
    {
      "lat": 33.4626380472229,
      "lng": 126.484341819005,
      "title": "더샵노형포레",
      "description": "제주특별자치도 제주시 1100로 3097",
      "url": "http://place.map.kakao.com/724383202",
      "region": "제주특별자치도"
    },
    {
      "lat": 33.47306872509374,
      "lng": 126.48960102554433,
      "title": "더샵연동포레",
      "description": "제주특별자치도 제주시 과천로 33",
      "url": "http://place.map.kakao.com/724416026",
      "region": "제주특별자치도"
    },
    {
      "lat": 33.4892463062692,
      "lng": 126.488361261175,
      "title": "더샵연동애비뉴아파트 (2026년07월예정)",
      "description": "제주특별자치도 제주시 연동 261-37",
      "url": "http://place.map.kakao.com/1990115357",
      "region": "제주특별자치도"
    },
    {
      "lat": 33.49527892770862,
      "lng": 126.5208538540202,
      "title": "신화위더스빌더샵아파트",
      "description": "제주특별자치도 제주시 신성로 6-1",
      "url": "http://place.map.kakao.com/1808076977",
      "region": "제주특별자치도"
    }
  ]
}