{
  "pins": [
    {
      "title": "써브웨이 강남역점",
      "description": "서울 강남구 강남대로96길 12",
      "url": "http://place.map.kakao.com/19157089",
      "region": "서울특별시",
      "lat": 37.499779332771375,
      "lng": 127.027978289709
    },
    {
      "title": "써브웨이 신사점",
      "description": "서울 강남구 도산대로 124",
      "url": "http://place.map.kakao.com/14809216",
      "region": "서울특별시",
      "lat": 37.516920365937146,
      "lng": 127.02224748763877
    },
    {
      "title": "써브웨이 선릉점",
      "description": "서울 강남구 테헤란로 337",
      "url": "http://place.map.kakao.com/1845117827",
      "region": "서울특별시",
      "lat": 37.5046993871305,
      "lng": 127.048504915284
    },
    {
      "title": "써브웨이 강남우성점",
      "description": "서울 강남구 강남대로66길 6",
      "url": "http://place.map.kakao.com/27583471",
      "region": "서울특별시",
      "lat": 37.49163335639982,
      "lng": 127.03145802263491
    },
    {
      "title": "써브웨이 압구정역점",
      "description": "서울 강남구 압구정로28길 13",
      "url": "http://place.map.kakao.com/351774218",
      "region": "서울특별시",
      "lat": 37.52565619384057,
      "lng": 127.02788613532715
    },
    {
      "title": "써브웨이 압구정로데오점",
      "description": "서울 강남구 선릉로 806",
      "url": "http://place.map.kakao.com/630278994",
      "region": "서울특별시",
      "lat": 37.5238904716088,
      "lng": 127.039644891268
    },
    {
      "title": "써브웨이 삼성점",
      "description": "서울 강남구 삼성로 520",
      "url": "http://place.map.kakao.com/356702055",
      "region": "서울특별시",
      "lat": 37.50864428236799,
      "lng": 127.05598581486619
    },
    {
      "title": "써브웨이 언주역점",
      "description": "서울 강남구 봉은사로 206",
      "url": "http://place.map.kakao.com/1898620104",
      "region": "서울특별시",
      "lat": 37.507287449921364,
      "lng": 127.03463480044107
    },
    {
      "title": "써브웨이 역삼점",
      "description": "서울 강남구 테헤란로25길 20",
      "url": "http://place.map.kakao.com/1782278964",
      "region": "서울특별시",
      "lat": 37.501588330629936,
      "lng": 127.03551089271811
    },
    {
      "title": "써브웨이 봉은사역점",
      "description": "서울 강남구 봉은사로 627",
      "url": "http://place.map.kakao.com/898686078",
      "region": "서울특별시",
      "lat": 37.515224742354086,
      "lng": 127.06401493635363
    },
    {
      "title": "써브웨이 선정릉역점",
      "description": "서울 강남구 봉은사로 328",
      "url": "http://place.map.kakao.com/423537139",
      "region": "서울특별시",
      "lat": 37.50975708191694,
      "lng": 127.04293440642302
    },
    {
      "title": "써브웨이 삼성중앙역점",
      "description": "서울 강남구 봉은사로 480",
      "url": "http://place.map.kakao.com/1309892071",
      "region": "서울특별시",
      "lat": 37.5127064904099,
      "lng": 127.052991466436
    },
    {
      "title": "써브웨이 대치점",
      "description": "서울 강남구 도곡로 447",
      "url": "http://place.map.kakao.com/11140135",
      "region": "서울특별시",
      "lat": 37.4986937551938,
      "lng": 127.0593156012948
    },
    {
      "title": "써브웨이 포이사거리점",
      "description": "서울 강남구 논현로 84",
      "url": "http://place.map.kakao.com/713803231",
      "region": "서울특별시",
      "lat": 37.4775262903081,
      "lng": 127.045262997525
    },
    {
      "title": "써브웨이 학동역점",
      "description": "서울 강남구 학동로 171",
      "url": "http://place.map.kakao.com/1172822839",
      "region": "서울특별시",
      "lat": 37.51392287187949,
      "lng": 127.02977071649642
    },
    {
      "title": "써브웨이 테헤란로점",
      "description": "서울 강남구 테헤란로 314",
      "url": "http://place.map.kakao.com/780974479",
      "region": "서울특별시",
      "lat": 37.503029312760745,
      "lng": 127.0452523771643
    },
    {
      "title": "써브웨이 수서역점",
      "description": "서울 강남구 밤고개로1길 10",
      "url": "http://place.map.kakao.com/807876751",
      "region": "서울특별시",
      "lat": 37.4880705999297,
      "lng": 127.10197024821657
    },
    {
      "title": "써브웨이 대청점",
      "description": "서울 강남구 일원로3길 4",
      "url": "http://place.map.kakao.com/14809266",
      "region": "서울특별시",
      "lat": 37.491115163204256,
      "lng": 127.08120568368786
    },
    {
      "title": "써브웨이 청담점",
      "description": "서울 강남구 도산대로 503",
      "url": "http://place.map.kakao.com/544163652",
      "region": "서울특별시",
      "lat": 37.5246199026303,
      "lng": 127.047960094539
    },
    {
      "title": "써브웨이 양재역점",
      "description": "서울 서초구 남부순환로 2606",
      "url": "http://place.map.kakao.com/1454527924",
      "region": "서울특별시",
      "lat": 37.48454389912095,
      "lng": 127.03577418314356
    },
    {
      "title": "써브웨이 삼전역",
      "description": "서울 송파구 백제고분로 197",
      "url": "http://place.map.kakao.com/1197406372",
      "region": "서울특별시",
      "lat": 37.5043804639035,
      "lng": 127.088766958526
    },
    {
      "title": "써브웨이 잠실새내역점",
      "description": "서울 송파구 올림픽로 130",
      "url": "http://place.map.kakao.com/25460201",
      "region": "서울특별시",
      "lat": 37.511423593561965,
      "lng": 127.08475095814117
    },
    {
      "title": "써브웨이 강남역GT타워점",
      "description": "서울 서초구 서초대로 411",
      "url": "http://place.map.kakao.com/1522842095",
      "region": "서울특별시",
      "lat": 37.49809941333112,
      "lng": 127.0259760274313
    },
    {
      "title": "써브웨이 신논현점",
      "description": "서울 서초구 강남대로 499",
      "url": "http://place.map.kakao.com/911952724",
      "region": "서울특별시",
      "lat": 37.50658208093195,
      "lng": 127.02308927291396
    },
    {
      "title": "써브웨이 논현역점",
      "description": "서울 서초구 강남대로 535",
      "url": "http://place.map.kakao.com/26484597",
      "region": "서울특별시",
      "lat": 37.50959351418881,
      "lng": 127.02163681289875
    },
    {
      "title": "써브웨이 교대점",
      "description": "서울 서초구 서초중앙로22길 47",
      "url": "http://place.map.kakao.com/19009602",
      "region": "서울특별시",
      "lat": 37.49359515297624,
      "lng": 127.01670756454675
    },
    {
      "title": "써브웨이 서초법원점",
      "description": "서울 서초구 법원로1길 1",
      "url": "http://place.map.kakao.com/920671383",
      "region": "서울특별시",
      "lat": 37.49327780545306,
      "lng": 127.01057632422207
    },
    {
      "title": "써브웨이 양재하이브랜드점",
      "description": "서울 서초구 매헌로 16",
      "url": "http://place.map.kakao.com/463310828",
      "region": "서울특별시",
      "lat": 37.4624669876463,
      "lng": 127.036948248896
    },
    {
      "title": "써브웨이 잠실역점",
      "description": "서울 송파구 올림픽로 293-19",
      "url": "http://place.map.kakao.com/193686497",
      "region": "서울특별시",
      "lat": 37.51516331584118,
      "lng": 127.10257039927868
    },
    {
      "title": "써브웨이 뚝섬유원지역점",
      "description": "서울 광진구 뚝섬로34길 67",
      "url": "http://place.map.kakao.com/1351510456",
      "region": "서울특별시",
      "lat": 37.53224811734309,
      "lng": 127.06754355806858
    },
    {
      "title": "써브웨이 송파역점",
      "description": "서울 송파구 송파대로 374",
      "url": "http://place.map.kakao.com/1576847439",
      "region": "서울특별시",
      "lat": 37.5013430635852,
      "lng": 127.111248234873
    },
    {
      "title": "써브웨이 석촌호수점",
      "description": "서울 송파구 석촌호수로 298",
      "url": "http://place.map.kakao.com/1985519383",
      "region": "서울특별시",
      "lat": 37.51164878890662,
      "lng": 127.10830351510964
    },
    {
      "title": "써브웨이 석촌역점",
      "description": "서울 송파구 송파대로 438",
      "url": "http://place.map.kakao.com/2015540186",
      "region": "서울특별시",
      "lat": 37.5059258794898,
      "lng": 127.107018364945
    },
    {
      "title": "써브웨이 건대입구점",
      "description": "서울 광진구 아차산로 241",
      "url": "http://place.map.kakao.com/2143223381",
      "region": "서울특별시",
      "lat": 37.54060963890514,
      "lng": 127.07022485600113
    },
    {
      "title": "써브웨이 서울고속터미널점",
      "description": "서울 서초구 신반포로 194",
      "url": "http://place.map.kakao.com/1237724292",
      "region": "서울특별시",
      "lat": 37.5060174103292,
      "lng": 127.006785921867
    },
    {
      "title": "써브웨이 문정역점",
      "description": "서울 송파구 법원로 114",
      "url": "http://place.map.kakao.com/1895896389",
      "region": "서울특별시",
      "lat": 37.4861853748997,
      "lng": 127.12049060649446
    },
    {
      "title": "써브웨이 문정법조점",
      "description": "서울 송파구 충민로 5",
      "url": "http://place.map.kakao.com/24612880",
      "region": "서울특별시",
      "lat": 37.48041421472322,
      "lng": 127.11980410952339
    },
    {
      "title": "써브웨이 구의점",
      "description": "서울 광진구 자양로 113",
      "url": "http://place.map.kakao.com/256647097",
      "region": "서울특별시",
      "lat": 37.537889434602626,
      "lng": 127.08312330208159
    },
    {
      "title": "써브웨이 성수역점",
      "description": "서울 성동구 아차산로 113",
      "url": "http://place.map.kakao.com/1874927854",
      "region": "서울특별시",
      "lat": 37.54467575712758,
      "lng": 127.05701758373577
    },
    {
      "title": "써브웨이 강변역점",
      "description": "서울 광진구 강변역로4길 10",
      "url": "http://place.map.kakao.com/1072711855",
      "region": "서울특별시",
      "lat": 37.535309412010974,
      "lng": 127.09338249797437
    },
    {
      "title": "써브웨이 가락시장점",
      "description": "서울 송파구 중대로 109",
      "url": "http://place.map.kakao.com/1736636488",
      "region": "서울특별시",
      "lat": 37.4938430450264,
      "lng": 127.120480291285
    },
    {
      "title": "써브웨이 방배역점",
      "description": "서울 서초구 효령로 111",
      "url": "http://place.map.kakao.com/19157088",
      "region": "서울특별시",
      "lat": 37.481265076590894,
      "lng": 126.99618304782578
    },
    {
      "title": "써브웨이 방이역점",
      "description": "서울 송파구 마천로 39",
      "url": "http://place.map.kakao.com/1287913937",
      "region": "서울특별시",
      "lat": 37.5091308485665,
      "lng": 127.125249542679
    },
    {
      "title": "써브웨이 서울숲점",
      "description": "서울 성동구 왕십리로 108-1",
      "url": "http://place.map.kakao.com/1458192140",
      "region": "서울특별시",
      "lat": 37.547347090616725,
      "lng": 127.04477332416333
    },
    {
      "title": "써브웨이 광장점",
      "description": "서울 광진구 아차산로 480",
      "url": "http://place.map.kakao.com/665068241",
      "region": "서울특별시",
      "lat": 37.54050452901961,
      "lng": 127.09513715551425
    },
    {
      "title": "써브웨이 천호점",
      "description": "서울 강동구 올림픽로 664",
      "url": "http://place.map.kakao.com/27215429",
      "region": "서울특별시",
      "lat": 37.54067551445137,
      "lng": 127.12468788095005
    },
    {
      "title": "써브웨이 강동성심병원점",
      "description": "서울 강동구 성안로 147",
      "url": "http://place.map.kakao.com/27375650",
      "region": "서울특별시",
      "lat": 37.53641162837612,
      "lng": 127.13461373766656
    },
    {
      "title": "써브웨이 고덕역점",
      "description": "서울 강동구 동남로75길 13-10",
      "url": "http://place.map.kakao.com/375308049",
      "region": "서울특별시",
      "lat": 37.5538976641946,
      "lng": 127.1551064860394
    },
    {
      "title": "써브웨이 고덕비즈밸리점",
      "description": "서울 강동구 고덕비즈밸리로 38",
      "url": "http://place.map.kakao.com/1018906331",
      "region": "서울특별시",
      "lat": 37.5662713310296,
      "lng": 127.159622370881
    },
    {
      "title": "써브웨이 천호역점",
      "description": "서울 강동구 천호대로 1012",
      "url": "http://place.map.kakao.com/581552336",
      "region": "서울특별시",
      "lat": 37.537845810283066,
      "lng": 127.1243697527488
    },
    {
      "title": "써브웨이 명일역점",
      "description": "서울 강동구 양재대로 1625",
      "url": "http://place.map.kakao.com/812860448",
      "region": "서울특별시",
      "lat": 37.55059132577917,
      "lng": 127.1434492030667
    },
    {
      "title": "써브웨이 상일동점",
      "description": "서울 강동구 상일로6길 21",
      "url": "http://place.map.kakao.com/1174406793",
      "region": "서울특별시",
      "lat": 37.5497105965775,
      "lng": 127.17456437723445
    },
    {
      "title": "써브웨이 길동역점",
      "description": "서울 강동구 양재대로 1471",
      "url": "http://place.map.kakao.com/807231793",
      "region": "서울특별시",
      "lat": 37.537194593646,
      "lng": 127.13950756448
    },
    {
      "title": "써브웨이 암사역",
      "description": "서울 강동구 올림픽로 794",
      "url": "http://place.map.kakao.com/2082187414",
      "region": "서울특별시",
      "lat": 37.5518168355849,
      "lng": 127.128447766764
    },
    {
      "title": "서브웨이헤어샵",
      "description": "서울 강동구 명일로 165",
      "url": "http://place.map.kakao.com/16054432",
      "region": "서울특별시",
      "lat": 37.533684577079526,
      "lng": 127.1445199330386
    },
    {
      "title": "서브웨이미용실",
      "description": "서울 강동구 상암로15길 46",
      "url": "http://place.map.kakao.com/21601985",
      "region": "서울특별시",
      "lat": 37.55070862286077,
      "lng": 127.13170618077615
    },
    {
      "title": "서브웨이당구장",
      "description": "서울 강동구 양재대로 1477",
      "url": "http://place.map.kakao.com/18826675",
      "region": "서울특별시",
      "lat": 37.537785432802735,
      "lng": 127.13969083118847
    },
    {
      "title": "써브웨이 미아역점",
      "description": "서울 강북구 도봉로 209",
      "url": "http://place.map.kakao.com/1754763959",
      "region": "서울특별시",
      "lat": 37.627256463078,
      "lng": 127.025515671048
    },
    {
      "title": "써브웨이 수유역점",
      "description": "서울 강북구 오패산로 417",
      "url": "http://place.map.kakao.com/813882647",
      "region": "서울특별시",
      "lat": 37.63765015694806,
      "lng": 127.02587724643524
    },
    {
      "title": "써브웨이 삼양솔샘점",
      "description": "서울 강북구 삼양로 162",
      "url": "http://place.map.kakao.com/783300881",
      "region": "서울특별시",
      "lat": 37.6183879227186,
      "lng": 127.021616197119
    },
    {
      "title": "써브웨이 쌍문역점",
      "description": "서울 도봉구 도봉로 468",
      "url": "http://place.map.kakao.com/208907092",
      "region": "서울특별시",
      "lat": 37.6473786194493,
      "lng": 127.034367742463
    },
    {
      "title": "써브웨이 덕성여대점",
      "description": "서울 도봉구 삼양로 538",
      "url": "http://place.map.kakao.com/959529341",
      "region": "서울특별시",
      "lat": 37.6510625052861,
      "lng": 127.013176651971
    },
    {
      "title": "써브웨이 창동역점",
      "description": "서울 도봉구 마들로13길 61",
      "url": "http://place.map.kakao.com/1424865971",
      "region": "서울특별시",
      "lat": 37.65431956830442,
      "lng": 127.05009454107822
    },
    {
      "title": "써브웨이 장위뉴타운점",
      "description": "서울 성북구 돌곶이로40길 46",
      "url": "http://place.map.kakao.com/846887079",
      "region": "서울특별시",
      "lat": 37.61767992573921,
      "lng": 127.04835960817046
    },
    {
      "title": "써브웨이 방학역점",
      "description": "서울 도봉구 도봉로 684",
      "url": "http://place.map.kakao.com/960276313",
      "region": "서울특별시",
      "lat": 37.66547011922055,
      "lng": 127.04325628651763
    },
    {
      "title": "써브웨이 광운대역점",
      "description": "서울 노원구 광운로 57",
      "url": "http://place.map.kakao.com/2024470096",
      "region": "서울특별시",
      "lat": 37.62266353825251,
      "lng": 127.05962805159403
    },
    {
      "title": "써브웨이 노원점",
      "description": "서울 노원구 노해로 502",
      "url": "http://place.map.kakao.com/26321870",
      "region": "서울특별시",
      "lat": 37.654413016910546,
      "lng": 127.06369680888777
    },
    {
      "title": "써브웨이 정릉점",
      "description": "서울 성북구 보국문로 40",
      "url": "http://place.map.kakao.com/737114485",
      "region": "서울특별시",
      "lat": 37.60817494781077,
      "lng": 127.01024601725867
    },
    {
      "title": "써브웨이 길음뉴타운점",
      "description": "서울 성북구 길음로7길 6",
      "url": "http://place.map.kakao.com/1407323339",
      "region": "서울특별시",
      "lat": 37.6044152311639,
      "lng": 127.022436595109
    },
    {
      "title": "써브웨이 국민대학교점",
      "description": "서울 성북구 정릉로 77",
      "url": "http://place.map.kakao.com/96560541",
      "region": "서울특별시",
      "lat": 37.6121370054551,
      "lng": 126.997046199776
    },
    {
      "title": "써브웨이 동덕여대점",
      "description": "서울 성북구 화랑로13길 10",
      "url": "http://place.map.kakao.com/1400545660",
      "region": "서울특별시",
      "lat": 37.6038906515245,
      "lng": 127.042748366152
    },
    {
      "title": "써브웨이 종암점",
      "description": "서울 성북구 종암로 110",
      "url": "http://place.map.kakao.com/1517037264",
      "region": "서울특별시",
      "lat": 37.60006779357561,
      "lng": 127.03433464426989
    },
    {
      "title": "써브웨이 공릉점",
      "description": "서울 노원구 공릉로 207",
      "url": "http://place.map.kakao.com/19658550",
      "region": "서울특별시",
      "lat": 37.62791121159276,
      "lng": 127.07765332263375
    },
    {
      "title": "써브웨이 중계은행사거리점",
      "description": "서울 노원구 한글비석로 269",
      "url": "http://place.map.kakao.com/1374085143",
      "region": "서울특별시",
      "lat": 37.6516383359554,
      "lng": 127.076739739861
    },
    {
      "title": "써브웨이 성신여대입구역점",
      "description": "서울 성북구 동소문로 116",
      "url": "http://place.map.kakao.com/327447386",
      "region": "서울특별시",
      "lat": 37.5932211866432,
      "lng": 127.017943643228
    },
    {
      "title": "써브웨이 수락산역점",
      "description": "서울 노원구 동일로 1669",
      "url": "http://place.map.kakao.com/1868167331",
      "region": "서울특별시",
      "lat": 37.6774600217744,
      "lng": 127.054892687651
    },
    {
      "title": "써브웨이 묵동점",
      "description": "서울 중랑구 동일로 952",
      "url": "http://place.map.kakao.com/249646644",
      "region": "서울특별시",
      "lat": 37.615203385403525,
      "lng": 127.07673626041371
    },
    {
      "title": "써브웨이 한성대점",
      "description": "서울 성북구 동소문로 10",
      "url": "http://place.map.kakao.com/26944672",
      "region": "서울특별시",
      "lat": 37.58878421356775,
      "lng": 127.00736237861783
    },
    {
      "title": "써브웨이 경희대점",
      "description": "서울 동대문구 경희대로 5-1",
      "url": "http://place.map.kakao.com/20940783",
      "region": "서울특별시",
      "lat": 37.592150551007705,
      "lng": 127.05217588242424
    },
    {
      "title": "써브웨이 외대점",
      "description": "서울 동대문구 이문로 116",
      "url": "http://place.map.kakao.com/1408620335",
      "region": "서울특별시",
      "lat": 37.5969667243397,
      "lng": 127.060807843525
    },
    {
      "title": "써브웨이 고려대점",
      "description": "서울 성북구 고려대로24길 20",
      "url": "http://place.map.kakao.com/1269757894",
      "region": "서울특별시",
      "lat": 37.5853848079917,
      "lng": 127.029205886969
    },
    {
      "title": "써브웨이 대학로점",
      "description": "서울 종로구 동숭길 101",
      "url": "http://place.map.kakao.com/23149546",
      "region": "서울특별시",
      "lat": 37.58255112644522,
      "lng": 127.00397156028843
    },
    {
      "title": "써브웨이 중랑역점",
      "description": "서울 중랑구 망우로 203",
      "url": "http://place.map.kakao.com/1184866550",
      "region": "서울특별시",
      "lat": 37.5941692301593,
      "lng": 127.07548710898575
    },
    {
      "title": "써브웨이 성대점",
      "description": "서울 종로구 창경궁로 234",
      "url": "http://place.map.kakao.com/7936483",
      "region": "서울특별시",
      "lat": 37.5826061462489,
      "lng": 126.998659540809
    },
    {
      "title": "써브웨이 성균관대점",
      "description": "서울 종로구 성균관로 25-2",
      "url": "http://place.map.kakao.com/1107380173",
      "region": "서울특별시",
      "lat": 37.587431749981064,
      "lng": 126.99461064388474
    },
    {
      "title": "써브웨이 신설동역점",
      "description": "서울 동대문구 왕산로 15-1",
      "url": "http://place.map.kakao.com/2063985080",
      "region": "서울특별시",
      "lat": 37.57650282086971,
      "lng": 127.02526174410792
    },
    {
      "title": "써브웨이 서울시립대학교점",
      "description": "서울 동대문구 서울시립대로 163",
      "url": "http://place.map.kakao.com/1224674352",
      "region": "서울특별시",
      "lat": 37.5845619279146,
      "lng": 127.05707289927
    },
    {
      "title": "써브웨이 청량리역사점",
      "description": "서울 동대문구 왕산로 214",
      "url": "http://place.map.kakao.com/1196226920",
      "region": "서울특별시",
      "lat": 37.580488662048,
      "lng": 127.048753292175
    },
    {
      "title": "써브웨이 상봉역점",
      "description": "서울 중랑구 망우로 316",
      "url": "http://place.map.kakao.com/883429754",
      "region": "서울특별시",
      "lat": 37.5965210360132,
      "lng": 127.08756276785
    },
    {
      "title": "써브웨이 종로5가점",
      "description": "서울 종로구 종로 213-1",
      "url": "http://place.map.kakao.com/26897492",
      "region": "서울특별시",
      "lat": 37.5711743267257,
      "lng": 127.001584760129
    },
    {
      "title": "써브웨이 동대문역점",
      "description": "서울 종로구 종로 263-1",
      "url": "http://place.map.kakao.com/958125894",
      "region": "서울특별시",
      "lat": 37.57130746479269,
      "lng": 127.00720501154855
    },
    {
      "title": "써브웨이 북촌점",
      "description": "서울 종로구 율곡로 67",
      "url": "http://place.map.kakao.com/375386456",
      "region": "서울특별시",
      "lat": 37.577377833672266,
      "lng": 126.98666087314682
    },
    {
      "title": "써브웨이 발산역점",
      "description": "서울 강서구 마곡중앙6로 93",
      "url": "http://place.map.kakao.com/733096234",
      "region": "서울특별시",
      "lat": 37.560128295973556,
      "lng": 126.8376993071637
    },
    {
      "title": "써브웨이 가양역점",
      "description": "서울 강서구 양천로 470",
      "url": "http://place.map.kakao.com/2140466181",
      "region": "서울특별시",
      "lat": 37.56224232061983,
      "lng": 126.85233274713978
    },
    {
      "title": "써브웨이 화곡역점",
      "description": "서울 강서구 강서로 159-1",
      "url": "http://place.map.kakao.com/19157194",
      "region": "서울특별시",
      "lat": 37.541014067762696,
      "lng": 126.84066345020781
    },
    {
      "title": "써브웨이 마곡나루역점",
      "description": "서울 강서구 마곡서로 152",
      "url": "http://place.map.kakao.com/1220860553",
      "region": "서울특별시",
      "lat": 37.567729726121435,
      "lng": 126.8261202718125
    },
    {
      "title": "써브웨이 양천향교역점",
      "description": "서울 강서구 강서로 471",
      "url": "http://place.map.kakao.com/1710685107",
      "region": "서울특별시",
      "lat": 37.5674482932317,
      "lng": 126.840572070656
    },
    {
      "title": "써브웨이 목동사거리점",
      "description": "서울 강서구 등촌로 23",
      "url": "http://place.map.kakao.com/940967823",
      "region": "서울특별시",
      "lat": 37.5319893900416,
      "lng": 126.863468604965
    },
    {
      "title": "써브웨이 까치산역점",
      "description": "서울 강서구 강서로 53",
      "url": "http://place.map.kakao.com/784694441",
      "region": "서울특별시",
      "lat": 37.5324903815212,
      "lng": 126.845922162872
    },
    {
      "title": "써브웨이 증미역",
      "description": "서울 강서구 양천로 570",
      "url": "http://place.map.kakao.com/614455734",
      "region": "서울특별시",
      "lat": 37.5566920474778,
      "lng": 126.861899078199
    },
    {
      "title": "써브웨이 우장산역점",
      "description": "서울 강서구 강서로 지하 262",
      "url": "http://place.map.kakao.com/1950583639",
      "region": "서울특별시",
      "lat": 37.54900010466068,
      "lng": 126.8364084793297
    },
    {
      "title": "써브웨이 등촌역점",
      "description": "서울 양천구 공항대로 552",
      "url": "http://place.map.kakao.com/125440790",
      "region": "서울특별시",
      "lat": 37.549638505022216,
      "lng": 126.86692528013938
    },
    {
      "title": "써브웨이 염창역점",
      "description": "서울 양천구 공항대로 638",
      "url": "http://place.map.kakao.com/2123012642",
      "region": "서울특별시",
      "lat": 37.54670447283,
      "lng": 126.875667584733
    },
    {
      "title": "써브웨이 목동역점",
      "description": "서울 양천구 오목로 238",
      "url": "http://place.map.kakao.com/19659977",
      "region": "서울특별시",
      "lat": 37.52593366358933,
      "lng": 126.86400795303867
    },
    {
      "title": "써브웨이 신정네거리역점",
      "description": "서울 양천구 중앙로 265",
      "url": "http://place.map.kakao.com/1520357978",
      "region": "서울특별시",
      "lat": 37.5198499822902,
      "lng": 126.852788492687
    },
    {
      "title": "써브웨이 양천구청점",
      "description": "서울 양천구 목동서로 349",
      "url": "http://place.map.kakao.com/27293188",
      "region": "서울특별시",
      "lat": 37.51746350985087,
      "lng": 126.8650967952311
    },
    {
      "title": "써브웨이 망원한강공원점",
      "description": "서울 마포구 망원동 205-8",
      "url": "http://place.map.kakao.com/1940070759",
      "region": "서울특별시",
      "lat": 37.55395005181516,
      "lng": 126.89590524198758
    },
    {
      "title": "써브웨이 선유도역점",
      "description": "서울 영등포구 양평로 121",
      "url": "http://place.map.kakao.com/1462423479",
      "region": "서울특별시",
      "lat": 37.5375827163972,
      "lng": 126.89411199999346
    },
    {
      "title": "써브웨이 상암점",
      "description": "서울 마포구 월드컵북로 361",
      "url": "http://place.map.kakao.com/22482675",
      "region": "서울특별시",
      "lat": 37.577110596377466,
      "lng": 126.89140363299684
    },
    {
      "title": "써브웨이 당산역점",
      "description": "서울 영등포구 양평로 58",
      "url": "http://place.map.kakao.com/890446805",
      "region": "서울특별시",
      "lat": 37.535081833793555,
      "lng": 126.90067214562674
    },
    {
      "title": "써브웨이 상암DMC푸르지오시티점",
      "description": "서울 마포구 월드컵북로54길 25",
      "url": "http://place.map.kakao.com/274019397",
      "region": "서울특별시",
      "lat": 37.58167752046278,
      "lng": 126.88923576366768
    },
    {
      "title": "써브웨이 합정역메세나폴리스점",
      "description": "서울 마포구 양화로 45",
      "url": "http://place.map.kakao.com/26321115",
      "region": "서울특별시",
      "lat": 37.55076381623667,
      "lng": 126.9133746186048
    },
    {
      "title": "써브웨이 마포구청점",
      "description": "서울 마포구 월드컵로34길 7",
      "url": "http://place.map.kakao.com/1549392494",
      "region": "서울특별시",
      "lat": 37.5651628296274,
      "lng": 126.903169894527
    },
    {
      "title": "써브웨이 문래점",
      "description": "서울 영등포구 선유로 70",
      "url": "http://place.map.kakao.com/989745697",
      "region": "서울특별시",
      "lat": 37.52001866709239,
      "lng": 126.89004754538799
    },
    {
      "title": "써브웨이 영등포구청역점",
      "description": "서울 영등포구 당산로 138",
      "url": "http://place.map.kakao.com/806638639",
      "region": "서울특별시",
      "lat": 37.526947290561,
      "lng": 126.897156662657
    },
    {
      "title": "써브웨이 부천원종점",
      "description": "경기 부천시 오정구 소사로 742",
      "url": "http://place.map.kakao.com/1901049792",
      "region": "경기도",
      "lat": 37.52230918306,
      "lng": 126.805133926468
    },
    {
      "title": "써브웨이 망원역점",
      "description": "서울 마포구 월드컵로 87",
      "url": "http://place.map.kakao.com/18764202",
      "region": "서울특별시",
      "lat": 37.556461490695185,
      "lng": 126.90945896390052
    },
    {
      "title": "써브웨이 신도림점",
      "description": "서울 구로구 경인로 661",
      "url": "http://place.map.kakao.com/1852442576",
      "region": "서울특별시",
      "lat": 37.508941762493706,
      "lng": 126.88740361102667
    },
    {
      "title": "써브웨이 동양미래대점",
      "description": "서울 구로구 경인로 445-8",
      "url": "http://place.map.kakao.com/1992950170",
      "region": "서울특별시",
      "lat": 37.50100466893669,
      "lng": 126.86650725391407
    },
    {
      "title": "써브웨이 영등포점",
      "description": "서울 영등포구 영중로 25",
      "url": "http://place.map.kakao.com/25777341",
      "region": "서울특별시",
      "lat": 37.5185144468197,
      "lng": 126.905343239841
    },
    {
      "title": "써브웨이 오류동역",
      "description": "서울 구로구 경인로20길 4",
      "url": "http://place.map.kakao.com/1406839225",
      "region": "서울특별시",
      "lat": 37.4955821769204,
      "lng": 126.843550907336
    },
    {
      "title": "써브웨이 상수역점",
      "description": "서울 마포구 와우산로 44",
      "url": "http://place.map.kakao.com/27432909",
      "region": "서울특별시",
      "lat": 37.5483000538978,
      "lng": 126.923162633147
    },
    {
      "title": "써브웨이 여의도KBS본관점",
      "description": "서울 영등포구 국회대로62길 25",
      "url": "http://place.map.kakao.com/1202599602",
      "region": "서울특별시",
      "lat": 37.526195771370475,
      "lng": 126.91774606206421
    },
    {
      "title": "써브웨이 홍익대점",
      "description": "서울 마포구 홍익로 3",
      "url": "http://place.map.kakao.com/948550238",
      "region": "서울특별시",
      "lat": 37.55297131995347,
      "lng": 126.92392173233091
    },
    {
      "title": "써브웨이 구로NC점",
      "description": "서울 구로구 구로중앙로 152",
      "url": "http://place.map.kakao.com/2001583376",
      "region": "서울특별시",
      "lat": 37.5011390291857,
      "lng": 126.882741266286
    },
    {
      "title": "써브웨이 여의도국회의사당점",
      "description": "서울 영등포구 국회대로70길 19",
      "url": "http://place.map.kakao.com/845548912",
      "region": "서울특별시",
      "lat": 37.5290207348728,
      "lng": 126.920856391055
    },
    {
      "title": "써브웨이 홍대아트점",
      "description": "서울 마포구 와우산로 117",
      "url": "http://place.map.kakao.com/285790744",
      "region": "서울특별시",
      "lat": 37.553401991559866,
      "lng": 126.92647328347293
    },
    {
      "title": "써브웨이 고양행신점",
      "description": "경기 고양시 덕양구 충장로 11",
      "url": "http://place.map.kakao.com/559762294",
      "region": "경기도",
      "lat": 37.613874264262,
      "lng": 126.83381548414953
    },
    {
      "title": "써브웨이 연희점",
      "description": "서울 서대문구 연희로 93",
      "url": "http://place.map.kakao.com/23346975",
      "region": "서울특별시",
      "lat": 37.56645420173781,
      "lng": 126.93035419185034
    },
    {
      "title": "써브웨이 여의도화재보험점",
      "description": "서울 영등포구 국제금융로6길 38",
      "url": "http://place.map.kakao.com/694091049",
      "region": "서울특별시",
      "lat": 37.52144220895559,
      "lng": 126.92611438639449
    },
    {
      "title": "써브웨이 명지대점",
      "description": "서울 서대문구 거북골로 23",
      "url": "http://place.map.kakao.com/1849744013",
      "region": "서울특별시",
      "lat": 37.5800053944817,
      "lng": 126.924855390439
    },
    {
      "title": "써브웨이 서강대점",
      "description": "서울 마포구 백범로 21",
      "url": "http://place.map.kakao.com/223880589",
      "region": "서울특별시",
      "lat": 37.55284866241828,
      "lng": 126.93753613675611
    },
    {
      "title": "써브웨이 신풍역점",
      "description": "서울 영등포구 신풍로 28",
      "url": "http://place.map.kakao.com/131375123",
      "region": "서울특별시",
      "lat": 37.49973403119618,
      "lng": 126.9089349153961
    },
    {
      "title": "써브웨이 신촌로데오점",
      "description": "서울 서대문구 연세로 23",
      "url": "http://place.map.kakao.com/26944701",
      "region": "서울특별시",
      "lat": 37.5577469055691,
      "lng": 126.936634555992
    },
    {
      "title": "써브웨이 신촌점",
      "description": "서울 서대문구 신촌로 121",
      "url": "http://place.map.kakao.com/19157220",
      "region": "서울특별시",
      "lat": 37.5561950714819,
      "lng": 126.93946523185
    },
    {
      "title": "써브웨이 부동산",
      "description": "서울 강서구 강서로18가길 4",
      "url": "http://place.map.kakao.com/1859173837",
      "region": "서울특별시",
      "lat": 37.5341199625653,
      "lng": 126.847055877615
    },
    {
      "title": "써브웨이공인중개사사무소",
      "description": "서울 강서구 화곡로 154-7",
      "url": "http://place.map.kakao.com/1976445547",
      "region": "서울특별시",
      "lat": 37.5408707791301,
      "lng": 126.839311598196
    },
    {
      "title": "써브웨이 서울대점",
      "description": "서울 관악구 관악로 157",
      "url": "http://place.map.kakao.com/13081841",
      "region": "서울특별시",
      "lat": 37.47945520691699,
      "lng": 126.95208574444746
    },
    {
      "title": "써브웨이 낙성대역점",
      "description": "서울 관악구 남부순환로 1904",
      "url": "http://place.map.kakao.com/2093495429",
      "region": "서울특별시",
      "lat": 37.47787981985647,
      "lng": 126.96070616037045
    },
    {
      "title": "써브웨이 신림역점",
      "description": "서울 관악구 신림로 350",
      "url": "http://place.map.kakao.com/1505990962",
      "region": "서울특별시",
      "lat": 37.48550704332444,
      "lng": 126.9299488665473
    },
    {
      "title": "써브웨이 신림점",
      "description": "서울 관악구 신림로 318",
      "url": "http://place.map.kakao.com/323507370",
      "region": "서울특별시",
      "lat": 37.48255007929579,
      "lng": 126.93019471333915
    },
    {
      "title": "써브웨이 서울대벤처타운역점",
      "description": "서울 관악구 호암로 597",
      "url": "http://place.map.kakao.com/1162370059",
      "region": "서울특별시",
      "lat": 37.4707765583009,
      "lng": 126.933262415228
    },
    {
      "title": "써브웨이 숭실대점",
      "description": "서울 동작구 사당로 10",
      "url": "http://place.map.kakao.com/14564625",
      "region": "서울특별시",
      "lat": 37.49531966472594,
      "lng": 126.9554364245103
    },
    {
      "title": "써브웨이 사당역점",
      "description": "서울 서초구 동작대로 24",
      "url": "http://place.map.kakao.com/1455123944",
      "region": "서울특별시",
      "lat": 37.4786616754685,
      "lng": 126.982150488734
    },
    {
      "title": "써브웨이 보라매점",
      "description": "서울 관악구 보라매로3길 29",
      "url": "http://place.map.kakao.com/25406298",
      "region": "서울특별시",
      "lat": 37.49144878855727,
      "lng": 126.9248967046341
    },
    {
      "title": "써브웨이 이수역",
      "description": "서울 동작구 동작대로 119-1",
      "url": "http://place.map.kakao.com/365218874",
      "region": "서울특별시",
      "lat": 37.48736537764744,
      "lng": 126.98187478729808
    },
    {
      "title": "써브웨이 중앙대점",
      "description": "서울 동작구 흑석로 79",
      "url": "http://place.map.kakao.com/13081848",
      "region": "서울특별시",
      "lat": 37.50698428719987,
      "lng": 126.95845831346196
    },
    {
      "title": "써브웨이 신대방삼거리점",
      "description": "서울 동작구 상도로 105",
      "url": "http://place.map.kakao.com/545351629",
      "region": "서울특별시",
      "lat": 37.5007685743755,
      "lng": 126.931960066979
    },
    {
      "title": "써브웨이 보라매역점 (2025년 12월 예정)",
      "description": "서울 영등포구 신풍로 117",
      "url": "http://place.map.kakao.com/1160979996",
      "region": "서울특별시",
      "lat": 37.50012455373308,
      "lng": 126.91938732913147
    },
    {
      "title": "써브웨이 노량진역점",
      "description": "서울 동작구 노량진로 152-1",
      "url": "http://place.map.kakao.com/1688586029",
      "region": "서울특별시",
      "lat": 37.51351186540439,
      "lng": 126.94287944942158
    },
    {
      "title": "써브웨이 대림삼거리점",
      "description": "서울 영등포구 시흥대로 681",
      "url": "http://place.map.kakao.com/1650582157",
      "region": "서울특별시",
      "lat": 37.49227804323931,
      "lng": 126.90872798952896
    },
    {
      "title": "써브웨이 구로디지털점",
      "description": "서울 구로구 디지털로34길 55",
      "url": "http://place.map.kakao.com/10505997",
      "region": "서울특별시",
      "lat": 37.48396763069818,
      "lng": 126.89933784173078
    },
    {
      "title": "써브웨이 독산점",
      "description": "서울 금천구 독산동 291-6",
      "url": "http://place.map.kakao.com/250688439",
      "region": "서울특별시",
      "lat": 37.46956295770245,
      "lng": 126.89697193842471
    },
    {
      "title": "써브웨이 용산역점",
      "description": "서울 용산구 한강대로 69",
      "url": "http://place.map.kakao.com/897742926",
      "region": "서울특별시",
      "lat": 37.5275465316028,
      "lng": 126.96543276426058
    },
    {
      "title": "써브웨이 시흥",
      "description": "서울 금천구 시흥대로 224",
      "url": "http://place.map.kakao.com/1237931062",
      "region": "서울특별시",
      "lat": 37.453938686135,
      "lng": 126.901396640149
    },
    {
      "title": "써브웨이 가산그레이트밸리점",
      "description": "서울 금천구 디지털로9길 32",
      "url": "http://place.map.kakao.com/743049367",
      "region": "서울특별시",
      "lat": 37.4794924828803,
      "lng": 126.887529215357
    },
    {
      "title": "써브웨이 용산전자랜드점",
      "description": "서울 용산구 청파로 74",
      "url": "http://place.map.kakao.com/196509517",
      "region": "서울특별시",
      "lat": 37.53293258679813,
      "lng": 126.95936035391314
    },
    {
      "title": "써브웨이 가산디지털단지점",
      "description": "서울 금천구 가산디지털1로 165",
      "url": "http://place.map.kakao.com/2100298067",
      "region": "서울특별시",
      "lat": 37.48018002805258,
      "lng": 126.88116292463404
    },
    {
      "title": "써브웨이 광명소하점",
      "description": "경기 광명시 금하로 464",
      "url": "http://place.map.kakao.com/1112022262",
      "region": "경기도",
      "lat": 37.44824127021538,
      "lng": 126.88417097807597
    },
    {
      "title": "써브웨이 과천중앙점",
      "description": "경기 과천시 별양상가3로 14",
      "url": "http://place.map.kakao.com/1196671582",
      "region": "경기도",
      "lat": 37.4258416885871,
      "lng": 126.991246465693
    },
    {
      "title": "써브웨이 마포점",
      "description": "서울 마포구 마포대로 53",
      "url": "http://place.map.kakao.com/16532146",
      "region": "서울특별시",
      "lat": 37.5412133930567,
      "lng": 126.947239561702
    },
    {
      "title": "써브웨이 이태원역점",
      "description": "서울 용산구 이태원로 189",
      "url": "http://place.map.kakao.com/2031963101",
      "region": "서울특별시",
      "lat": 37.5348549977719,
      "lng": 126.994914256622
    },
    {
      "title": "써브웨이 광명철산역점",
      "description": "경기 광명시 철산로 15",
      "url": "http://place.map.kakao.com/447234502",
      "region": "경기도",
      "lat": 37.4763003467045,
      "lng": 126.867659135589
    },
    {
      "title": "써브웨이 공덕역롯데캐슬점",
      "description": "서울 마포구 마포대로 109",
      "url": "http://place.map.kakao.com/417565699",
      "region": "서울특별시",
      "lat": 37.544984625474676,
      "lng": 126.9505931563335
    },
    {
      "title": "써브웨이 군자역점",
      "description": "서울 광진구 능동로 290",
      "url": "http://place.map.kakao.com/792850221",
      "region": "서울특별시",
      "lat": 37.55560035308022,
      "lng": 127.07894196798092
    },
    {
      "title": "써브웨이 아차산역점",
      "description": "서울 광진구 천호대로 666",
      "url": "http://place.map.kakao.com/635229245",
      "region": "서울특별시",
      "lat": 37.551404351133925,
      "lng": 127.08938513932516
    },
    {
      "title": "써브웨이 세종대점",
      "description": "서울 광진구 광나루로 390",
      "url": "http://place.map.kakao.com/18779379",
      "region": "서울특별시",
      "lat": 37.547355578059815,
      "lng": 127.07293686590954
    },
    {
      "title": "써브웨이 중곡역점",
      "description": "서울 광진구 능동로 400",
      "url": "http://place.map.kakao.com/1043723585",
      "region": "서울특별시",
      "lat": 37.5651390527318,
      "lng": 127.084372605351
    },
    {
      "title": "써브웨이 장안사거리점",
      "description": "서울 동대문구 답십리로 293",
      "url": "http://place.map.kakao.com/978606223",
      "region": "서울특별시",
      "lat": 37.572449414102294,
      "lng": 127.07294548328595
    },
    {
      "title": "써브웨이 한양대점",
      "description": "서울 성동구 마조로 11",
      "url": "http://place.map.kakao.com/13081852",
      "region": "서울특별시",
      "lat": 37.559011091783354,
      "lng": 127.04067191430076
    },
    {
      "title": "써브웨이 왕십리역점",
      "description": "서울 성동구 왕십리로 328",
      "url": "http://place.map.kakao.com/380415856",
      "region": "서울특별시",
      "lat": 37.56279126138279,
      "lng": 127.03336791226478
    },
    {
      "title": "써브웨이 사가정역",
      "description": "서울 중랑구 면목로 349",
      "url": "http://place.map.kakao.com/1418499561",
      "region": "서울특별시",
      "lat": 37.5831065340577,
      "lng": 127.088276159565
    },
    {
      "title": "써브웨이 광명사거리역점",
      "description": "경기 광명시 광명로 892-1",
      "url": "http://place.map.kakao.com/937552491",
      "region": "경기도",
      "lat": 37.47864528951995,
      "lng": 126.85431423363788
    },
    {
      "title": "써브웨이 부천옥길점",
      "description": "경기 부천시 소사구 양지로 205",
      "url": "http://place.map.kakao.com/1875354217",
      "region": "경기도",
      "lat": 37.4677112368201,
      "lng": 126.824277893306
    },
    {
      "title": "써브웨이 부천역곡역점",
      "description": "경기 부천시 원미구 부일로 725",
      "url": "http://place.map.kakao.com/1264205970",
      "region": "경기도",
      "lat": 37.48565751474776,
      "lng": 126.81034435263217
    },
    {
      "title": "스튜디오 서브웨이",
      "description": "서울 관악구 호암로24길 66",
      "url": "http://place.map.kakao.com/1616894882",
      "region": "서울특별시",
      "lat": 37.4692386719076,
      "lng": 126.936791862129
    },
    {
      "title": "써브웨이 남양주별내점",
      "description": "경기 남양주시 별내중앙로 26",
      "url": "http://place.map.kakao.com/1909721741",
      "region": "경기도",
      "lat": 37.6456946073269,
      "lng": 127.125964596306
    },
    {
      "title": "써브웨이 구리갈매점",
      "description": "경기 구리시 갈매중앙로 80",
      "url": "http://place.map.kakao.com/2051500368",
      "region": "경기도",
      "lat": 37.6314431846535,
      "lng": 127.117776973122
    },
    {
      "title": "써브웨이 의정부역점",
      "description": "경기 의정부시 신흥로257번길 6",
      "url": "http://place.map.kakao.com/405427680",
      "region": "경기도",
      "lat": 37.7391943644442,
      "lng": 127.042828321072
    },
    {
      "title": "써브웨이 의정부역점 주차장",
      "description": "경기 의정부시 의정부동 432-31",
      "url": "http://place.map.kakao.com/971799442",
      "region": "경기도",
      "lat": 37.7391871269827,
      "lng": 127.042910002695
    },
    {
      "title": "써브웨이 상왕십리점",
      "description": "서울 성동구 왕십리로 410",
      "url": "http://place.map.kakao.com/794587564",
      "region": "서울특별시",
      "lat": 37.56533882943317,
      "lng": 127.02411024416726
    },
    {
      "title": "써브웨이 신당역점",
      "description": "서울 중구 퇴계로 388",
      "url": "http://place.map.kakao.com/1343610148",
      "region": "서울특별시",
      "lat": 37.56499079557954,
      "lng": 127.01465216000389
    },
    {
      "title": "써브웨이 신금호역점",
      "description": "서울 성동구 금호로 173",
      "url": "http://place.map.kakao.com/93514509",
      "region": "서울특별시",
      "lat": 37.55537101291731,
      "lng": 127.0197317549035
    },
    {
      "title": "써브웨이 동대문역사문화공원역점",
      "description": "서울 중구 장충단로 227-2",
      "url": "http://place.map.kakao.com/958649674",
      "region": "서울특별시",
      "lat": 37.5650725755243,
      "lng": 127.007189696585
    },
    {
      "title": "써브웨이 약수역점",
      "description": "서울 중구 다산로 153",
      "url": "http://place.map.kakao.com/1347216790",
      "region": "서울특별시",
      "lat": 37.55738669814363,
      "lng": 127.01184276716818
    },
    {
      "title": "써브웨이 충무로점",
      "description": "서울 중구 퇴계로 197",
      "url": "http://place.map.kakao.com/1770221168",
      "region": "서울특별시",
      "lat": 37.5614542366086,
      "lng": 126.993928893681
    },
    {
      "title": "써브웨이 을지로3가점",
      "description": "서울 중구 을지로 103-1",
      "url": "http://place.map.kakao.com/26932816",
      "region": "서울특별시",
      "lat": 37.566365250062,
      "lng": 126.98942353814229
    },
    {
      "title": "써브웨이 종로점",
      "description": "서울 종로구 종로 77",
      "url": "http://place.map.kakao.com/19157195",
      "region": "서울특별시",
      "lat": 37.57040783343064,
      "lng": 126.98593256813055
    },
    {
      "title": "써브웨이 명동성당점",
      "description": "서울 중구 명동길 74",
      "url": "http://place.map.kakao.com/1238085758",
      "region": "서울특별시",
      "lat": 37.56357547492129,
      "lng": 126.9865625992431
    },
    {
      "title": "써브웨이 시청점",
      "description": "서울 중구 세종대로 68",
      "url": "http://place.map.kakao.com/18234144",
      "region": "서울특별시",
      "lat": 37.5622737806049,
      "lng": 126.976589086915
    },
    {
      "title": "써브웨이 을지로입구점",
      "description": "서울 중구 남대문로 112",
      "url": "http://place.map.kakao.com/26944721",
      "region": "서울특별시",
      "lat": 37.56719251294978,
      "lng": 126.98298510996412
    },
    {
      "title": "써브웨이 안국점",
      "description": "서울 종로구 우정국로 69",
      "url": "http://place.map.kakao.com/18355072",
      "region": "서울특별시",
      "lat": 37.57519507540001,
      "lng": 126.98245802631722
    },
    {
      "title": "써브웨이 남영역점",
      "description": "서울 용산구 한강대로 271",
      "url": "http://place.map.kakao.com/23066944",
      "region": "서울특별시",
      "lat": 37.54240019841503,
      "lng": 126.972430117306
    },
    {
      "title": "써브웨이 숙명여대점",
      "description": "서울 용산구 청파로47길 42",
      "url": "http://place.map.kakao.com/15893184",
      "region": "서울특별시",
      "lat": 37.544828489548685,
      "lng": 126.9681620612801
    },
    {
      "title": "써브웨이 애오개역점",
      "description": "서울 마포구 마포대로 180",
      "url": "http://place.map.kakao.com/1653167",
      "region": "서울특별시",
      "lat": 37.55016281796345,
      "lng": 126.95550903664416
    },
    {
      "title": "써브웨이 이대점",
      "description": "서울 서대문구 이화여대길 34",
      "url": "http://place.map.kakao.com/24482243",
      "region": "서울특별시",
      "lat": 37.55847953105561,
      "lng": 126.94592358003743
    },
    {
      "title": "써브웨이 응암점",
      "description": "서울 은평구 은평로 108",
      "url": "http://place.map.kakao.com/43534883",
      "region": "서울특별시",
      "lat": 37.599707581084395,
      "lng": 126.91967295247464
    },
    {
      "title": "써브웨이 홍제점",
      "description": "서울 서대문구 통일로 432-1",
      "url": "http://place.map.kakao.com/26842333",
      "region": "서울특별시",
      "lat": 37.58776626494227,
      "lng": 126.9456985995571
    },
    {
      "title": "써브웨이 은평구청점",
      "description": "서울 은평구 은평로 200-1",
      "url": "http://place.map.kakao.com/784783700",
      "region": "서울특별시",
      "lat": 37.601153061424,
      "lng": 126.930036487393
    },
    {
      "title": "써브웨이 구산역점",
      "description": "서울 은평구 서오릉로 150",
      "url": "http://place.map.kakao.com/1596969881",
      "region": "서울특별시",
      "lat": 37.61189695670805,
      "lng": 126.91664999059324
    },
    {
      "title": "써브웨이 독립문점",
      "description": "서울 종로구 송월길 155",
      "url": "http://place.map.kakao.com/97967108",
      "region": "서울특별시",
      "lat": 37.571698633092716,
      "lng": 126.96115612574403
    },
    {
      "title": "써브웨이 연신내점",
      "description": "서울 은평구 연서로 215-1",
      "url": "http://place.map.kakao.com/26944705",
      "region": "서울특별시",
      "lat": 37.61787022986188,
      "lng": 126.91949201020621
    },
    {
      "title": "써브웨이 정동점",
      "description": "서울 중구 새문안로 30",
      "url": "http://place.map.kakao.com/1162348740",
      "region": "서울특별시",
      "lat": 37.56781856593112,
      "lng": 126.96900687871614
    },
    {
      "title": "써브웨이 광화문점",
      "description": "서울 종로구 새문안로3길 19",
      "url": "http://place.map.kakao.com/25538186",
      "region": "서울특별시",
      "lat": 37.57201358374303,
      "lng": 126.97258107842912
    },
    {
      "title": "써브웨이 충정로점",
      "description": "서울 서대문구 충정로 23",
      "url": "http://place.map.kakao.com/18618448",
      "region": "서울특별시",
      "lat": 37.56118116177816,
      "lng": 126.96294420359206
    },
    {
      "title": "써브웨이 경복궁점",
      "description": "서울 종로구 사직로 115",
      "url": "http://place.map.kakao.com/23520413",
      "region": "서울특별시",
      "lat": 37.576292153322655,
      "lng": 126.97150632729306
    },
    {
      "title": "써브웨이 순화동라마다점",
      "description": "서울 중구 칠패로 27",
      "url": "http://place.map.kakao.com/26944697",
      "region": "서울특별시",
      "lat": 37.560471682087744,
      "lng": 126.97197073600064
    },
    {
      "title": "써브웨이 서울역동자점",
      "description": "서울 용산구 후암로 107",
      "url": "http://place.map.kakao.com/18559941",
      "region": "서울특별시",
      "lat": 37.55345957536202,
      "lng": 126.97351247912675
    },
    {
      "title": "써브웨이 회현점",
      "description": "서울 중구 소공로 35",
      "url": "http://place.map.kakao.com/26944678",
      "region": "서울특별시",
      "lat": 37.55812665966767,
      "lng": 126.98160867077466
    },
    {
      "title": "써브웨이 한남점",
      "description": "서울 용산구 대사관로 63",
      "url": "http://place.map.kakao.com/27535614",
      "region": "서울특별시",
      "lat": 37.53346087089504,
      "lng": 127.00527232991779
    },
    {
      "title": "써브웨이 거여역점",
      "description": "서울 송파구 오금로 525",
      "url": "http://place.map.kakao.com/2147075629",
      "region": "서울특별시",
      "lat": 37.4930812490697,
      "lng": 127.147126159343
    },
    {
      "title": "써브웨이 하남감일점",
      "description": "경기 하남시 감일백제로 181",
      "url": "http://place.map.kakao.com/1593818741",
      "region": "경기도",
      "lat": 37.507803893976,
      "lng": 127.153330379742
    },
    {
      "title": "써브웨이 성남위례점",
      "description": "경기 성남시 수정구 위례광장로 104",
      "url": "http://place.map.kakao.com/419210786",
      "region": "경기도",
      "lat": 37.473613662747944,
      "lng": 127.1415609882286
    },
    {
      "title": "써브웨이 성남남위례역점",
      "description": "경기 성남시 수정구 위례광장로 21-13",
      "url": "http://place.map.kakao.com/1863790501",
      "region": "경기도",
      "lat": 37.464848631980104,
      "lng": 127.14005237805905
    },
    {
      "title": "써브웨이 구파발역점",
      "description": "서울 은평구 진관2로 29-21",
      "url": "http://place.map.kakao.com/26944641",
      "region": "서울특별시",
      "lat": 37.63587107159945,
      "lng": 126.91914460280208
    },
    {
      "title": "써브웨이 고양도래울점",
      "description": "경기 고양시 덕양구 삼원로 83",
      "url": "http://place.map.kakao.com/1195478927",
      "region": "경기도",
      "lat": 37.6381777805627,
      "lng": 126.874959016458
    },
    {
      "title": "써브웨이 구리인창",
      "description": "경기 구리시 건원대로 83",
      "url": "http://place.map.kakao.com/1238157610",
      "region": "경기도",
      "lat": 37.608208464877364,
      "lng": 127.13857098384604
    },
    {
      "title": "써브웨이 구리돌다리점",
      "description": "경기 구리시 경춘로 220",
      "url": "http://place.map.kakao.com/1237617019",
      "region": "경기도",
      "lat": 37.6003285287486,
      "lng": 127.139997928442
    },
    {
      "title": "써브웨이 남양주다산역점",
      "description": "경기 남양주시 다산중앙로145번길 9",
      "url": "http://place.map.kakao.com/714495255",
      "region": "경기도",
      "lat": 37.62563141970367,
      "lng": 127.15131895516116
    },
    {
      "title": "써브웨이 남양주법조타운점",
      "description": "경기 남양주시 다산중앙로82번안길 118",
      "url": "http://place.map.kakao.com/1856314465",
      "region": "경기도",
      "lat": 37.6120654591109,
      "lng": 127.164628842723
    },
    {
      "title": "써브웨이 남양주다산지금점",
      "description": "경기 남양주시 다산지금로 139",
      "url": "http://place.map.kakao.com/1789998181",
      "region": "경기도",
      "lat": 37.6005612172624,
      "lng": 127.17432980529
    },
    {
      "title": "써브웨이 광교중앙점",
      "description": "경기 수원시 영통구 센트럴타운로 107",
      "url": "http://place.map.kakao.com/930141135",
      "region": "경기도",
      "lat": 37.29122477522516,
      "lng": 127.04865511316376
    },
    {
      "title": "써브웨이 수원장안구청점",
      "description": "경기 수원시 장안구 경수대로 927",
      "url": "http://place.map.kakao.com/1108455992",
      "region": "경기도",
      "lat": 37.30172254032928,
      "lng": 127.00854174237453
    },
    {
      "title": "써브웨이 수원인계점",
      "description": "경기 수원시 팔달구 권광로 204",
      "url": "http://place.map.kakao.com/26312374",
      "region": "경기도",
      "lat": 37.265717661588475,
      "lng": 127.03370594298801
    },
    {
      "title": "써브웨이 수원망포역점",
      "description": "경기 수원시 영통구 영통로 195",
      "url": "http://place.map.kakao.com/19951371",
      "region": "경기도",
      "lat": 37.24532001512717,
      "lng": 127.05549175307519
    },
    {
      "title": "써브웨이 광교경기대후문점",
      "description": "경기 수원시 영통구 대학로 34",
      "url": "http://place.map.kakao.com/777904671",
      "region": "경기도",
      "lat": 37.29944147187834,
      "lng": 127.04368304278883
    },
    {
      "title": "써브웨이 수원아주대점",
      "description": "경기 수원시 팔달구 아주로 49-1",
      "url": "http://place.map.kakao.com/1811481273",
      "region": "경기도",
      "lat": 37.2793988491704,
      "lng": 127.043488788255
    },
    {
      "title": "써브웨이 수원정자점",
      "description": "경기 수원시 장안구 정자천로173번길 11-7",
      "url": "http://place.map.kakao.com/688440932",
      "region": "경기도",
      "lat": 37.29546680800563,
      "lng": 126.99421424672528
    },
    {
      "title": "써브웨이 수원천천점",
      "description": "경기 수원시 장안구 만석로19번길 11-2",
      "url": "http://place.map.kakao.com/1365289490",
      "region": "경기도",
      "lat": 37.296087518174275,
      "lng": 126.98352231001617
    },
    {
      "title": "써브웨이 수원영통점",
      "description": "경기 수원시 영통구 봉영로 1617",
      "url": "http://place.map.kakao.com/1198386118",
      "region": "경기도",
      "lat": 37.255509348049465,
      "lng": 127.07458324691123
    },
    {
      "title": "써브웨이 수원호매실점",
      "description": "경기 수원시 권선구 금곡로 204",
      "url": "http://place.map.kakao.com/820925999",
      "region": "경기도",
      "lat": 37.27379673302521,
      "lng": 126.95323114358196
    },
    {
      "title": "써브웨이 수원로데오점",
      "description": "경기 수원시 팔달구 매산로 7",
      "url": "http://place.map.kakao.com/948866055",
      "region": "경기도",
      "lat": 37.26716527566198,
      "lng": 127.00228863199608
    },
    {
      "title": "써브웨이 수원영통구청점",
      "description": "경기 수원시 영통구 효원로 383",
      "url": "http://place.map.kakao.com/615554610",
      "region": "경기도",
      "lat": 37.259163190413986,
      "lng": 127.04368795422313
    },
    {
      "title": "써브웨이 수원능실점",
      "description": "경기 수원시 권선구 호매실로104번길 24-43",
      "url": "http://place.map.kakao.com/1715653734",
      "region": "경기도",
      "lat": 37.257734440157954,
      "lng": 126.96245082493154
    },
    {
      "title": "써브웨이 수원역사점",
      "description": "경기 수원시 팔달구 덕영대로 924",
      "url": "http://place.map.kakao.com/1468791999",
      "region": "경기도",
      "lat": 37.26604800574588,
      "lng": 127.00023675153629
    },
    {
      "title": "써브웨이 수원경희대점",
      "description": "경기 수원시 영통구 덕영대로 1707",
      "url": "http://place.map.kakao.com/1657347280",
      "region": "경기도",
      "lat": 37.24791124460449,
      "lng": 127.0781554837477
    },
    {
      "title": "써브웨이 수원성균관대점",
      "description": "경기 수원시 장안구 서부로 2066",
      "url": "http://place.map.kakao.com/26944682",
      "region": "경기도",
      "lat": 37.2940764020148,
      "lng": 126.97357549647447
    },
    {
      "title": "써브웨이 광교엘포트점",
      "description": "경기 수원시 영통구 광교중앙로 145",
      "url": "http://place.map.kakao.com/450125163",
      "region": "경기도",
      "lat": 37.2870263600561,
      "lng": 127.05773829708
    },
    {
      "title": "써브웨이 용인흥덕점",
      "description": "경기 용인시 기흥구 흥덕2로87번길 18",
      "url": "http://place.map.kakao.com/1285658229",
      "region": "경기도",
      "lat": 37.2759107805739,
      "lng": 127.071589468389
    },
    {
      "title": "써브웨이 화성신영통점",
      "description": "경기 화성시 영통로 66",
      "url": "http://place.map.kakao.com/1200626959",
      "region": "경기도",
      "lat": 37.23606759954453,
      "lng": 127.06191191799181
    },
    {
      "title": "써브웨이 광교상현역점",
      "description": "경기 용인시 수지구 광교중앙로 305",
      "url": "http://place.map.kakao.com/152384689",
      "region": "경기도",
      "lat": 37.29726698776081,
      "lng": 127.06890398156392
    },
    {
      "title": "써브웨이 화성병점점",
      "description": "경기 화성시 효행로 1063",
      "url": "http://place.map.kakao.com/2139829251",
      "region": "경기도",
      "lat": 37.21494275708804,
      "lng": 127.04311039554862
    },
    {
      "title": "써브웨이 용인기흥구청점",
      "description": "경기 용인시 기흥구 구갈로 71-18",
      "url": "http://place.map.kakao.com/861030840",
      "region": "경기도",
      "lat": 37.28094254723571,
      "lng": 127.11087227307418
    },
    {
      "title": "써브웨이 동탄하이페리온점",
      "description": "경기 화성시 동탄반석로 156",
      "url": "http://place.map.kakao.com/27454759",
      "region": "경기도",
      "lat": 37.202181603139586,
      "lng": 127.07148091421216
    },
    {
      "title": "써브웨이 수지롯데몰",
      "description": "경기 용인시 수지구 성복2로 38",
      "url": "http://place.map.kakao.com/1890415163",
      "region": "경기도",
      "lat": 37.31248531997008,
      "lng": 127.08188628826146
    },
    {
      "title": "써브웨이 화성봉담점",
      "description": "경기 화성시 봉담읍 동화길 51",
      "url": "http://place.map.kakao.com/1672132749",
      "region": "경기도",
      "lat": 37.2192843809543,
      "lng": 126.955450601712
    },
    {
      "title": "써브웨이 동탄나루점",
      "description": "경기 화성시 동탄솔빛로 48",
      "url": "http://place.map.kakao.com/25975276",
      "region": "경기도",
      "lat": 37.19323078308683,
      "lng": 127.0733139831892
    },
    {
      "title": "써브웨이 용인수지점",
      "description": "경기 용인시 수지구 풍덕천로 122",
      "url": "http://place.map.kakao.com/26095818",
      "region": "경기도",
      "lat": 37.32254052366877,
      "lng": 127.0955499233686
    },
    {
      "title": "써브웨이 동탄하나로클럽점",
      "description": "경기 화성시 동탄순환대로27길 30",
      "url": "http://place.map.kakao.com/1768204231",
      "region": "경기도",
      "lat": 37.2081771492017,
      "lng": 127.105650172441
    },
    {
      "title": "써브웨이 동탄역점",
      "description": "경기 화성시 동탄역로 150",
      "url": "http://place.map.kakao.com/481262614",
      "region": "경기도",
      "lat": 37.19933872216779,
      "lng": 127.09834557267816
    },
    {
      "title": "써브웨이 기흥롯데프리미엄아울렛점",
      "description": "경기 용인시 기흥구 신고매로 124",
      "url": "http://place.map.kakao.com/887251319",
      "region": "경기도",
      "lat": 37.2252580705455,
      "lng": 127.121872586981
    },
    {
      "title": "써브웨이 분당서현점",
      "description": "경기 성남시 분당구 서현로 184",
      "url": "http://place.map.kakao.com/19157216",
      "region": "경기도",
      "lat": 37.38834082858117,
      "lng": 127.12412349456277
    },
    {
      "title": "써브웨이 성남단대오거리역점",
      "description": "경기 성남시 중원구 산성대로372번길 10",
      "url": "http://place.map.kakao.com/584731804",
      "region": "경기도",
      "lat": 37.44479346887608,
      "lng": 127.15824404536436
    },
    {
      "title": "써브웨이 성남터미널점",
      "description": "경기 성남시 분당구 성남대로925번길 16",
      "url": "http://place.map.kakao.com/1481544907",
      "region": "경기도",
      "lat": 37.4127677706588,
      "lng": 127.12809473716828
    },
    {
      "title": "써브웨이 서판교점",
      "description": "경기 성남시 분당구 운중로 142",
      "url": "http://place.map.kakao.com/1411746474",
      "region": "경기도",
      "lat": 37.3912481358818,
      "lng": 127.07877833483066
    },
    {
      "title": "써브웨이 성남시청점",
      "description": "경기 성남시 중원구 성남대로997번길 51-20",
      "url": "http://place.map.kakao.com/1509367480",
      "region": "경기도",
      "lat": 37.41706967947243,
      "lng": 127.12642453717794
    },
    {
      "title": "써브웨이 분당정자점",
      "description": "경기 성남시 분당구 성남대로331번길 13",
      "url": "http://place.map.kakao.com/24165091",
      "region": "경기도",
      "lat": 37.3654761079137,
      "lng": 127.106430238897
    },
    {
      "title": "써브웨이 판교브릿지타워점",
      "description": "경기 성남시 분당구 판교로227번길 6",
      "url": "http://place.map.kakao.com/998199500",
      "region": "경기도",
      "lat": 37.4027556202632,
      "lng": 127.099570814162
    },
    {
      "title": "써브웨이 분당미금역점",
      "description": "경기 성남시 분당구 돌마로 52",
      "url": "http://place.map.kakao.com/24287690",
      "region": "경기도",
      "lat": 37.3497117430908,
      "lng": 127.10790906953261
    },
    {
      "title": "써브웨이 분당수내점",
      "description": "경기 성남시 분당구 백현로101번길 21",
      "url": "http://place.map.kakao.com/1932305662",
      "region": "경기도",
      "lat": 37.3777096486583,
      "lng": 127.112887663854
    },
    {
      "title": "써브웨이 성남태평점",
      "description": "경기 성남시 수정구 수정로 179",
      "url": "http://place.map.kakao.com/1759365868",
      "region": "경기도",
      "lat": 37.443523944901635,
      "lng": 127.13965100701765
    },
    {
      "title": "써브웨이 성남모란역점",
      "description": "경기 성남시 중원구 성남대로 1156",
      "url": "http://place.map.kakao.com/1499652163",
      "region": "경기도",
      "lat": 37.43304607613907,
      "lng": 127.12932696615833
    },
    {
      "title": "써브웨이 오리역점",
      "description": "경기 성남시 분당구 성남대로43번길 10",
      "url": "http://place.map.kakao.com/25137143",
      "region": "경기도",
      "lat": 37.33994785105554,
      "lng": 127.10798255659788
    },
    {
      "title": "써브웨이 판교역점",
      "description": "경기 성남시 분당구 대왕판교로606번길 58",
      "url": "http://place.map.kakao.com/272821353",
      "region": "경기도",
      "lat": 37.3954195170845,
      "lng": 127.113555674018
    },
    {
      "title": "써브웨이 판교테크노밸리점",
      "description": "경기 성남시 분당구 대왕판교로 670",
      "url": "http://place.map.kakao.com/1859073157",
      "region": "경기도",
      "lat": 37.40191574672427,
      "lng": 127.1069335217297
    },
    {
      "title": "써브웨이미용실 본점",
      "description": "서울 강남구 광평로 280",
      "url": "http://place.map.kakao.com/838262195",
      "region": "서울특별시",
      "lat": 37.487312775087204,
      "lng": 127.10309766119725
    },
    {
      "title": "써브웨이 일산고양삼송점",
      "description": "경기 고양시 덕양구 권율대로 901",
      "url": "http://place.map.kakao.com/933923227",
      "region": "경기도",
      "lat": 37.66402721864976,
      "lng": 126.89062657380046
    },
    {
      "title": "써브웨이 일산동구청점",
      "description": "경기 고양시 일산동구 정발산로 38",
      "url": "http://place.map.kakao.com/21355003",
      "region": "경기도",
      "lat": 37.65699506976004,
      "lng": 126.77353817463563
    },
    {
      "title": "써브웨이 일산화정점",
      "description": "경기 고양시 덕양구 화정로 69",
      "url": "http://place.map.kakao.com/24710339",
      "region": "경기도",
      "lat": 37.634786946199014,
      "lng": 126.83373946515067
    },
    {
      "title": "써브웨이 일산후곡점",
      "description": "경기 고양시 일산서구 일산로 539",
      "url": "http://place.map.kakao.com/458862237",
      "region": "경기도",
      "lat": 37.6773887464808,
      "lng": 126.767987402653
    },
    {
      "title": "써브웨이 고양식사점",
      "description": "경기 고양시 일산동구 위시티로 18",
      "url": "http://place.map.kakao.com/1721375260",
      "region": "경기도",
      "lat": 37.6745623375139,
      "lng": 126.80751588279
    },
    {
      "title": "써브웨이 고양백마학원가점",
      "description": "경기 고양시 일산동구 일산로 233",
      "url": "http://place.map.kakao.com/166971903",
      "region": "경기도",
      "lat": 37.65683333150318,
      "lng": 126.78832895415903
    },
    {
      "title": "써브웨이 고양탄현점",
      "description": "경기 고양시 일산서구 일현로 97-11",
      "url": "http://place.map.kakao.com/275680565",
      "region": "경기도",
      "lat": 37.69426712038367,
      "lng": 126.76319991417581
    },
    {
      "title": "써브웨이 일산주엽역점",
      "description": "경기 고양시 일산서구 중앙로 1415",
      "url": "http://place.map.kakao.com/26944654",
      "region": "경기도",
      "lat": 37.669299648467536,
      "lng": 126.76249491474199
    },
    {
      "title": "써브웨이 고양대화역점",
      "description": "경기 고양시 일산서구 중앙로 1581",
      "url": "http://place.map.kakao.com/546269488",
      "region": "경기도",
      "lat": 37.6764017156209,
      "lng": 126.74632236843281
    },
    {
      "title": "써브웨이 일산레이킨스몰점",
      "description": "경기 고양시 일산서구 호수로 817",
      "url": "http://place.map.kakao.com/20281724",
      "region": "경기도",
      "lat": 37.66768187118483,
      "lng": 126.75131308610919
    },
    {
      "title": "써브웨이 고양원당점",
      "description": "경기 고양시 덕양구 호국로 781",
      "url": "http://place.map.kakao.com/1017944362",
      "region": "경기도",
      "lat": 37.656107424578785,
      "lng": 126.8353952237748
    },
    {
      "title": "써브웨이 일산마두역점",
      "description": "경기 고양시 일산동구 중앙로 1191",
      "url": "http://place.map.kakao.com/26832961",
      "region": "경기도",
      "lat": 37.652956832527074,
      "lng": 126.77682541433352
    },
    {
      "title": "써브웨이 고양원흥역점",
      "description": "경기 고양시 덕양구 원흥5로 25",
      "url": "http://place.map.kakao.com/4876288",
      "region": "경기도",
      "lat": 37.649407876221076,
      "lng": 126.87689715321883
    },
    {
      "title": "써브웨이 용인처인점",
      "description": "경기 용인시 처인구 명지로 17",
      "url": "http://place.map.kakao.com/300656291",
      "region": "경기도",
      "lat": 37.23449675444874,
      "lng": 127.18907989151143
    },
    {
      "title": "써브웨이 용인동백점",
      "description": "경기 용인시 기흥구 동백중앙로 283",
      "url": "http://place.map.kakao.com/817477001",
      "region": "경기도",
      "lat": 37.27800534642912,
      "lng": 127.15347529232677
    },
    {
      "title": "써브웨이 용인죽전점",
      "description": "경기 용인시 기흥구 죽전로 20",
      "url": "http://place.map.kakao.com/1217511308",
      "region": "경기도",
      "lat": 37.3203119258949,
      "lng": 127.111398281141
    },
    {
      "title": "써브웨이 용인동천점",
      "description": "경기 용인시 수지구 신수로 767",
      "url": "http://place.map.kakao.com/464758633",
      "region": "경기도",
      "lat": 37.3379949518998,
      "lng": 127.102103293719
    },
    {
      "title": "써브웨이 용인시청점",
      "description": "경기 용인시 처인구 중부대로 1143",
      "url": "http://place.map.kakao.com/1094615331",
      "region": "경기도",
      "lat": 37.2403581304865,
      "lng": 127.172378807941
    },
    {
      "title": "써브웨이 부천시청점",
      "description": "경기 부천시 원미구 석천로169번길 22",
      "url": "http://place.map.kakao.com/1802525608",
      "region": "경기도",
      "lat": 37.50291947606544,
      "lng": 126.76149619135404
    },
    {
      "title": "써브웨이 부천송내역점",
      "description": "경기 부천시 원미구 부일로 203",
      "url": "http://place.map.kakao.com/21582012",
      "region": "경기도",
      "lat": 37.489132897365565,
      "lng": 126.75245574899982
    },
    {
      "title": "써브웨이 부천상동점",
      "description": "경기 부천시 원미구 상동로 87",
      "url": "http://place.map.kakao.com/22319027",
      "region": "경기도",
      "lat": 37.50543122757949,
      "lng": 126.75227075086185
    },
    {
      "title": "써브웨이 부천위브더스테이트점",
      "description": "경기 부천시 원미구 신흥로 170",
      "url": "http://place.map.kakao.com/1427236417",
      "region": "경기도",
      "lat": 37.4985159084856,
      "lng": 126.77780718590508
    },
    {
      "title": "써브웨이 부천중동점",
      "description": "경기 부천시 원미구 길주로 288",
      "url": "http://place.map.kakao.com/20088573",
      "region": "경기도",
      "lat": 37.5025656360585,
      "lng": 126.774328876871
    },
    {
      "title": "써브웨이 부천역점",
      "description": "경기 부천시 원미구 부일로 448",
      "url": "http://place.map.kakao.com/24374846",
      "region": "경기도",
      "lat": 37.486088537730225,
      "lng": 126.78032245652263
    },
    {
      "title": "써브웨이 경기서인천지사",
      "description": "경기 부천시 원미구 소향로 31",
      "url": "http://place.map.kakao.com/921784843",
      "region": "경기도",
      "lat": 37.5038908268314,
      "lng": 126.751348459936
    },
    {
      "title": "써브웨이 인천삼산점",
      "description": "인천 부평구 체육관로 24",
      "url": "http://place.map.kakao.com/26944724",
      "region": "인천광역시",
      "lat": 37.5083030465096,
      "lng": 126.734382120332
    },
    {
      "title": "써브웨이 인천갈산점",
      "description": "인천 부평구 주부토로 236",
      "url": "http://place.map.kakao.com/526285782",
      "region": "인천광역시",
      "lat": 37.5158613840842,
      "lng": 126.72680389474
    },
    {
      "title": "써브웨이 부평중앙점",
      "description": "인천 부평구 부평문화로 63",
      "url": "http://place.map.kakao.com/1475240615",
      "region": "인천광역시",
      "lat": 37.494128084679,
      "lng": 126.723228319589
    },
    {
      "title": "써브웨이 인천부평시장역점",
      "description": "인천 부평구 부흥로 264",
      "url": "http://place.map.kakao.com/22894582",
      "region": "인천광역시",
      "lat": 37.4984079228983,
      "lng": 126.720959833874
    },
    {
      "title": "써브웨이 인천성모병원점",
      "description": "인천 부평구 동수로 49",
      "url": "http://place.map.kakao.com/33792053",
      "region": "인천광역시",
      "lat": 37.4853974186693,
      "lng": 126.724029388066
    },
    {
      "title": "써브웨이 인천계양구청점",
      "description": "인천 계양구 계산새로 85",
      "url": "http://place.map.kakao.com/26780006",
      "region": "인천광역시",
      "lat": 37.53815651163696,
      "lng": 126.73760617506615
    },
    {
      "title": "써브웨이 인천작전점",
      "description": "인천 계양구 계양대로 38",
      "url": "http://place.map.kakao.com/1547731463",
      "region": "인천광역시",
      "lat": 37.5272298379959,
      "lng": 126.722780251102
    },
    {
      "title": "써브웨이 인천계산역점",
      "description": "인천 계양구 경명대로 1055",
      "url": "http://place.map.kakao.com/2051270680",
      "region": "인천광역시",
      "lat": 37.54372805850713,
      "lng": 126.72426261057144
    },
    {
      "title": "써브웨이 인천산곡역점",
      "description": "인천 부평구 길주로364번길 9",
      "url": "http://place.map.kakao.com/1132467680",
      "region": "인천광역시",
      "lat": 37.508307236773746,
      "lng": 126.70321464347938
    },
    {
      "title": "써브웨이 인천동암점",
      "description": "인천 부평구 열우물로 45",
      "url": "http://place.map.kakao.com/735524349",
      "region": "인천광역시",
      "lat": 37.4721095377525,
      "lng": 126.700419728946
    },
    {
      "title": "써브웨이 인천모래내시장역점",
      "description": "인천 남동구 호구포로 818",
      "url": "http://place.map.kakao.com/1238625365",
      "region": "인천광역시",
      "lat": 37.4556329006142,
      "lng": 126.719934357808
    },
    {
      "title": "써브웨이 시흥대야점",
      "description": "경기 시흥시 비둘기공원로 21",
      "url": "http://place.map.kakao.com/1902481003",
      "region": "경기도",
      "lat": 37.443830221374284,
      "lng": 126.792249417709
    },
    {
      "title": "써브웨이 인천길병원점",
      "description": "인천 남동구 구월남로 153",
      "url": "http://place.map.kakao.com/196889508",
      "region": "인천광역시",
      "lat": 37.453221664020205,
      "lng": 126.70651219651337
    },
    {
      "title": "써브웨이 안산고잔점",
      "description": "경기 안산시 단원구 광덕대로 151",
      "url": "http://place.map.kakao.com/26607495",
      "region": "경기도",
      "lat": 37.310119598744464,
      "lng": 126.82925620735594
    },
    {
      "title": "써브웨이 한대역점",
      "description": "경기 안산시 상록구 광덕1로 385",
      "url": "http://place.map.kakao.com/27300631",
      "region": "경기도",
      "lat": 37.309098262534064,
      "lng": 126.85199395260543
    },
    {
      "title": "써브웨이 안산중앙점",
      "description": "경기 안산시 단원구 예술대학로 17",
      "url": "http://place.map.kakao.com/473482845",
      "region": "경기도",
      "lat": 37.31869082490107,
      "lng": 126.8365050735849
    },
    {
      "title": "써브웨이 안산한양대점",
      "description": "경기 안산시 상록구 한양대학로 60",
      "url": "http://place.map.kakao.com/121447815",
      "region": "경기도",
      "lat": 37.30079213364898,
      "lng": 126.83761251622327
    },
    {
      "title": "써브웨이 화성송산그린시티점",
      "description": "경기 화성시 수노을중앙로 130",
      "url": "http://place.map.kakao.com/1126846884",
      "region": "경기도",
      "lat": 37.285008144364326,
      "lng": 126.81786993119404
    },
    {
      "title": "써브웨이 시흥능곡역점",
      "description": "경기 시흥시 능곡번영길 26",
      "url": "http://place.map.kakao.com/1827911380",
      "region": "경기도",
      "lat": 37.370189910007,
      "lng": 126.80711762332716
    },
    {
      "title": "써브웨이 안양범계점",
      "description": "경기 안양시 동안구 시민대로 167",
      "url": "http://place.map.kakao.com/24324876",
      "region": "경기도",
      "lat": 37.39076607390261,
      "lng": 126.94977081651017
    },
    {
      "title": "써브웨이 안양1번가점",
      "description": "경기 안양시 만안구 만안로223번길 7",
      "url": "http://place.map.kakao.com/27178778",
      "region": "경기도",
      "lat": 37.40037419691575,
      "lng": 126.92240475653222
    },
    {
      "title": "써브웨이 안양평촌역점",
      "description": "경기 안양시 동안구 관평로170번길 43",
      "url": "http://place.map.kakao.com/1474618204",
      "region": "경기도",
      "lat": 37.39314189626729,
      "lng": 126.96326423263156
    },
    {
      "title": "써브웨이 안양평촌학원가점",
      "description": "경기 안양시 동안구 평촌대로 119",
      "url": "http://place.map.kakao.com/23578535",
      "region": "경기도",
      "lat": 37.38268329750025,
      "lng": 126.96001743506925
    },
    {
      "title": "써브웨이 인덕원역점",
      "description": "경기 안양시 동안구 관악대로 486",
      "url": "http://place.map.kakao.com/1118225334",
      "region": "경기도",
      "lat": 37.40229500024205,
      "lng": 126.97579187800811
    },
    {
      "title": "써브웨이 안양평촌스마트스퀘어점",
      "description": "경기 안양시 동안구 시민대로327번길 6",
      "url": "http://place.map.kakao.com/1484719284",
      "region": "경기도",
      "lat": 37.39649132679663,
      "lng": 126.96682283946302
    },
    {
      "title": "써브웨이 군포AK플라자금정",
      "description": "경기 군포시 엘에스로 143",
      "url": "http://place.map.kakao.com/671402764",
      "region": "경기도",
      "lat": 37.37217665482763,
      "lng": 126.94427381844363
    },
    {
      "title": "써브웨이 산본사거리점",
      "description": "경기 군포시 고산로 694",
      "url": "http://place.map.kakao.com/1374270382",
      "region": "경기도",
      "lat": 37.3715685378874,
      "lng": 126.935554140498
    },
    {
      "title": "써브웨이 산본로데오점",
      "description": "경기 군포시 광정로 60",
      "url": "http://place.map.kakao.com/1265625311",
      "region": "경기도",
      "lat": 37.35866870850872,
      "lng": 126.93074983077022
    },
    {
      "title": "써브웨이 광명일직점",
      "description": "경기 광명시 양지로 19",
      "url": "http://place.map.kakao.com/959782768",
      "region": "경기도",
      "lat": 37.41800246743413,
      "lng": 126.88253775812791
    },
    {
      "title": "써브웨이 남양주호평점",
      "description": "경기 남양주시 호평로 48",
      "url": "http://place.map.kakao.com/1286425683",
      "region": "경기도",
      "lat": 37.655749338119,
      "lng": 127.245226957636
    },
    {
      "title": "써브웨이 남양주진접점",
      "description": "경기 남양주시 진접읍 해밀예당1로 13",
      "url": "http://place.map.kakao.com/854738060",
      "region": "경기도",
      "lat": 37.7108585907207,
      "lng": 127.184876348463
    },
    {
      "title": "써브웨이 화성남양점",
      "description": "경기 화성시 남양읍 시청로 6",
      "url": "http://place.map.kakao.com/461144128",
      "region": "경기도",
      "lat": 37.208339520476116,
      "lng": 126.81863563920719
    },
    {
      "title": "써브웨이 화성향남점",
      "description": "경기 화성시 향남읍 향남로 392",
      "url": "http://place.map.kakao.com/2032795824",
      "region": "경기도",
      "lat": 37.12997205446894,
      "lng": 126.9213728976971
    },
    {
      "title": "써브웨이 동탄목동점",
      "description": "경기 화성시 동탄신리천로 411",
      "url": "http://place.map.kakao.com/383670881",
      "region": "경기도",
      "lat": 37.182595330892376,
      "lng": 127.12427026882236
    },
    {
      "title": "써브웨이 동탄호수공원점",
      "description": "경기 화성시 동탄대로 181",
      "url": "http://place.map.kakao.com/146096494",
      "region": "경기도",
      "lat": 37.17167880988808,
      "lng": 127.1059686594224
    },
    {
      "title": "써브웨이 시흥정왕점",
      "description": "경기 시흥시 중심상가로 195",
      "url": "http://place.map.kakao.com/1861901068",
      "region": "경기도",
      "lat": 37.34423609325457,
      "lng": 126.73676498334558
    },
    {
      "title": "써브웨이 평택로데오점",
      "description": "경기 평택시 평택로32번길 21",
      "url": "http://place.map.kakao.com/1968271591",
      "region": "경기도",
      "lat": 36.991280788561404,
      "lng": 127.0887422638605
    },
    {
      "title": "써브웨이 평택비전점",
      "description": "경기 평택시 비전5로 15",
      "url": "http://place.map.kakao.com/597900102",
      "region": "경기도",
      "lat": 37.0001566336577,
      "lng": 127.11292697476489
    },
    {
      "title": "써브웨이 평택송탄출장소점",
      "description": "경기 평택시 관광특구로 41",
      "url": "http://place.map.kakao.com/737864929",
      "region": "경기도",
      "lat": 37.066922708707466,
      "lng": 127.06335962582467
    },
    {
      "title": "써브웨이 평택고덕점",
      "description": "경기 평택시 고덕여염9길 40",
      "url": "http://place.map.kakao.com/413642316",
      "region": "경기도",
      "lat": 37.0405764968012,
      "lng": 127.051594821992
    },
    {
      "title": "써브웨이 평택동삭점",
      "description": "경기 평택시 지제동삭2로 181-40",
      "url": "http://place.map.kakao.com/1732859184",
      "region": "경기도",
      "lat": 37.01800214074593,
      "lng": 127.09484699597789
    },
    {
      "title": "써브웨이 안성공도점",
      "description": "경기 안성시 공도읍 공도로 93",
      "url": "http://place.map.kakao.com/1195888744",
      "region": "경기도",
      "lat": 37.0001847637968,
      "lng": 127.171438534841
    },
    {
      "title": "써브웨이 아산둔포점",
      "description": "충남 아산시 둔포면 아산밸리중앙로 80-24",
      "url": "http://place.map.kakao.com/1094342399",
      "region": "충청남도",
      "lat": 36.9199259131403,
      "lng": 127.057000213975
    },
    {
      "title": "써브웨이 안성중앙점",
      "description": "경기 안성시 중앙로 401",
      "url": "http://place.map.kakao.com/27341763",
      "region": "경기도",
      "lat": 37.00730850146757,
      "lng": 127.271508979014
    },
    {
      "title": "써브웨이 천안두정점",
      "description": "충남 천안시 서북구 두정로 178",
      "url": "http://place.map.kakao.com/1586474406",
      "region": "충청남도",
      "lat": 36.83359779903105,
      "lng": 127.1366062496951
    },
    {
      "title": "써브웨이 천안성정점",
      "description": "충남 천안시 서북구 쌍용대로 317",
      "url": "http://place.map.kakao.com/26498052",
      "region": "충청남도",
      "lat": 36.82554047860997,
      "lng": 127.13705597464237
    },
    {
      "title": "써브웨이 천안백석점",
      "description": "충남 천안시 서북구 동서대로 47",
      "url": "http://place.map.kakao.com/1425006076",
      "region": "충청남도",
      "lat": 36.8254220946987,
      "lng": 127.128482076389
    },
    {
      "title": "써브웨이 천안신부점",
      "description": "충남 천안시 동남구 만남로 13",
      "url": "http://place.map.kakao.com/23301441",
      "region": "충청남도",
      "lat": 36.81907176127493,
      "lng": 127.15372750537873
    },
    {
      "title": "써브웨이 천안신불당점",
      "description": "충남 천안시 서북구 불당21로 65",
      "url": "http://place.map.kakao.com/1034473837",
      "region": "충청남도",
      "lat": 36.81313579261859,
      "lng": 127.10724536199768
    },
    {
      "title": "써브웨이 의정부민락점",
      "description": "경기 의정부시 오목로225번길 162",
      "url": "http://place.map.kakao.com/1348869424",
      "region": "경기도",
      "lat": 37.7446005526978,
      "lng": 127.095811927942
    },
    {
      "title": "써브웨이 의정부용현점",
      "description": "경기 의정부시 충의로 83",
      "url": "http://place.map.kakao.com/1827740910",
      "region": "경기도",
      "lat": 37.7389526481145,
      "lng": 127.086123780252
    },
    {
      "title": "써브웨이 의정부금오점",
      "description": "경기 의정부시 청사로 41",
      "url": "http://place.map.kakao.com/144697731",
      "region": "경기도",
      "lat": 37.7519527492368,
      "lng": 127.069726261675
    },
    {
      "title": "써브웨이 시흥배곧신도시점",
      "description": "경기 시흥시 배곧3로 96",
      "url": "http://place.map.kakao.com/940766529",
      "region": "경기도",
      "lat": 37.37003883118668,
      "lng": 126.72992334780783
    },
    {
      "title": "써브웨이 시흥은계점",
      "description": "경기 시흥시 은계번영길 21",
      "url": "http://place.map.kakao.com/806750896",
      "region": "경기도",
      "lat": 37.437197239520025,
      "lng": 126.80347797504983
    },
    {
      "title": "써브웨이 인천서창점",
      "description": "인천 남동구 서창남로 41",
      "url": "http://place.map.kakao.com/1364024987",
      "region": "인천광역시",
      "lat": 37.4231765928441,
      "lng": 126.75049152214785
    },
    {
      "title": "써브웨이 인천논현점",
      "description": "인천 남동구 청능대로 583",
      "url": "http://place.map.kakao.com/25772040",
      "region": "인천광역시",
      "lat": 37.40129388158626,
      "lng": 126.72398629764162
    },
    {
      "title": "써브웨이 파주금촌",
      "description": "경기 파주시 문화로 111",
      "url": "http://place.map.kakao.com/749308558",
      "region": "경기도",
      "lat": 37.7640895635632,
      "lng": 126.774239118791
    },
    {
      "title": "써브웨이 파주야당역점",
      "description": "경기 파주시 경의로 1080",
      "url": "http://place.map.kakao.com/267758345",
      "region": "경기도",
      "lat": 37.71370198963804,
      "lng": 126.7600713790986
    },
    {
      "title": "써브웨이 파주운정산내",
      "description": "경기 파주시 교하로 75",
      "url": "http://place.map.kakao.com/2085398404",
      "region": "경기도",
      "lat": 37.7285562586122,
      "lng": 126.733227612526
    },
    {
      "title": "써브웨이 파주운정역점",
      "description": "경기 파주시 경의로1240번길 30",
      "url": "http://place.map.kakao.com/209986702",
      "region": "경기도",
      "lat": 37.7276767204818,
      "lng": 126.762633030748
    },
    {
      "title": "써브웨이 파주문산점",
      "description": "경기 파주시 문산읍 문향로 78-1",
      "url": "http://place.map.kakao.com/109187032",
      "region": "경기도",
      "lat": 37.8585671349831,
      "lng": 126.786115894906
    },
    {
      "title": "써브웨이 파주교하점",
      "description": "경기 파주시 청석로 256",
      "url": "http://place.map.kakao.com/1995510503",
      "region": "경기도",
      "lat": 37.72481778644341,
      "lng": 126.71760352840539
    },
    {
      "title": "써브웨이 파주운정한울",
      "description": "경기 파주시 미래로 369-13",
      "url": "http://place.map.kakao.com/1417927065",
      "region": "경기도",
      "lat": 37.7110716886532,
      "lng": 126.745293548856
    },
    {
      "title": "써브웨이 파주LGD점",
      "description": "경기 파주시 월롱면 엘지로 245",
      "url": "http://place.map.kakao.com/1302607029",
      "region": "경기도",
      "lat": 37.8159292161359,
      "lng": 126.756700649835
    },
    {
      "title": "써브웨이 김포장기동점",
      "description": "경기 김포시 김포한강4로 118",
      "url": "http://place.map.kakao.com/1831916661",
      "region": "경기도",
      "lat": 37.6446294381752,
      "lng": 126.668518644097
    },
    {
      "title": "써브웨이 김포사우점",
      "description": "경기 김포시 돌문로 43",
      "url": "http://place.map.kakao.com/1107942895",
      "region": "경기도",
      "lat": 37.61866865174388,
      "lng": 126.7181380207997
    },
    {
      "title": "써브웨이 김포풍무역점",
      "description": "경기 김포시 풍무1로 65-1",
      "url": "http://place.map.kakao.com/1115423221",
      "region": "경기도",
      "lat": 37.61081444586271,
      "lng": 126.73271890800221
    },
    {
      "title": "써브웨이 김포라베니체마치에비뉴점",
      "description": "경기 김포시 김포한강2로23번길 72",
      "url": "http://place.map.kakao.com/2061834989",
      "region": "경기도",
      "lat": 37.64009779892921,
      "lng": 126.6797148075384
    },
    {
      "title": "써브웨이 김포구래점",
      "description": "경기 김포시 김포한강7로 93",
      "url": "http://place.map.kakao.com/1353628909",
      "region": "경기도",
      "lat": 37.64570722108744,
      "lng": 126.62780510880756
    },
    {
      "title": "써브웨이 인천검단신도시점",
      "description": "인천 서구 이음5로 36",
      "url": "http://place.map.kakao.com/1146389788",
      "region": "인천광역시",
      "lat": 37.59394597283417,
      "lng": 126.71196167816683
    },
    {
      "title": "써브웨이 인천완정역점",
      "description": "인천 서구 서곶로 837",
      "url": "http://place.map.kakao.com/299349215",
      "region": "인천광역시",
      "lat": 37.592055393972224,
      "lng": 126.67310673063434
    },
    {
      "title": "써브웨이 인천검단사거리점",
      "description": "인천 서구 완정로 159",
      "url": "http://place.map.kakao.com/1525288035",
      "region": "인천광역시",
      "lat": 37.6015322549698,
      "lng": 126.658565682041
    },
    {
      "title": "써브웨이 인천서구청점",
      "description": "인천 서구 탁옥로 50",
      "url": "http://place.map.kakao.com/1139512618",
      "region": "인천광역시",
      "lat": 37.54372577402118,
      "lng": 126.67491562217334
    },
    {
      "title": "써브웨이 인천청라점",
      "description": "인천 서구 청라라임로 65",
      "url": "http://place.map.kakao.com/25970912",
      "region": "인천광역시",
      "lat": 37.53335509798435,
      "lng": 126.652841877532
    },
    {
      "title": "써브웨이 인천가정중앙점",
      "description": "인천 서구 가정로 388",
      "url": "http://place.map.kakao.com/1401381211",
      "region": "인천광역시",
      "lat": 37.5194477278481,
      "lng": 126.67336718626
    },
    {
      "title": "써브웨이 경기광주경안점",
      "description": "경기 광주시 중앙로 83",
      "url": "http://place.map.kakao.com/1073242540",
      "region": "경기도",
      "lat": 37.4072591676078,
      "lng": 127.259581629964
    },
    {
      "title": "써브웨이 경기광주태전",
      "description": "경기 광주시 벼루개로 36",
      "url": "http://place.map.kakao.com/414485674",
      "region": "경기도",
      "lat": 37.3825022055986,
      "lng": 127.232562082462
    },
    {
      "title": "써브웨이 이천창전점",
      "description": "경기 이천시 영창로 215",
      "url": "http://place.map.kakao.com/1286283581",
      "region": "경기도",
      "lat": 37.281053425660815,
      "lng": 127.44649932628502
    },
    {
      "title": "써브웨이 이천하이닉스점",
      "description": "경기 이천시 부발읍 경충대로 2096-4",
      "url": "http://place.map.kakao.com/666421811",
      "region": "경기도",
      "lat": 37.2521073610421,
      "lng": 127.490315147771
    },
    {
      "title": "써브웨이 여주중앙점",
      "description": "경기 여주시 세종로 23",
      "url": "http://place.map.kakao.com/806602783",
      "region": "경기도",
      "lat": 37.295740042144,
      "lng": 127.636907586785
    },
    {
      "title": "써브웨이 양주옥정점",
      "description": "경기 양주시 옥정로 214",
      "url": "http://place.map.kakao.com/506157644",
      "region": "경기도",
      "lat": 37.8206852860733,
      "lng": 127.092111040429
    },
    {
      "title": "써브웨이 양주덕계점",
      "description": "경기 양주시 회천중앙로 240",
      "url": "http://place.map.kakao.com/1896378984",
      "region": "경기도",
      "lat": 37.81918670624569,
      "lng": 127.05311894665988
    },
    {
      "title": "써브웨이 오산대역점",
      "description": "경기 오산시 내삼미로 89",
      "url": "http://place.map.kakao.com/1885210408",
      "region": "경기도",
      "lat": 37.1700697298241,
      "lng": 127.06593063453359
    },
    {
      "title": "써브웨이 하남미사역점",
      "description": "경기 하남시 미사강변동로 74",
      "url": "http://place.map.kakao.com/2022136900",
      "region": "경기도",
      "lat": 37.5618539139566,
      "lng": 127.193823612029
    },
    {
      "title": "써브웨이 하남시청역점",
      "description": "경기 하남시 신평로 65",
      "url": "http://place.map.kakao.com/1196820656",
      "region": "경기도",
      "lat": 37.539459772942585,
      "lng": 127.20546523766696
    },
    {
      "title": "써브웨이 경기양평점",
      "description": "경기 양평군 양평읍 양근로 198-1",
      "url": "http://place.map.kakao.com/607426712",
      "region": "경기도",
      "lat": 37.4891342460953,
      "lng": 127.4912032729
    },
    {
      "title": "써브웨이 춘천퇴계점",
      "description": "강원특별자치도 춘천시 영서로 2195",
      "url": "http://place.map.kakao.com/408293853",
      "region": "강원특별자치도",
      "lat": 37.86055610588849,
      "lng": 127.72843695873215
    },
    {
      "title": "써브웨이 인천운서메가스타점",
      "description": "인천 중구 신도시남로142번길 6",
      "url": "http://place.map.kakao.com/875259108",
      "region": "인천광역시",
      "lat": 37.49341906553392,
      "lng": 126.49149139138953
    },
    {
      "title": "써브웨이 인천영종점",
      "description": "인천 중구 하늘별빛로 75",
      "url": "http://place.map.kakao.com/417409517",
      "region": "인천광역시",
      "lat": 37.489787961668,
      "lng": 126.562809800027
    },
    {
      "title": "써브웨이 인천신포점",
      "description": "인천 중구 우현로35번길 26",
      "url": "http://place.map.kakao.com/391050844",
      "region": "인천광역시",
      "lat": 37.47102206001444,
      "lng": 126.62499337303953
    },
    {
      "title": "써브웨이 인천도화점",
      "description": "인천 미추홀구 숙골로88번길 12",
      "url": "http://place.map.kakao.com/1418258226",
      "region": "인천광역시",
      "lat": 37.46968290502006,
      "lng": 126.66414697918096
    },
    {
      "title": "써브웨이 인천인하대점",
      "description": "인천 미추홀구 인하로 100",
      "url": "http://place.map.kakao.com/1470822372",
      "region": "인천광역시",
      "lat": 37.44955218965685,
      "lng": 126.65648769010598
    },
    {
      "title": "써브웨이 인천주안역점",
      "description": "인천 미추홀구 주안로 89",
      "url": "http://place.map.kakao.com/1112223355",
      "region": "인천광역시",
      "lat": 37.46433087552258,
      "lng": 126.67930918526581
    },
    {
      "title": "써브웨이 인천송도8공구점",
      "description": "인천 연수구 랜드마크로 20",
      "url": "http://place.map.kakao.com/1087751957",
      "region": "인천광역시",
      "lat": 37.41608213721462,
      "lng": 126.62387238141416
    },
    {
      "title": "써브웨이 인천구월동로데오점",
      "description": "인천 남동구 예술로140번길 33",
      "url": "http://place.map.kakao.com/27247685",
      "region": "인천광역시",
      "lat": 37.44660824131439,
      "lng": 126.70265335505853
    },
    {
      "title": "써브웨이 인천연수점",
      "description": "인천 연수구 먼우금로 194",
      "url": "http://place.map.kakao.com/26944647",
      "region": "인천광역시",
      "lat": 37.41455821068345,
      "lng": 126.67693753879246
    },
    {
      "title": "써브웨이 인천송도점",
      "description": "인천 연수구 신송로 122",
      "url": "http://place.map.kakao.com/24899427",
      "region": "인천광역시",
      "lat": 37.3957881993293,
      "lng": 126.652307391819
    },
    {
      "title": "써브웨이 인천송도센트럴파크점",
      "description": "인천 연수구 센트럴로 194",
      "url": "http://place.map.kakao.com/24962450",
      "region": "인천광역시",
      "lat": 37.3944164025724,
      "lng": 126.641892526335
    },
    {
      "title": "써브웨이 인천송도트리플스트리트점",
      "description": "인천 연수구 송도과학로16번길 33-3",
      "url": "http://place.map.kakao.com/1829875775",
      "region": "인천광역시",
      "lat": 37.37991088048207,
      "lng": 126.66114918040742
    },
    {
      "title": "써브웨이 인천송도지웰푸르지오시티점",
      "description": "인천 연수구 하모니로 144",
      "url": "http://place.map.kakao.com/1147667085",
      "region": "인천광역시",
      "lat": 37.38423170539721,
      "lng": 126.64381987210872
    },
    {
      "title": "써브웨이 부산광복점",
      "description": "부산 중구 광복중앙로 3-1",
      "url": "http://place.map.kakao.com/26948137",
      "region": "부산광역시",
      "lat": 35.099654318326444,
      "lng": 129.03110682490154
    },
    {
      "title": "써브웨이 부산중앙점",
      "description": "부산 중구 중앙대로 102",
      "url": "http://place.map.kakao.com/27561647",
      "region": "부산광역시",
      "lat": 35.106890766913914,
      "lng": 129.0364219053886
    },
    {
      "title": "써브웨이 부산롯데백화점광복점",
      "description": "부산 중구 중앙대로 2",
      "url": "http://place.map.kakao.com/344991908",
      "region": "부산광역시",
      "lat": 35.09790053512597,
      "lng": 129.03616095841426
    },
    {
      "title": "써브웨이 부산부민점",
      "description": "부산 서구 구덕로226번길 3",
      "url": "http://place.map.kakao.com/1753122063",
      "region": "부산광역시",
      "lat": 35.10487237766486,
      "lng": 129.02025496849004
    },
    {
      "title": "써브웨이 부산역점",
      "description": "부산 동구 중앙대로 206",
      "url": "http://place.map.kakao.com/1817192104",
      "region": "부산광역시",
      "lat": 35.11450815282939,
      "lng": 129.0411486485692
    },
    {
      "title": "써브웨이 부산영도점",
      "description": "부산 영도구 태종로 107",
      "url": "http://place.map.kakao.com/919513335",
      "region": "부산광역시",
      "lat": 35.091263455296925,
      "lng": 129.04278160762422
    },
    {
      "title": "써브웨이 부산진역점",
      "description": "부산 동구 중앙대로 365",
      "url": "http://place.map.kakao.com/1278728250",
      "region": "부산광역시",
      "lat": 35.12838952117746,
      "lng": 129.04805242836915
    },
    {
      "title": "써브웨이 부산동의대점",
      "description": "부산 부산진구 엄광로 176",
      "url": "http://place.map.kakao.com/2084478111",
      "region": "부산광역시",
      "lat": 35.14100953201169,
      "lng": 129.03231831523973
    },
    {
      "title": "써브웨이 부산서면점",
      "description": "부산 부산진구 중앙대로 690",
      "url": "http://place.map.kakao.com/25817837",
      "region": "부산광역시",
      "lat": 35.1542717203739,
      "lng": 129.059383991978
    },
    {
      "title": "써브웨이 부산서면롯데점",
      "description": "부산 부산진구 서면로 51",
      "url": "http://place.map.kakao.com/1600983532",
      "region": "부산광역시",
      "lat": 35.155412889277834,
      "lng": 129.0575638598818
    },
    {
      "title": "써브웨이 부산주례점",
      "description": "부산 사상구 가야대로366번길 43",
      "url": "http://place.map.kakao.com/1117911820",
      "region": "부산광역시",
      "lat": 35.149079902913186,
      "lng": 129.01292095341836
    },
    {
      "title": "써브웨이 부산전포본점",
      "description": "부산 부산진구 전포대로199번길 44",
      "url": "http://place.map.kakao.com/45192470",
      "region": "부산광역시",
      "lat": 35.1546456091475,
      "lng": 129.0627784641524
    },
    {
      "title": "써브웨이 부산개금점",
      "description": "부산 부산진구 가야대로 486",
      "url": "http://place.map.kakao.com/949408849",
      "region": "부산광역시",
      "lat": 35.1527899581376,
      "lng": 129.025196164764
    },
    {
      "title": "써브웨이 부산전포점",
      "description": "부산 부산진구 전포대로200번길 16",
      "url": "http://place.map.kakao.com/131447402",
      "region": "부산광역시",
      "lat": 35.1543632565619,
      "lng": 129.066390082053
    },
    {
      "title": "써브웨이 부산대연점",
      "description": "부산 남구 수영로 246",
      "url": "http://place.map.kakao.com/1587905798",
      "region": "부산광역시",
      "lat": 35.135009127032305,
      "lng": 129.09351640797968
    },
    {
      "title": "써브웨이 부산하단아트몰링점",
      "description": "부산 사하구 낙동남로 1413",
      "url": "http://place.map.kakao.com/52515119",
      "region": "부산광역시",
      "lat": 35.1066412812555,
      "lng": 128.966293965348
    },
    {
      "title": "써브웨이 부산당감",
      "description": "부산 부산진구 동평로 98",
      "url": "http://place.map.kakao.com/455645982",
      "region": "부산광역시",
      "lat": 35.1654379526127,
      "lng": 129.040169021295
    },
    {
      "title": "써브웨이 부산부경대점",
      "description": "부산 남구 용소로 24",
      "url": "http://place.map.kakao.com/26944674",
      "region": "부산광역시",
      "lat": 35.135173647699816,
      "lng": 129.1005665851881
    },
    {
      "title": "써브웨이 부산경성대점",
      "description": "부산 남구 수영로325번길 12",
      "url": "http://place.map.kakao.com/229637130",
      "region": "부산광역시",
      "lat": 35.13862491938641,
      "lng": 129.10151096334434
    },
    {
      "title": "써브웨이 부산사상점",
      "description": "부산 사상구 사상로 211",
      "url": "http://place.map.kakao.com/1980879911",
      "region": "부산광역시",
      "lat": 35.16390497853458,
      "lng": 128.98326916024257
    },
    {
      "title": "써브웨이 부산양정점",
      "description": "부산 부산진구 양지로 4",
      "url": "http://place.map.kakao.com/538479828",
      "region": "부산광역시",
      "lat": 35.16999589390165,
      "lng": 129.06933288492783
    },
    {
      "title": "써브웨이 부산W스퀘어점",
      "description": "부산 남구 분포로 145",
      "url": "http://place.map.kakao.com/1296197957",
      "region": "부산광역시",
      "lat": 35.133985807742235,
      "lng": 129.11285395414936
    },
    {
      "title": "써브웨이 부산시청점",
      "description": "부산 연제구 중앙대로 1043",
      "url": "http://place.map.kakao.com/666693486",
      "region": "부산광역시",
      "lat": 35.181708901251916,
      "lng": 129.0778812179154
    },
    {
      "title": "써브웨이 부산남천점",
      "description": "부산 수영구 수영로 462",
      "url": "http://place.map.kakao.com/1340673123",
      "region": "부산광역시",
      "lat": 35.147059993564035,
      "lng": 129.11041070293967
    },
    {
      "title": "써브웨이 광안비치점",
      "description": "부산 수영구 광남로 155-1",
      "url": "http://place.map.kakao.com/27365821",
      "region": "부산광역시",
      "lat": 35.15524928352477,
      "lng": 129.11812419153603
    },
    {
      "title": "써브웨이 부산연산점",
      "description": "부산 연제구 중앙대로 1116",
      "url": "http://place.map.kakao.com/434107540",
      "region": "부산광역시",
      "lat": 35.187276646926975,
      "lng": 129.08157130194724
    },
    {
      "title": "써브웨이 부산법원점",
      "description": "부산 연제구 법원로32번길 18",
      "url": "http://place.map.kakao.com/465173392",
      "region": "부산광역시",
      "lat": 35.1911599258502,
      "lng": 129.074892892062
    },
    {
      "title": "써브웨이 부산홈플러스아시아드점",
      "description": "부산 연제구 종합운동장로 7",
      "url": "http://place.map.kakao.com/213654574",
      "region": "부산광역시",
      "lat": 35.19128449074764,
      "lng": 129.062118235021
    },
    {
      "title": "써브웨이 부산수영점",
      "description": "부산 수영구 수영로 693",
      "url": "http://place.map.kakao.com/886595857",
      "region": "부산광역시",
      "lat": 35.1678757417395,
      "lng": 129.115469997263
    },
    {
      "title": "써브웨이 부산동래점",
      "description": "부산 동래구 명륜로129번길 20",
      "url": "http://place.map.kakao.com/872968731",
      "region": "부산광역시",
      "lat": 35.20541826521895,
      "lng": 129.08122736514534
    },
    {
      "title": "써브웨이 부산토곡점",
      "description": "부산 연제구 과정로237번길 119",
      "url": "http://place.map.kakao.com/1530744073",
      "region": "부산광역시",
      "lat": 35.18470959169909,
      "lng": 129.10695772785843
    },
    {
      "title": "써브웨이 부산명륜점",
      "description": "부산 동래구 명륜로187번길 49",
      "url": "http://place.map.kakao.com/341119086",
      "region": "부산광역시",
      "lat": 35.211004732276486,
      "lng": 129.08000844517736
    },
    {
      "title": "써브웨이 트레이더스 연산점",
      "description": "부산 연제구 좌수영로 241",
      "url": "http://place.map.kakao.com/129087002",
      "region": "부산광역시",
      "lat": 35.185007374221364,
      "lng": 129.11217325094628
    },
    {
      "title": "써브웨이 부산덕천점",
      "description": "부산 북구 덕천1길 22",
      "url": "http://place.map.kakao.com/228503890",
      "region": "부산광역시",
      "lat": 35.2097443569175,
      "lng": 129.006757954292
    },
    {
      "title": "써브웨이 부산센텀점",
      "description": "부산 해운대구 센텀5로 55",
      "url": "http://place.map.kakao.com/1197993385",
      "region": "부산광역시",
      "lat": 35.17280038847747,
      "lng": 129.13144261124864
    },
    {
      "title": "써브웨이 부산반여점",
      "description": "부산 해운대구 선수촌로 75",
      "url": "http://place.map.kakao.com/866843694",
      "region": "부산광역시",
      "lat": 35.20056290257218,
      "lng": 129.1190348149932
    },
    {
      "title": "써브웨이 부산대점",
      "description": "부산 금정구 부산대학로 48",
      "url": "http://place.map.kakao.com/27457265",
      "region": "부산광역시",
      "lat": 35.2314186539085,
      "lng": 129.086070457708
    },
    {
      "title": "써브웨이 부산대역점",
      "description": "부산 금정구 금정로60번길 40",
      "url": "http://place.map.kakao.com/1116784321",
      "region": "부산광역시",
      "lat": 35.22932768155554,
      "lng": 129.0883869561955
    },
    {
      "title": "써브웨이 부산장전역점",
      "description": "부산 금정구 중앙대로1719번길 30",
      "url": "http://place.map.kakao.com/1721551279",
      "region": "부산광역시",
      "lat": 35.23790676456621,
      "lng": 129.0904489139963
    },
    {
      "title": "써브웨이 부산화명점",
      "description": "부산 북구 화명신도시로 130",
      "url": "http://place.map.kakao.com/27402853",
      "region": "부산광역시",
      "lat": 35.23548965114122,
      "lng": 129.0111572724486
    },
    {
      "title": "써브웨이 부산해운대비치점",
      "description": "부산 해운대구 구남로 42-1",
      "url": "http://place.map.kakao.com/1803673366",
      "region": "부산광역시",
      "lat": 35.16033547558221,
      "lng": 129.16131593386265
    },
    {
      "title": "써브웨이 부산좌동점",
      "description": "부산 해운대구 해운대로 794",
      "url": "http://place.map.kakao.com/1169457717",
      "region": "부산광역시",
      "lat": 35.16884806747424,
      "lng": 129.17583412679346
    },
    {
      "title": "써브웨이 부산명지국제신도시점",
      "description": "부산 강서구 명지국제8로 264",
      "url": "http://place.map.kakao.com/259718470",
      "region": "부산광역시",
      "lat": 35.09765607454801,
      "lng": 128.92142120864838
    },
    {
      "title": "써브웨이 부산명지점",
      "description": "부산 강서구 명지오션시티4로 61",
      "url": "http://place.map.kakao.com/696308862",
      "region": "부산광역시",
      "lat": 35.083607389185424,
      "lng": 128.9038642674571
    },
    {
      "title": "써브웨이 김해인제대점",
      "description": "경남 김해시 인제로 184",
      "url": "http://place.map.kakao.com/1844637508",
      "region": "경상남도",
      "lat": 35.245007969872454,
      "lng": 128.90410175106675
    },
    {
      "title": "써브웨이 정관점",
      "description": "부산 기장군 정관읍 정관로 565",
      "url": "http://place.map.kakao.com/1982663842",
      "region": "부산광역시",
      "lat": 35.32166421118311,
      "lng": 129.17592668395105
    },
    {
      "title": "써브웨이 부산기장신세계프리미엄아울렛점",
      "description": "부산 기장군 장안읍 정관로 1133",
      "url": "http://place.map.kakao.com/193363707",
      "region": "부산광역시",
      "lat": 35.324977367386566,
      "lng": 129.23747897784497
    },
    {
      "title": "써브웨이 부산기장메가마트점",
      "description": "부산 기장군 일광읍 기장대로 673",
      "url": "http://place.map.kakao.com/1827600384",
      "region": "부산광역시",
      "lat": 35.25462611392502,
      "lng": 129.22202187537937
    },
    {
      "title": "써브웨이 대구동성로점",
      "description": "대구 중구 국채보상로 598",
      "url": "http://place.map.kakao.com/1002783264",
      "region": "대구광역시",
      "lat": 35.87054511816333,
      "lng": 128.59603592241712
    },
    {
      "title": "써브웨이 대구경북대북문점",
      "description": "대구 북구 대학로 87",
      "url": "http://place.map.kakao.com/1080382055",
      "region": "대구광역시",
      "lat": 35.893072167090786,
      "lng": 128.60944648288083
    },
    {
      "title": "써브웨이 대구동촌DT점",
      "description": "대구 동구 해동로 259",
      "url": "http://place.map.kakao.com/1201040256",
      "region": "대구광역시",
      "lat": 35.88404941918425,
      "lng": 128.65673190826232
    },
    {
      "title": "써브웨이 대구침산점",
      "description": "대구 북구 침산남로 157",
      "url": "http://place.map.kakao.com/143679418",
      "region": "대구광역시",
      "lat": 35.88805769618733,
      "lng": 128.59299762362463
    },
    {
      "title": "써브웨이 대구동성로2호점",
      "description": "대구 중구 동성로6길 42",
      "url": "http://place.map.kakao.com/1280698870",
      "region": "대구광역시",
      "lat": 35.86860140199602,
      "lng": 128.597591193787
    },
    {
      "title": "써브웨이 대구반월당점",
      "description": "대구 중구 달구벌대로 2076",
      "url": "http://place.map.kakao.com/2082340809",
      "region": "대구광역시",
      "lat": 35.86570109780951,
      "lng": 128.59069783016437
    },
    {
      "title": "써브웨이 대구칠곡3지구점",
      "description": "대구 북구 학정로 422",
      "url": "http://place.map.kakao.com/1919824319",
      "region": "대구광역시",
      "lat": 35.94234649043174,
      "lng": 128.5638262866777
    },
    {
      "title": "써브웨이 대구계대동문점",
      "description": "대구 달서구 계대동문로 9",
      "url": "http://place.map.kakao.com/1710266899",
      "region": "대구광역시",
      "lat": 35.8557827890864,
      "lng": 128.493280212985
    },
    {
      "title": "써브웨이 대구수성구청역점",
      "description": "대구 수성구 달구벌대로 2513",
      "url": "http://place.map.kakao.com/1439650165",
      "region": "대구광역시",
      "lat": 35.85910894440404,
      "lng": 128.63765961040522
    },
    {
      "title": "써브웨이 대구상인역점",
      "description": "대구 달서구 월배로 222",
      "url": "http://place.map.kakao.com/780008900",
      "region": "대구광역시",
      "lat": 35.81866803878087,
      "lng": 128.5376921753171
    },
    {
      "title": "써브웨이 대구광장점",
      "description": "대구 서구 달구벌대로 1689",
      "url": "http://place.map.kakao.com/1604293978",
      "region": "대구광역시",
      "lat": 35.8554445067784,
      "lng": 128.550217766746
    },
    {
      "title": "써브웨이 대구평리DT점",
      "description": "대구 서구 서대구로 111",
      "url": "http://place.map.kakao.com/200019258",
      "region": "대구광역시",
      "lat": 35.8677646311876,
      "lng": 128.55505892897
    },
    {
      "title": "써브웨이 대구은행역점",
      "description": "대구 수성구 달구벌대로 2284",
      "url": "http://place.map.kakao.com/958543120",
      "region": "대구광역시",
      "lat": 35.85960246354589,
      "lng": 128.61230299696763
    },
    {
      "title": "써브웨이 대구지산점",
      "description": "대구 수성구 지범로 180",
      "url": "http://place.map.kakao.com/750082466",
      "region": "대구광역시",
      "lat": 35.821355652845114,
      "lng": 128.63878228969108
    },
    {
      "title": "써브웨이 대구동대구점",
      "description": "대구 동구 동부로 158",
      "url": "http://place.map.kakao.com/1967675792",
      "region": "대구광역시",
      "lat": 35.877130873982956,
      "lng": 128.62957126896455
    },
    {
      "title": "써브웨이 대구월성점",
      "description": "대구 달서구 조암로 9",
      "url": "http://place.map.kakao.com/1994601509",
      "region": "대구광역시",
      "lat": 35.82545907955078,
      "lng": 128.52879939644282
    },
    {
      "title": "써브웨이 대구범어점",
      "description": "대구 수성구 동대구로 389",
      "url": "http://place.map.kakao.com/634474390",
      "region": "대구광역시",
      "lat": 35.865249853706814,
      "lng": 128.62641081343529
    },
    {
      "title": "써브웨이 대구영대병원역점",
      "description": "대구 남구 대명로 287",
      "url": "http://place.map.kakao.com/1355478156",
      "region": "대구광역시",
      "lat": 35.8440335142656,
      "lng": 128.587324237446
    },
    {
      "title": "써브웨이 대구죽전점",
      "description": "대구 달서구 와룡로 123",
      "url": "http://place.map.kakao.com/1827818024",
      "region": "대구광역시",
      "lat": 35.84408231557299,
      "lng": 128.536716187202
    },
    {
      "title": "써브웨이 대구테크노폴리스점",
      "description": "대구 달성군 현풍읍 테크노상업로 62",
      "url": "http://place.map.kakao.com/1993597363",
      "region": "대구광역시",
      "lat": 35.69329332886884,
      "lng": 128.45647020682992
    },
    {
      "title": "써브웨이 대구수성롯데슈퍼점",
      "description": "대구 수성구 수성로 227",
      "url": "http://place.map.kakao.com/131411375",
      "region": "대구광역시",
      "lat": 35.8459583908416,
      "lng": 128.612024509181
    },
    {
      "title": "써브웨이 대구시지점",
      "description": "대구 수성구 달구벌대로 3201",
      "url": "http://place.map.kakao.com/1151743066",
      "region": "대구광역시",
      "lat": 35.840609794318986,
      "lng": 128.7072239792606
    },
    {
      "title": "써브웨이 대구교대점",
      "description": "대구 남구 중앙대로 243",
      "url": "http://place.map.kakao.com/803202866",
      "region": "대구광역시",
      "lat": 35.8551206616684,
      "lng": 128.59036463620657
    },
    {
      "title": "써브웨이 대구서부정류장점",
      "description": "대구 달서구 월배로 487",
      "url": "http://place.map.kakao.com/2005428337",
      "region": "대구광역시",
      "lat": 35.8364902440622,
      "lng": 128.556307471662
    },
    {
      "title": "써브웨이 대구만촌점",
      "description": "대구 수성구 달구벌대로 2640",
      "url": "http://place.map.kakao.com/1079394461",
      "region": "대구광역시",
      "lat": 35.856229014762,
      "lng": 128.650556032538
    },
    {
      "title": "써브웨이 대구태전점",
      "description": "대구 북구 칠곡중앙대로 332",
      "url": "http://place.map.kakao.com/1852531760",
      "region": "대구광역시",
      "lat": 35.9253344812691,
      "lng": 128.5475814253
    },
    {
      "title": "써브웨이 대구다사점",
      "description": "대구 달성군 다사읍 달구벌대로 855",
      "url": "http://place.map.kakao.com/1670234445",
      "region": "대구광역시",
      "lat": 35.85959525922852,
      "lng": 128.46365375429406
    },
    {
      "title": "써브웨이 대구각산점",
      "description": "대구 동구 안심로 389",
      "url": "http://place.map.kakao.com/784902207",
      "region": "대구광역시",
      "lat": 35.869200005247,
      "lng": 128.726569526701
    },
    {
      "title": "써브웨이 대구율하롯데몰점",
      "description": "대구 동구 안심로 80",
      "url": "http://place.map.kakao.com/1525468330",
      "region": "대구광역시",
      "lat": 35.8684630173764,
      "lng": 128.693331610762
    },
    {
      "title": "써브웨이 대구이시아폴리스점",
      "description": "대구 동구 팔공로51길 15-8",
      "url": "http://place.map.kakao.com/976337932",
      "region": "대구광역시",
      "lat": 35.922156812180944,
      "lng": 128.63897871297613
    },
    {
      "title": "써브웨이 광주상무점",
      "description": "광주 서구 치평로 86",
      "url": "http://place.map.kakao.com/548911471",
      "region": "광주광역시",
      "lat": 35.15480008453553,
      "lng": 126.8479289314587
    },
    {
      "title": "써브웨이 광주전남대후문점",
      "description": "광주 북구 우치로 124",
      "url": "http://place.map.kakao.com/581894587",
      "region": "광주광역시",
      "lat": 35.17842978079833,
      "lng": 126.91228743666815
    },
    {
      "title": "써브웨이 광주첨단점",
      "description": "광주 광산구 첨단중앙로 110",
      "url": "http://place.map.kakao.com/98727217",
      "region": "광주광역시",
      "lat": 35.21500899853577,
      "lng": 126.84315000349991
    },
    {
      "title": "써브웨이 광주화정점",
      "description": "광주 서구 염화로 75-1",
      "url": "http://place.map.kakao.com/107977816",
      "region": "광주광역시",
      "lat": 35.141315621030444,
      "lng": 126.8737311819435
    },
    {
      "title": "써브웨이 광주주월점",
      "description": "광주 남구 서문대로 749",
      "url": "http://place.map.kakao.com/292653968",
      "region": "광주광역시",
      "lat": 35.12632130759743,
      "lng": 126.89745212482435
    },
    {
      "title": "써브웨이 광주하남점",
      "description": "광주 광산구 무진대로 279",
      "url": "http://place.map.kakao.com/2019348670",
      "region": "광주광역시",
      "lat": 35.16252191511054,
      "lng": 126.81073977048405
    },
    {
      "title": "써브웨이 광주운암점",
      "description": "광주 북구 북문대로 117",
      "url": "http://place.map.kakao.com/925052792",
      "region": "광주광역시",
      "lat": 35.179808125943836,
      "lng": 126.8745763009079
    },
    {
      "title": "써브웨이 조선대점",
      "description": "광주 동구 필문대로287번길 15-22",
      "url": "http://place.map.kakao.com/1130670491",
      "region": "광주광역시",
      "lat": 35.1460929413121,
      "lng": 126.92931736029007
    },
    {
      "title": "써브웨이 광주봉선점",
      "description": "광주 남구 봉선로 176",
      "url": "http://place.map.kakao.com/876645761",
      "region": "광주광역시",
      "lat": 35.12286959132299,
      "lng": 126.9143645577983
    },
    {
      "title": "써브웨이 광주오치점",
      "description": "광주 북구 설죽로 334",
      "url": "http://place.map.kakao.com/1618423618",
      "region": "광주광역시",
      "lat": 35.18929095183486,
      "lng": 126.89932635301972
    },
    {
      "title": "써브웨이 광주금호점",
      "description": "광주 서구 금화로 58",
      "url": "http://place.map.kakao.com/808285777",
      "region": "광주광역시",
      "lat": 35.13176270574337,
      "lng": 126.85496198894525
    },
    {
      "title": "써브웨이 광주수완점",
      "description": "광주 광산구 장신로 133",
      "url": "http://place.map.kakao.com/1330721949",
      "region": "광주광역시",
      "lat": 35.1909464733726,
      "lng": 126.82472262345408
    },
    {
      "title": "써브웨이 광주신용점",
      "description": "광주 북구 첨단연신로91번길 10",
      "url": "http://place.map.kakao.com/1790872612",
      "region": "광주광역시",
      "lat": 35.20640934104555,
      "lng": 126.86333820336104
    },
    {
      "title": "써브웨이 광주일곡점",
      "description": "광주 북구 설죽로 518-4",
      "url": "http://place.map.kakao.com/1167515525",
      "region": "광주광역시",
      "lat": 35.204599054183525,
      "lng": 126.8987408073462
    },
    {
      "title": "써브웨이 광주유스퀘어점",
      "description": "광주 서구 무진대로 904",
      "url": "http://place.map.kakao.com/1137817011",
      "region": "광주광역시",
      "lat": 35.1605749204499,
      "lng": 126.879872019769
    },
    {
      "title": "써브웨이 광주선운점",
      "description": "광주 광산구 어등대로 418",
      "url": "http://place.map.kakao.com/1547829619",
      "region": "광주광역시",
      "lat": 35.14866826789107,
      "lng": 126.76926749261484
    },
    {
      "title": "써브웨이 광주신창점",
      "description": "광주 광산구 신창로 121",
      "url": "http://place.map.kakao.com/1980297702",
      "region": "광주광역시",
      "lat": 35.196265136893686,
      "lng": 126.83816242128066
    },
    {
      "title": "써브웨이 대전은행점",
      "description": "대전 중구 대종로488번길 25",
      "url": "http://place.map.kakao.com/774103883",
      "region": "대전광역시",
      "lat": 36.328590921410544,
      "lng": 127.42748052742606
    },
    {
      "title": "써브웨이 대전관평점",
      "description": "대전 유성구 관들1길 49",
      "url": "http://place.map.kakao.com/26327115",
      "region": "대전광역시",
      "lat": 36.42559074018454,
      "lng": 127.38935310861396
    },
    {
      "title": "써브웨이 대전시청점",
      "description": "대전 서구 둔산로123번길 21",
      "url": "http://place.map.kakao.com/2024159813",
      "region": "대전광역시",
      "lat": 36.35226203893262,
      "lng": 127.38703802975567
    },
    {
      "title": "써브웨이 대전둔산점",
      "description": "대전 서구 둔산로 18",
      "url": "http://place.map.kakao.com/24910024",
      "region": "대전광역시",
      "lat": 36.35197300995971,
      "lng": 127.37595172145856
    },
    {
      "title": "써브웨이 대전가오점",
      "description": "대전 동구 동구청로 95",
      "url": "http://place.map.kakao.com/1126270594",
      "region": "대전광역시",
      "lat": 36.30648271775343,
      "lng": 127.45685400533411
    },
    {
      "title": "써브웨이 대전월평선사점",
      "description": "대전 서구 월평북로 95",
      "url": "http://place.map.kakao.com/1682388775",
      "region": "대전광역시",
      "lat": 36.36241587413159,
      "lng": 127.37898523506998
    },
    {
      "title": "써브웨이 대전궁동점",
      "description": "대전 유성구 궁동로18번길 10",
      "url": "http://place.map.kakao.com/25430439",
      "region": "대전광역시",
      "lat": 36.3627168923059,
      "lng": 127.347960908395
    },
    {
      "title": "써브웨이 대전오류점",
      "description": "대전 중구 계백로 1715",
      "url": "http://place.map.kakao.com/123064056",
      "region": "대전광역시",
      "lat": 36.321895757637,
      "lng": 127.409817452276
    },
    {
      "title": "써브웨이 대전유성터미널점",
      "description": "대전 유성구 계룡로 42-1",
      "url": "http://place.map.kakao.com/1434565723",
      "region": "대전광역시",
      "lat": 36.35520018704502,
      "lng": 127.33564544017942
    },
    {
      "title": "써브웨이 대전용문점",
      "description": "대전 서구 계룡로 626",
      "url": "http://place.map.kakao.com/160670657",
      "region": "대전광역시",
      "lat": 36.339334143243406,
      "lng": 127.39168297470009
    },
    {
      "title": "써브웨이 대전한남대점",
      "description": "대전 대덕구 한남로25번길 5",
      "url": "http://place.map.kakao.com/1725368711",
      "region": "대전광역시",
      "lat": 36.35083441914181,
      "lng": 127.42526484462307
    },
    {
      "title": "써브웨이 대전목원대점",
      "description": "대전 서구 도안북로93번길 31",
      "url": "http://place.map.kakao.com/331562421",
      "region": "대전광역시",
      "lat": 36.3314711663243,
      "lng": 127.33859546152897
    },
    {
      "title": "써브웨이 대전복합터미널점",
      "description": "대전 동구 동서대로1695번길 16",
      "url": "http://place.map.kakao.com/736964803",
      "region": "대전광역시",
      "lat": 36.3503818382795,
      "lng": 127.437795257919
    },
    {
      "title": "써브웨이 대전노은점",
      "description": "대전 유성구 노은로 150",
      "url": "http://place.map.kakao.com/1261739644",
      "region": "대전광역시",
      "lat": 36.373051290606455,
      "lng": 127.31832148439857
    },
    {
      "title": "써브웨이 대전충남대정문점",
      "description": "대전 유성구 한밭대로 414",
      "url": "http://place.map.kakao.com/2087143291",
      "region": "대전광역시",
      "lat": 36.36155894460351,
      "lng": 127.34514352280019
    },
    {
      "title": "써브웨이 대전탄방점",
      "description": "대전 서구 문정로 88",
      "url": "http://place.map.kakao.com/1400265996",
      "region": "대전광역시",
      "lat": 36.3464414369143,
      "lng": 127.388954229033
    },
    {
      "title": "써브웨이 대전우송대점",
      "description": "대전 동구 동대전로 168",
      "url": "http://place.map.kakao.com/1923233284",
      "region": "대전광역시",
      "lat": 36.3366835522901,
      "lng": 127.447645111096
    },
    {
      "title": "써브웨이 대전카이스트점",
      "description": "대전 유성구 대학로 291",
      "url": "http://place.map.kakao.com/1908945902",
      "region": "대전광역시",
      "lat": 36.371228496951815,
      "lng": 127.36220433352413
    },
    {
      "title": "써브웨이 대전관저점",
      "description": "대전 서구 관저로 142",
      "url": "http://place.map.kakao.com/26357236",
      "region": "대전광역시",
      "lat": 36.298514148447445,
      "lng": 127.33814903676881
    },
    {
      "title": "써브웨이 대전송촌점",
      "description": "대전 대덕구 계족산로81번길 70",
      "url": "http://place.map.kakao.com/1416361769",
      "region": "대전광역시",
      "lat": 36.365728321257066,
      "lng": 127.43841605379107
    },
    {
      "title": "써브웨이 대전전민점",
      "description": "대전 유성구 유성대로 1732",
      "url": "http://place.map.kakao.com/1057656732",
      "region": "대전광역시",
      "lat": 36.3993810064406,
      "lng": 127.401671674004
    },
    {
      "title": "써브웨이 대전도마점",
      "description": "대전 서구 도산로 51",
      "url": "http://place.map.kakao.com/1922695780",
      "region": "대전광역시",
      "lat": 36.3133082353616,
      "lng": 127.379577528684
    },
    {
      "title": "써브웨이 대전태평점",
      "description": "대전 중구 태평로 71",
      "url": "http://place.map.kakao.com/2103948384",
      "region": "대전광역시",
      "lat": 36.32330259319356,
      "lng": 127.3934006110107
    },
    {
      "title": "써브웨이 대전반석점",
      "description": "대전 유성구 북유성대로 303",
      "url": "http://place.map.kakao.com/1197047311",
      "region": "대전광역시",
      "lat": 36.3916334355301,
      "lng": 127.314245245883
    },
    {
      "title": "써브웨이 대전건양대병원점",
      "description": "대전 서구 관저동로 170",
      "url": "http://place.map.kakao.com/1521622719",
      "region": "대전광역시",
      "lat": 36.3072996154778,
      "lng": 127.341158693145
    },
    {
      "title": "써브웨이 대전자운대점",
      "description": "대전 유성구 자운로221번길 98",
      "url": "http://place.map.kakao.com/244042763",
      "region": "대전광역시",
      "lat": 36.41313959200755,
      "lng": 127.3409419529247
    },
    {
      "title": "써브웨이 대전판암점",
      "description": "대전 동구 옥천로 153",
      "url": "http://place.map.kakao.com/788102201",
      "region": "대전광역시",
      "lat": 36.3172832976776,
      "lng": 127.457335722811
    },
    {
      "title": "써브웨이 울산삼산점",
      "description": "울산 남구 삼산로267번길 6-15",
      "url": "http://place.map.kakao.com/23349718",
      "region": "울산광역시",
      "lat": 35.5400541473204,
      "lng": 129.33697690719
    },
    {
      "title": "써브웨이 울산옥동점",
      "description": "울산 남구 문수로 332",
      "url": "http://place.map.kakao.com/149640182",
      "region": "울산광역시",
      "lat": 35.53494033454055,
      "lng": 129.28980833716312
    },
    {
      "title": "써브웨이 울산일산점",
      "description": "울산 동구 방어진순환도로 662",
      "url": "http://place.map.kakao.com/1744225177",
      "region": "울산광역시",
      "lat": 35.5008975193132,
      "lng": 129.428906175417
    },
    {
      "title": "써브웨이 울산무거점",
      "description": "울산 남구 대학로 108",
      "url": "http://place.map.kakao.com/24812575",
      "region": "울산광역시",
      "lat": 35.54438486744643,
      "lng": 129.2606676969975
    },
    {
      "title": "써브웨이 울산성남점",
      "description": "울산 중구 시계탑거리 17",
      "url": "http://place.map.kakao.com/27411762",
      "region": "울산광역시",
      "lat": 35.554499764187,
      "lng": 129.321880159332
    },
    {
      "title": "써브웨이 울산송정점",
      "description": "울산 북구 화산로 115",
      "url": "http://place.map.kakao.com/935567750",
      "region": "울산광역시",
      "lat": 35.602287750106285,
      "lng": 129.36533740760916
    },
    {
      "title": "써브웨이 울산언양점",
      "description": "울산 울주군 언양읍 읍성로 38",
      "url": "http://place.map.kakao.com/554286429",
      "region": "울산광역시",
      "lat": 35.5671201183902,
      "lng": 129.11796334455
    },
    {
      "title": "써브웨이 울산달동점",
      "description": "울산 남구 삼산로 74",
      "url": "http://place.map.kakao.com/22114793",
      "region": "울산광역시",
      "lat": 35.533978549627584,
      "lng": 129.31590893765048
    },
    {
      "title": "써브웨이 울산구영점",
      "description": "울산 울주군 범서읍 구영로 108",
      "url": "http://place.map.kakao.com/31046979",
      "region": "울산광역시",
      "lat": 35.572824743168,
      "lng": 129.241893706936
    },
    {
      "title": "써브웨이 울산병영점",
      "description": "울산 중구 번영로 567",
      "url": "http://place.map.kakao.com/1270793763",
      "region": "울산광역시",
      "lat": 35.56907469370045,
      "lng": 129.34392281941956
    },
    {
      "title": "써브웨이 울산매곡점",
      "description": "울산 북구 괴정1길 110",
      "url": "http://place.map.kakao.com/806739687",
      "region": "울산광역시",
      "lat": 35.6423023651704,
      "lng": 129.356963147438
    },
    {
      "title": "써브웨이 울산야음점",
      "description": "울산 남구 수암로 138",
      "url": "http://place.map.kakao.com/169498720",
      "region": "울산광역시",
      "lat": 35.52710981172592,
      "lng": 129.3219480108111
    },
    {
      "title": "써브웨이 울산유곡점",
      "description": "울산 중구 종가3길 23",
      "url": "http://place.map.kakao.com/1195241125",
      "region": "울산광역시",
      "lat": 35.560643869037,
      "lng": 129.297303683218
    },
    {
      "title": "써브웨이 울산진장점",
      "description": "울산 북구 진장17길 10",
      "url": "http://place.map.kakao.com/456861658",
      "region": "울산광역시",
      "lat": 35.56231565632618,
      "lng": 129.35668515222247
    },
    {
      "title": "써브웨이 울산덕신점",
      "description": "울산 울주군 온산읍 덕신로 261",
      "url": "http://place.map.kakao.com/250467636",
      "region": "울산광역시",
      "lat": 35.4338333306903,
      "lng": 129.31014628734542
    },
    {
      "title": "써브웨이 세종시청점",
      "description": "세종특별자치시 한누리대로 2144",
      "url": "http://place.map.kakao.com/906957956",
      "region": "세종특별자치시",
      "lat": 36.478640552432346,
      "lng": 127.28792351757248
    },
    {
      "title": "써브웨이 세종어진점",
      "description": "세종특별자치시 한누리대로 492",
      "url": "http://place.map.kakao.com/71778496",
      "region": "세종특별자치시",
      "lat": 36.5073475770258,
      "lng": 127.26221572712068
    },
    {
      "title": "써브웨이 세종새롬점",
      "description": "세종특별자치시 새롬중앙로 62-15",
      "url": "http://place.map.kakao.com/116273957",
      "region": "세종특별자치시",
      "lat": 36.4869357085317,
      "lng": 127.250797284816
    },
    {
      "title": "써브웨이 세종산울점",
      "description": "세종특별자치시 산울7로 11",
      "url": "http://place.map.kakao.com/442942557",
      "region": "세종특별자치시",
      "lat": 36.53061702402396,
      "lng": 127.26552686394663
    },
    {
      "title": "써브웨이 세종조치원점",
      "description": "세종특별자치시 조치원읍 새내로 111",
      "url": "http://place.map.kakao.com/503597628",
      "region": "세종특별자치시",
      "lat": 36.601766474126684,
      "lng": 127.29776413413204
    },
    {
      "title": "써브웨이 세종아름점",
      "description": "세종특별자치시 아름서1길 13-9",
      "url": "http://place.map.kakao.com/1455372642",
      "region": "세종특별자치시",
      "lat": 36.51176182217999,
      "lng": 127.24243218554467
    },
    {
      "title": "써브웨이 세종반곡점",
      "description": "세종특별자치시 시청대로 547",
      "url": "http://place.map.kakao.com/283138272",
      "region": "세종특별자치시",
      "lat": 36.4988158459372,
      "lng": 127.317671324808
    },
    {
      "title": "써브웨이 춘천후평점",
      "description": "강원특별자치도 춘천시 후석로 300",
      "url": "http://place.map.kakao.com/1267103613",
      "region": "강원특별자치도",
      "lat": 37.8781110555743,
      "lng": 127.751466288029
    },
    {
      "title": "써브웨이 강릉중앙로",
      "description": "강원특별자치도 강릉시 경강로 2117",
      "url": "http://place.map.kakao.com/859877719",
      "region": "강원특별자치도",
      "lat": 37.75619575138915,
      "lng": 128.89808927488184
    },
    {
      "title": "써브웨이 속초점",
      "description": "강원특별자치도 속초시 동해대로 4030",
      "url": "http://place.map.kakao.com/393637472",
      "region": "강원특별자치도",
      "lat": 38.1901526474112,
      "lng": 128.593798577503
    },
    {
      "title": "써브웨이 원주무실점",
      "description": "강원특별자치도 원주시 능라동길 61",
      "url": "http://place.map.kakao.com/544428998",
      "region": "강원특별자치도",
      "lat": 37.3341487832875,
      "lng": 127.931233649508
    },
    {
      "title": "써브웨이 원주혁신도시",
      "description": "강원특별자치도 원주시 입춘로 110",
      "url": "http://place.map.kakao.com/1409119845",
      "region": "강원특별자치도",
      "lat": 37.32319065031285,
      "lng": 127.9816338350588
    },
    {
      "title": "써브웨이헤어",
      "description": "강원특별자치도 태백시 문화로3길 112",
      "url": "http://place.map.kakao.com/18440215",
      "region": "강원특별자치도",
      "lat": 37.17135986543875,
      "lng": 128.9938162892023
    },
    {
      "title": "써브웨이 청주대점",
      "description": "충북 청주시 청원구 대성로 301",
      "url": "http://place.map.kakao.com/13081856",
      "region": "충청북도",
      "lat": 36.65144964456997,
      "lng": 127.48948166645518
    },
    {
      "title": "써브웨이 청주충북대점",
      "description": "충북 청주시 서원구 1순환로 676",
      "url": "http://place.map.kakao.com/1698337032",
      "region": "충청북도",
      "lat": 36.6332653081533,
      "lng": 127.46044610482168
    },
    {
      "title": "써브웨이 충주호암DT점",
      "description": "충북 충주시 중원대로 3239",
      "url": "http://place.map.kakao.com/806238438",
      "region": "충청북도",
      "lat": 36.958729673816656,
      "lng": 127.9229983208279
    },
    {
      "title": "써브웨이 제천청전점",
      "description": "충북 제천시 의림대로 223",
      "url": "http://place.map.kakao.com/506186200",
      "region": "충청북도",
      "lat": 37.1473651846135,
      "lng": 128.214046404693
    },
    {
      "title": "써브웨이 충북음성혁신도시점",
      "description": "충북 음성군 맹동면 대하2가길 11",
      "url": "http://place.map.kakao.com/226013694",
      "region": "충청북도",
      "lat": 36.907928135417436,
      "lng": 127.5429499914644
    },
    {
      "title": "써브웨이 청주분평점",
      "description": "충북 청주시 서원구 1순환로 1130-1",
      "url": "http://place.map.kakao.com/241114352",
      "region": "충청북도",
      "lat": 36.6058104778089,
      "lng": 127.49224666786
    },
    {
      "title": "써브웨이 청주오송점",
      "description": "충북 청주시 흥덕구 오송읍 오송생명로 165",
      "url": "http://place.map.kakao.com/1319147751",
      "region": "충청북도",
      "lat": 36.6323920816159,
      "lng": 127.32779290321
    },
    {
      "title": "써브웨이 청주율량점",
      "description": "충북 청주시 청원구 충청대로 170",
      "url": "http://place.map.kakao.com/2140113087",
      "region": "충청북도",
      "lat": 36.6712097298302,
      "lng": 127.496392452709
    },
    {
      "title": "써브웨이 청주오창점",
      "description": "충북 청주시 청원구 오창읍 중심상업로 30",
      "url": "http://place.map.kakao.com/1288050283",
      "region": "충청북도",
      "lat": 36.7133344080773,
      "lng": 127.430157484806
    },
    {
      "title": "써브웨이 청주가경NC점",
      "description": "충북 청주시 흥덕구 2순환로 1233",
      "url": "http://place.map.kakao.com/720184506",
      "region": "충청북도",
      "lat": 36.626217305649,
      "lng": 127.431132972036
    },
    {
      "title": "써브웨이 충북증평점",
      "description": "충북 증평군 증평읍 광장로 92",
      "url": "http://place.map.kakao.com/621993247",
      "region": "충청북도",
      "lat": 36.78524912960579,
      "lng": 127.58228708349637
    },
    {
      "title": "써브웨이 당진읍내점",
      "description": "충남 당진시 당진중앙2로 127",
      "url": "http://place.map.kakao.com/1202204172",
      "region": "충청남도",
      "lat": 36.89473666201601,
      "lng": 126.63148457566963
    },
    {
      "title": "써브웨이 아산터미널점",
      "description": "충남 아산시 번영로224번길 4",
      "url": "http://place.map.kakao.com/2102820364",
      "region": "충청남도",
      "lat": 36.7839710701959,
      "lng": 127.01525830641282
    },
    {
      "title": "써브웨이 홍성점",
      "description": "충남 홍성군 홍성읍 충서로 1669",
      "url": "http://place.map.kakao.com/239611907",
      "region": "충청남도",
      "lat": 36.6031508636378,
      "lng": 126.67706639008
    },
    {
      "title": "써브웨이 천안쌍용점",
      "description": "충남 천안시 서북구 월봉로 79",
      "url": "http://place.map.kakao.com/26543380",
      "region": "충청남도",
      "lat": 36.7976113579887,
      "lng": 127.117812296479
    },
    {
      "title": "써브웨이 서산호수공원점",
      "description": "충남 서산시 호수공원12로 26",
      "url": "http://place.map.kakao.com/1040490199",
      "region": "충청남도",
      "lat": 36.773181176872406,
      "lng": 126.44864878099997
    },
    {
      "title": "써브웨이 천안청수점",
      "description": "충남 천안시 동남구 청수11로 16",
      "url": "http://place.map.kakao.com/243020678",
      "region": "충청남도",
      "lat": 36.782722105196044,
      "lng": 127.15419932364405
    },
    {
      "title": "써브웨이 아산탕정점",
      "description": "충남 아산시 탕정면 한들물빛도시로 88",
      "url": "http://place.map.kakao.com/1427624024",
      "region": "충청남도",
      "lat": 36.787216970419344,
      "lng": 127.08384579316329
    },
    {
      "title": "써브웨이 아산온양점",
      "description": "충남 아산시 온궁로 24-2",
      "url": "http://place.map.kakao.com/26778795",
      "region": "충청남도",
      "lat": 36.7820479454934,
      "lng": 127.003150167821
    },
    {
      "title": "써브웨이 천안충무로점",
      "description": "충남 천안시 서북구 충무로 201",
      "url": "http://place.map.kakao.com/383869645",
      "region": "충청남도",
      "lat": 36.79623074796951,
      "lng": 127.12827969118862
    },
    {
      "title": "써브웨이 논산점",
      "description": "충남 논산시 시민로 267",
      "url": "http://place.map.kakao.com/1076878124",
      "region": "충청남도",
      "lat": 36.1898508013104,
      "lng": 127.094731240251
    },
    {
      "title": "써브웨이 아산지중해마을점",
      "description": "충남 아산시 탕정면 탕정면로 54-6",
      "url": "http://place.map.kakao.com/1094724037",
      "region": "충청남도",
      "lat": 36.7983343278681,
      "lng": 127.062875506796
    },
    {
      "title": "써브웨이 천안신방점",
      "description": "충남 천안시 동남구 통정5로 63",
      "url": "http://place.map.kakao.com/760184537",
      "region": "충청남도",
      "lat": 36.7748101912844,
      "lng": 127.13342929048
    },
    {
      "title": "써브웨이 홍성내포점",
      "description": "충남 홍성군 홍북읍 청사로 158",
      "url": "http://place.map.kakao.com/1291884757",
      "region": "충청남도",
      "lat": 36.6583366926195,
      "lng": 126.679201586151
    },
    {
      "title": "써브웨이 보령DT점",
      "description": "충남 보령시 한내로 62",
      "url": "http://place.map.kakao.com/948468480",
      "region": "충청남도",
      "lat": 36.34464782538916,
      "lng": 126.60930467032165
    },
    {
      "title": "써브웨이 공주신관점",
      "description": "충남 공주시 흑수골길 35",
      "url": "http://place.map.kakao.com/1302622305",
      "region": "충청남도",
      "lat": 36.47334143348359,
      "lng": 127.14125018557505
    },
    {
      "title": "써브웨이 계룡엄사점",
      "description": "충남 계룡시 엄사면 계룡대로 486",
      "url": "http://place.map.kakao.com/375524183",
      "region": "충청남도",
      "lat": 36.286644467261205,
      "lng": 127.24654607260874
    },
    {
      "title": "써브웨이 아산배방점",
      "description": "충남 아산시 배방읍 모산로 123",
      "url": "http://place.map.kakao.com/1019580202",
      "region": "충청남도",
      "lat": 36.77462934289829,
      "lng": 127.05619572642394
    },
    {
      "title": "써브웨이 군산나운점",
      "description": "전북특별자치도 군산시 공단대로 374",
      "url": "http://place.map.kakao.com/13081845",
      "region": "전북특별자치도",
      "lat": 35.96199165026118,
      "lng": 126.70101841658906
    },
    {
      "title": "써브웨이 전주전북도청점",
      "description": "전북특별자치도 전주시 완산구 홍산중앙로 22",
      "url": "http://place.map.kakao.com/1015119834",
      "region": "전북특별자치도",
      "lat": 35.81562931408718,
      "lng": 127.10937545836215
    },
    {
      "title": "써브웨이 익산모현점",
      "description": "전북특별자치도 익산시 선화로 77",
      "url": "http://place.map.kakao.com/783303992",
      "region": "전북특별자치도",
      "lat": 35.9498593847664,
      "lng": 126.939747774422
    },
    {
      "title": "써브웨이 전주송천DT점",
      "description": "전북특별자치도 전주시 덕진구 동부대로 1004",
      "url": "http://place.map.kakao.com/2070637912",
      "region": "전북특별자치도",
      "lat": 35.869686923265036,
      "lng": 127.13725889235685
    },
    {
      "title": "써브웨이 전북전주혁신점",
      "description": "전북특별자치도 전주시 덕진구 안전로 148",
      "url": "http://place.map.kakao.com/267468960",
      "region": "전북특별자치도",
      "lat": 35.8372650845182,
      "lng": 127.059002594069
    },
    {
      "title": "써브웨이 전주아중점",
      "description": "전북특별자치도 전주시 덕진구 건산로 226",
      "url": "http://place.map.kakao.com/883826734",
      "region": "전북특별자치도",
      "lat": 35.8338510190258,
      "lng": 127.162024340495
    },
    {
      "title": "써브웨이 전주객사",
      "description": "전북특별자치도 전주시 완산구 팔달로 191-3",
      "url": "http://place.map.kakao.com/2027686572",
      "region": "전북특별자치도",
      "lat": 35.81914915345714,
      "lng": 127.14627561132765
    },
    {
      "title": "써브웨이 정읍상동점",
      "description": "전북특별자치도 정읍시 신경2길 22-9",
      "url": "http://place.map.kakao.com/109233382",
      "region": "전북특별자치도",
      "lat": 35.5587381366543,
      "lng": 126.869609890676
    },
    {
      "title": "써브웨이 전주전북대점",
      "description": "전북특별자치도 전주시 덕진구 명륜4길 12",
      "url": "http://place.map.kakao.com/1827443017",
      "region": "전북특별자치도",
      "lat": 35.8429518792998,
      "lng": 127.126802397986
    },
    {
      "title": "써브웨이 익산영등점",
      "description": "전북특별자치도 익산시 무왕로 1074",
      "url": "http://place.map.kakao.com/1285464924",
      "region": "전북특별자치도",
      "lat": 35.9582140234809,
      "lng": 126.976158178917
    },
    {
      "title": "써브웨이 익산원광대점",
      "description": "전북특별자치도 익산시 동서로19길 99",
      "url": "http://place.map.kakao.com/1237275939",
      "region": "전북특별자치도",
      "lat": 35.9628234787887,
      "lng": 126.958255543554
    },
    {
      "title": "써브웨이 김제점",
      "description": "전북특별자치도 김제시 동서로 256",
      "url": "http://place.map.kakao.com/1222145629",
      "region": "전북특별자치도",
      "lat": 35.8035987644313,
      "lng": 126.895114036355
    },
    {
      "title": "써브웨이 남원도통점",
      "description": "전북특별자치도 남원시 용성로 222",
      "url": "http://place.map.kakao.com/629024175",
      "region": "전북특별자치도",
      "lat": 35.41733563373166,
      "lng": 127.39664733815572
    },
    {
      "title": "써브웨이 전주송천점",
      "description": "전북특별자치도 전주시 덕진구 천마산로 65",
      "url": "http://place.map.kakao.com/1069937501",
      "region": "전북특별자치도",
      "lat": 35.8649211265037,
      "lng": 127.128261253339
    },
    {
      "title": "써브웨이 군산대점",
      "description": "전북특별자치도 군산시 황룡로 10",
      "url": "http://place.map.kakao.com/691087949",
      "region": "전북특별자치도",
      "lat": 35.94519473490526,
      "lng": 126.68638811677658
    },
    {
      "title": "써브웨이 전주평화점",
      "description": "전북특별자치도 전주시 완산구 모악로 4762",
      "url": "http://place.map.kakao.com/1266551687",
      "region": "전북특별자치도",
      "lat": 35.7943828656429,
      "lng": 127.132734220251
    },
    {
      "title": "써브웨이 전주삼천점",
      "description": "전북특별자치도 전주시 완산구 용리로 8",
      "url": "http://place.map.kakao.com/894545193",
      "region": "전북특별자치도",
      "lat": 35.7985077709683,
      "lng": 127.11064855322
    },
    {
      "title": "써브웨이 군산롯데몰점",
      "description": "전북특별자치도 군산시 조촌로 130",
      "url": "http://place.map.kakao.com/1210950684",
      "region": "전북특별자치도",
      "lat": 35.97603720152904,
      "lng": 126.73844080168207
    },
    {
      "title": "써브웨이 전주송천DT점 주차장",
      "description": "전북특별자치도 전주시 덕진구 동부대로 1004",
      "url": "http://place.map.kakao.com/1715490502",
      "region": "전북특별자치도",
      "lat": 35.8696948712411,
      "lng": 127.137401744442
    },
    {
      "title": "써브웨이 목포상동점",
      "description": "전남 목포시 백년대로 342",
      "url": "http://place.map.kakao.com/1356193663",
      "region": "전라남도",
      "lat": 34.8054270100616,
      "lng": 126.424787533141
    },
    {
      "title": "써브웨이 순천조례점",
      "description": "전남 순천시 봉화2길 1",
      "url": "http://place.map.kakao.com/1541725214",
      "region": "전라남도",
      "lat": 34.9541585495925,
      "lng": 127.518503038075
    },
    {
      "title": "써브웨이 여수학동점",
      "description": "전남 여수시 망마로 25",
      "url": "http://place.map.kakao.com/2137969496",
      "region": "전라남도",
      "lat": 34.760239397341074,
      "lng": 127.66602497410327
    },
    {
      "title": "써브웨이 여수여서점",
      "description": "전남 여수시 여서동1길 38",
      "url": "http://place.map.kakao.com/997996644",
      "region": "전라남도",
      "lat": 34.7534680185174,
      "lng": 127.706038996565
    },
    {
      "title": "써브웨이 순천대점",
      "description": "전남 순천시 중앙로 278",
      "url": "http://place.map.kakao.com/2021901066",
      "region": "전라남도",
      "lat": 34.9704806627811,
      "lng": 127.483775325761
    },
    {
      "title": "써브웨이 전남해남점",
      "description": "전남 해남군 해남읍 중앙1로 92",
      "url": "http://place.map.kakao.com/169644620",
      "region": "전라남도",
      "lat": 34.5714061497184,
      "lng": 126.602249817052
    },
    {
      "title": "써브웨이 목포북항점",
      "description": "전남 목포시 청호로 180",
      "url": "http://place.map.kakao.com/1094116480",
      "region": "전라남도",
      "lat": 34.80680274338303,
      "lng": 126.37300318070642
    },
    {
      "title": "써브웨이 나주혁신점",
      "description": "전남 나주시 빛가람로 677",
      "url": "http://place.map.kakao.com/2057787795",
      "region": "전라남도",
      "lat": 35.021418288916,
      "lng": 126.78587500197932
    },
    {
      "title": "써브웨이 순천신대점",
      "description": "전남 순천시 해룡면 향매로 79",
      "url": "http://place.map.kakao.com/573045130",
      "region": "전라남도",
      "lat": 34.9340375952073,
      "lng": 127.548156582222
    },
    {
      "title": "써브웨이 광양LF스퀘어점",
      "description": "전남 광양시 광양읍 순광로 466",
      "url": "http://place.map.kakao.com/807529792",
      "region": "전라남도",
      "lat": 34.96318567370478,
      "lng": 127.56598329157409
    },
    {
      "title": "써브웨이 화순광덕점",
      "description": "전남 화순군 화순읍 중앙로 94",
      "url": "http://place.map.kakao.com/704176789",
      "region": "전라남도",
      "lat": 35.0603030269822,
      "lng": 126.991674079636
    },
    {
      "title": "써브웨이 목포남악점",
      "description": "전남 무안군 삼향읍 남악3로 79",
      "url": "http://place.map.kakao.com/588828437",
      "region": "전라남도",
      "lat": 34.812514566738855,
      "lng": 126.45997096882174
    },
    {
      "title": "써브웨이 포항남부DT점",
      "description": "경북 포항시 북구 새천년대로 526",
      "url": "http://place.map.kakao.com/1905468193",
      "region": "경상북도",
      "lat": 36.0213809779018,
      "lng": 129.3506340756673
    },
    {
      "title": "써브웨이 경산영남대점",
      "description": "경북 경산시 대학로 281-1",
      "url": "http://place.map.kakao.com/644029689",
      "region": "경상북도",
      "lat": 35.836581317431424,
      "lng": 128.75299742198834
    },
    {
      "title": "써브웨이 포항두호점",
      "description": "경북 포항시 북구 두호로 33",
      "url": "http://place.map.kakao.com/1819020093",
      "region": "경상북도",
      "lat": 36.0599942324031,
      "lng": 129.374741141025
    },
    {
      "title": "써브웨이 구미시청",
      "description": "경북 구미시 송정대로 23",
      "url": "http://place.map.kakao.com/251906495",
      "region": "경상북도",
      "lat": 36.11749897195855,
      "lng": 128.3412056205507
    },
    {
      "title": "써브웨이 영주가흥점",
      "description": "경북 영주시 대학로 252",
      "url": "http://place.map.kakao.com/1605406754",
      "region": "경상북도",
      "lat": 36.8180321218703,
      "lng": 128.604986766795
    },
    {
      "title": "써브웨이 안동옥동점",
      "description": "경북 안동시 경북대로 395",
      "url": "http://place.map.kakao.com/1236872505",
      "region": "경상북도",
      "lat": 36.5643618318523,
      "lng": 128.700669441719
    },
    {
      "title": "써브웨이 김천신음점",
      "description": "경북 김천시 시청로 57-1",
      "url": "http://place.map.kakao.com/66882333",
      "region": "경상북도",
      "lat": 36.1334757152711,
      "lng": 128.117472014579
    },
    {
      "title": "써브웨이 상주중앙점",
      "description": "경북 상주시 중앙로 186-1",
      "url": "http://place.map.kakao.com/1599794929",
      "region": "경상북도",
      "lat": 36.41550387734799,
      "lng": 128.15868889580673
    },
    {
      "title": "써브웨이 구미산동점",
      "description": "경북 구미시 산동읍 신당1로 58",
      "url": "http://place.map.kakao.com/614266081",
      "region": "경상북도",
      "lat": 36.15424678213144,
      "lng": 128.42851301052087
    },
    {
      "title": "써브웨이 경주중앙점",
      "description": "경북 경주시 중앙로 53",
      "url": "http://place.map.kakao.com/753957363",
      "region": "경상북도",
      "lat": 35.8447759925283,
      "lng": 129.211469688686
    },
    {
      "title": "써브웨이 안동중앙점",
      "description": "경북 안동시 태사길 14-10",
      "url": "http://place.map.kakao.com/1094116685",
      "region": "경상북도",
      "lat": 36.5662607654438,
      "lng": 128.731613674972
    },
    {
      "title": "써브웨이 경산사동점",
      "description": "경북 경산시 백자로 71",
      "url": "http://place.map.kakao.com/1286831122",
      "region": "경상북도",
      "lat": 35.8123875457299,
      "lng": 128.754872686049
    },
    {
      "title": "써브웨이 영천점",
      "description": "경북 영천시 동부로 52",
      "url": "http://place.map.kakao.com/1450607529",
      "region": "경상북도",
      "lat": 35.9748119575362,
      "lng": 128.948329440633
    },
    {
      "title": "써브웨이 경북울진점",
      "description": "경북 울진군 울진읍 연호로 24",
      "url": "http://place.map.kakao.com/837801265",
      "region": "경상북도",
      "lat": 36.99355290458541,
      "lng": 129.40366188768357
    },
    {
      "title": "써브웨이 구미진평점",
      "description": "경북 구미시 인동36길 18",
      "url": "http://place.map.kakao.com/203899018",
      "region": "경상북도",
      "lat": 36.0930880251378,
      "lng": 128.431837486111
    },
    {
      "title": "써브웨이 김천혁신점",
      "description": "경북 김천시 혁신3로 16",
      "url": "http://place.map.kakao.com/1694136137",
      "region": "경상북도",
      "lat": 36.11758804175,
      "lng": 128.181992596645
    },
    {
      "title": "써브웨이 경산하양점",
      "description": "경북 경산시 하양읍 하양로 34",
      "url": "http://place.map.kakao.com/1956256529",
      "region": "경상북도",
      "lat": 35.908728952460656,
      "lng": 128.81345062131516
    },
    {
      "title": "써브웨이 칠곡왜관",
      "description": "경북 칠곡군 왜관읍 중앙로 198",
      "url": "http://place.map.kakao.com/694917997",
      "region": "경상북도",
      "lat": 35.99248403933938,
      "lng": 128.3992164603025
    },
    {
      "title": "써브웨이 경북도청점",
      "description": "경북 예천군 호명읍 새움3로 46",
      "url": "http://place.map.kakao.com/1716979177",
      "region": "경상북도",
      "lat": 36.5763996981856,
      "lng": 128.491411249978
    },
    {
      "title": "써브웨이 구미사곡점",
      "description": "경북 구미시 상사서로 169",
      "url": "http://place.map.kakao.com/1980103403",
      "region": "경상북도",
      "lat": 36.0974617768514,
      "lng": 128.356759879192
    },
    {
      "title": "써브웨이 구미문성점",
      "description": "경북 구미시 고아읍 들성로 185-3",
      "url": "http://place.map.kakao.com/381629288",
      "region": "경상북도",
      "lat": 36.15990558800733,
      "lng": 128.34088309943328
    },
    {
      "title": "써브웨이 구미LGD",
      "description": "경북 구미시 3공단2로 174",
      "url": "http://place.map.kakao.com/1309218043",
      "region": "경상북도",
      "lat": 36.095915063572654,
      "lng": 128.40771678783142
    },
    {
      "title": "써브웨이 경산대구대점",
      "description": "경북 경산시 진량읍 대구대로 201",
      "url": "http://place.map.kakao.com/1775722810",
      "region": "경상북도",
      "lat": 35.8997204318257,
      "lng": 128.84843965923
    },
    {
      "title": "써브웨이 포항중앙점",
      "description": "경북 포항시 북구 중앙로 273",
      "url": "http://place.map.kakao.com/1053865178",
      "region": "경상북도",
      "lat": 36.0374305647376,
      "lng": 129.365049897436
    },
    {
      "title": "써브웨이 진해석동점",
      "description": "경남 창원시 진해구 냉천로 62",
      "url": "http://place.map.kakao.com/2100615038",
      "region": "경상남도",
      "lat": 35.151877602146584,
      "lng": 128.70419694662525
    },
    {
      "title": "써브웨이 창원용지호수점",
      "description": "경남 창원시 성산구 용지로169번길 3",
      "url": "http://place.map.kakao.com/516200705",
      "region": "경상남도",
      "lat": 35.229968499819606,
      "lng": 128.6817661169258
    },
    {
      "title": "써브웨이 창원리베라점",
      "description": "경남 창원시 성산구 중앙대로100번길 9",
      "url": "http://place.map.kakao.com/377523177",
      "region": "경상남도",
      "lat": 35.223434098297155,
      "lng": 128.6803600117627
    },
    {
      "title": "써브웨이 마산합성점",
      "description": "경남 창원시 마산회원구 합성옛길 137",
      "url": "http://place.map.kakao.com/1979152047",
      "region": "경상남도",
      "lat": 35.23783869012481,
      "lng": 128.58324533841952
    },
    {
      "title": "써브웨이 진주경상대점",
      "description": "경남 진주시 진주대로 548",
      "url": "http://place.map.kakao.com/26944666",
      "region": "경상남도",
      "lat": 35.155442200979,
      "lng": 128.107537112998
    },
    {
      "title": "써브웨이 김해내동점",
      "description": "경남 김해시 내외중앙로 74",
      "url": "http://place.map.kakao.com/1471111108",
      "region": "경상남도",
      "lat": 35.23652617463066,
      "lng": 128.8672717199948
    },
    {
      "title": "써브웨이 거제고현점",
      "description": "경남 거제시 거제중앙로 1894",
      "url": "http://place.map.kakao.com/499145311",
      "region": "경상남도",
      "lat": 34.88733103846872,
      "lng": 128.62383108110524
    },
    {
      "title": "써브웨이 경남밀양점",
      "description": "경남 밀양시 밀양대로 1770",
      "url": "http://place.map.kakao.com/1302012213",
      "region": "경상남도",
      "lat": 35.48354991559041,
      "lng": 128.75257240904972
    },
    {
      "title": "써브웨이 경남거창점",
      "description": "경남 거창군 거창읍 중앙로 120",
      "url": "http://place.map.kakao.com/27578027",
      "region": "경상남도",
      "lat": 35.68648902980422,
      "lng": 127.91153229934196
    },
    {
      "title": "써브웨이 마산경남대점",
      "description": "경남 창원시 마산합포구 3.15대로 1",
      "url": "http://place.map.kakao.com/1508631200",
      "region": "경상남도",
      "lat": 35.18011209723128,
      "lng": 128.55807088288108
    },
    {
      "title": "써브웨이 경남남양산점",
      "description": "경남 양산시 물금읍 범어로 60",
      "url": "http://place.map.kakao.com/24124101",
      "region": "경상남도",
      "lat": 35.329034370242496,
      "lng": 129.0140443350626
    },
    {
      "title": "써브웨이 김해장유점",
      "description": "경남 김해시 능동로149번길 8",
      "url": "http://place.map.kakao.com/1216766110",
      "region": "경상남도",
      "lat": 35.20278893853493,
      "lng": 128.80737279637853
    },
    {
      "title": "써브웨이 경남사천점",
      "description": "경남 사천시 정동면 옥산로 35",
      "url": "http://place.map.kakao.com/967975100",
      "region": "경상남도",
      "lat": 35.0800027017273,
      "lng": 128.086915593763
    },
    {
      "title": "써브웨이 김해율하점",
      "description": "경남 김해시 율하3로 42",
      "url": "http://place.map.kakao.com/71937117",
      "region": "경상남도",
      "lat": 35.17172043364174,
      "lng": 128.8144510005407
    },
    {
      "title": "써브웨이 창원대방점",
      "description": "경남 창원시 성산구 가양로124번길 5-5",
      "url": "http://place.map.kakao.com/745816762",
      "region": "경상남도",
      "lat": 35.20902676457214,
      "lng": 128.7072023951032
    },
    {
      "title": "써브웨이 양산증산점",
      "description": "경남 양산시 물금읍 야리1길 17",
      "url": "http://place.map.kakao.com/808607735",
      "region": "경상남도",
      "lat": 35.31053846052362,
      "lng": 129.00760277145514
    },
    {
      "title": "써브웨이 김해삼계점",
      "description": "경남 김해시 가야로 163",
      "url": "http://place.map.kakao.com/1987567312",
      "region": "경상남도",
      "lat": 35.26306555521278,
      "lng": 128.8718998411819
    },
    {
      "title": "써브웨이 경남양산점",
      "description": "경남 양산시 양산역2길 3",
      "url": "http://place.map.kakao.com/26944703",
      "region": "경상남도",
      "lat": 35.33557500228045,
      "lng": 129.02763416414547
    },
    {
      "title": "써브웨이 창원중앙역점",
      "description": "경남 창원시 의창구 용동로 85",
      "url": "http://place.map.kakao.com/54076305",
      "region": "경상남도",
      "lat": 35.2384436082335,
      "lng": 128.700654587362
    },
    {
      "title": "써브웨이 진주혁신점",
      "description": "경남 진주시 충의로 20-4",
      "url": "http://place.map.kakao.com/405815481",
      "region": "경상남도",
      "lat": 35.17619404272629,
      "lng": 128.14720686367295
    },
    {
      "title": "써브웨이 김해진영점",
      "description": "경남 김해시 진영읍 김해대로361번길 16",
      "url": "http://place.map.kakao.com/1576398946",
      "region": "경상남도",
      "lat": 35.30808646640207,
      "lng": 128.72978493188896
    },
    {
      "title": "써브웨이 진해용원신항점",
      "description": "경남 창원시 진해구 용원로7번길 7",
      "url": "http://place.map.kakao.com/1364964932",
      "region": "경상남도",
      "lat": 35.1010434777309,
      "lng": 128.810145952966
    },
    {
      "title": "써브웨이 진주초전점",
      "description": "경남 진주시 초전북로51번길 34",
      "url": "http://place.map.kakao.com/279933387",
      "region": "경상남도",
      "lat": 35.211395392010154,
      "lng": 128.11180419017492
    },
    {
      "title": "써브웨이 거제아주점",
      "description": "경남 거제시 아주1로2길 62",
      "url": "http://place.map.kakao.com/25409675",
      "region": "경상남도",
      "lat": 34.867365110482076,
      "lng": 128.6856520601749
    },
    {
      "title": "써브웨이 마산산호점",
      "description": "경남 창원시 마산합포구 삼호로 49",
      "url": "http://place.map.kakao.com/1878548666",
      "region": "경상남도",
      "lat": 35.2218954893894,
      "lng": 128.585065093649
    },
    {
      "title": "써브웨이 진주경상대 칠암캠퍼스점",
      "description": "경남 진주시 동진로 30",
      "url": "http://place.map.kakao.com/1943309939",
      "region": "경상남도",
      "lat": 35.1787107919557,
      "lng": 128.094384314582
    },
    {
      "title": "써브웨이 진주중안점",
      "description": "경남 진주시 진양호로 525",
      "url": "http://place.map.kakao.com/1483208932",
      "region": "경상남도",
      "lat": 35.19279440986917,
      "lng": 128.0828860728471
    },
    {
      "title": "써브웨이 창원유니시티점",
      "description": "경남 창원시 의창구 중동중앙로 47",
      "url": "http://place.map.kakao.com/275523095",
      "region": "경상남도",
      "lat": 35.25595421201314,
      "lng": 128.624383209248
    },
    {
      "title": "써브웨이 창원감계점",
      "description": "경남 창원시 의창구 북면 감계로 312",
      "url": "http://place.map.kakao.com/1645538925",
      "region": "경상남도",
      "lat": 35.3020019998643,
      "lng": 128.595076810092
    },
    {
      "title": "써브웨이 경남양산덕계메가마트점",
      "description": "경남 양산시 덕계로 62",
      "url": "http://place.map.kakao.com/1628067897",
      "region": "경상남도",
      "lat": 35.37344793801039,
      "lng": 129.15075776233692
    },
    {
      "title": "써브웨이 통영무전점",
      "description": "경남 통영시 원문로 27",
      "url": "http://place.map.kakao.com/571711773",
      "region": "경상남도",
      "lat": 34.8572559910189,
      "lng": 128.425559358826
    },
    {
      "title": "써브웨이 진주평거탑마트점",
      "description": "경남 진주시 새평거로 136",
      "url": "http://place.map.kakao.com/433110395",
      "region": "경상남도",
      "lat": 35.17037257098368,
      "lng": 128.06190187733543
    },
    {
      "title": "써브웨이 마산삼계롯데마트점",
      "description": "경남 창원시 마산회원구 내서읍 경남대로 927",
      "url": "http://place.map.kakao.com/34592696",
      "region": "경상남도",
      "lat": 35.2330284582192,
      "lng": 128.504071012972
    },
    {
      "title": "써브웨이 통영이마트점",
      "description": "경남 통영시 광도면 죽림4로 9",
      "url": "http://place.map.kakao.com/1537132867",
      "region": "경상남도",
      "lat": 34.887133454618024,
      "lng": 128.4179996334981
    },
    {
      "title": "써브웨이 창원대동백화점",
      "description": "경남 창원시 성산구 원이대로 730",
      "url": "http://place.map.kakao.com/1186160053",
      "region": "경상남도",
      "lat": 35.2203120675158,
      "lng": 128.690747986903
    },
    {
      "title": "써브웨이 마산이마트점",
      "description": "경남 창원시 마산합포구 서성로 3",
      "url": "http://place.map.kakao.com/1025042820",
      "region": "경상남도",
      "lat": 35.1978851974527,
      "lng": 128.569954059228
    },
    {
      "title": "써브웨이 김해이마트점",
      "description": "경남 김해시 김해대로 2232",
      "url": "http://place.map.kakao.com/33042533",
      "region": "경상남도",
      "lat": 35.2301390016516,
      "lng": 128.871722876283
    },
    {
      "title": "써브웨이 제주시청점",
      "description": "제주특별자치도 제주시 중앙로 252",
      "url": "http://place.map.kakao.com/764940282",
      "region": "제주특별자치도",
      "lat": 33.49739185629079,
      "lng": 126.53111806838041
    },
    {
      "title": "써브웨이 제주연동신시가지점",
      "description": "제주특별자치도 제주시 국기로1길 2",
      "url": "http://place.map.kakao.com/27532940",
      "region": "제주특별자치도",
      "lat": 33.480703417898816,
      "lng": 126.48999468945166
    },
    {
      "title": "써브웨이 제주외도점",
      "description": "제주특별자치도 제주시 일주서로 7306",
      "url": "http://place.map.kakao.com/1612553722",
      "region": "제주특별자치도",
      "lat": 33.4923626210828,
      "lng": 126.427647165576
    },
    {
      "title": "써브웨이 제주서귀포강정지구점",
      "description": "제주특별자치도 서귀포시 대청로 41",
      "url": "http://place.map.kakao.com/1568174867",
      "region": "제주특별자치도",
      "lat": 33.2527338857371,
      "lng": 126.504247045356
    },
    {
      "title": "써브웨이 제주공항점",
      "description": "제주특별자치도 제주시 월성로4길 80",
      "url": "http://place.map.kakao.com/1828008080",
      "region": "제주특별자치도",
      "lat": 33.498307033748404,
      "lng": 126.49799526645921
    },
    {
      "title": "써브웨이 제주삼화점",
      "description": "제주특별자치도 제주시 도련이동 543",
      "url": "http://place.map.kakao.com/1319226585",
      "region": "제주특별자치도",
      "lat": 33.51568714085566,
      "lng": 126.58905601532776
    },
    {
      "title": "써브웨이 제주노형점",
      "description": "제주특별자치도 제주시 1100로 3347",
      "url": "http://place.map.kakao.com/545813279",
      "region": "제주특별자치도",
      "lat": 33.484892555903336,
      "lng": 126.47970815968227
    },
    {
      "title": "써브웨이 제주서귀포광장점",
      "description": "제주특별자치도 서귀포시 중앙로 104",
      "url": "http://place.map.kakao.com/2057252571",
      "region": "제주특별자치도",
      "lat": 33.253913939136865,
      "lng": 126.56106123346672
    },
    {
      "title": "써브웨이 제주대점",
      "description": "제주특별자치도 제주시 제주대학로 113",
      "url": "http://place.map.kakao.com/1512304373",
      "region": "제주특별자치도",
      "lat": 33.46036291610679,
      "lng": 126.56206852417806
    }
  ]
}