{
  "pins": [
    {
      "title": "부산역",
      "lat": 35.11520340622514,
      "lng": 129.04154985192403,
      "address": "부산 동구 중앙대로 206",
      "url": "http://place.map.kakao.com/8329752",
      "region": "부산",
      "description": "KTX, SRT"
    },
    {
      "title": "수원역",
      "lat": 37.2657903079673,
      "lng": 127.000094700292,
      "address": "경기 수원시 팔달구 덕영대로 924",
      "url": "http://place.map.kakao.com/26981264",
      "region": "경기",
      "description": "KTX"
    },
    {
      "title": "서울역",
      "lat": 37.55406888733184,
      "lng": 126.97070335253385,
      "address": "서울 중구 한강대로 405",
      "url": "http://place.map.kakao.com/9113903",
      "region": "서울",
      "description": "KTX"
    },
    {
      "title": "대전역",
      "lat": 36.33229415139486,
      "lng": 127.4346445159045,
      "address": "대전 동구 중앙로 215",
      "url": "http://place.map.kakao.com/7830504",
      "region": "대전",
      "description": "KTX, SRT"
    },
    {
      "title": "광명역",
      "lat": 37.416196233927124,
      "lng": 126.88468123606266,
      "address": "경기 광명시 광명역로 21",
      "url": "http://place.map.kakao.com/8658728",
      "region": "경기",
      "description": "KTX"
    },
    {
      "title": "용산역",
      "lat": 37.5300763645794,
      "lng": 126.964824061815,
      "address": "서울 용산구 한강대로23길 55",
      "url": "http://place.map.kakao.com/8014275",
      "region": "서울",
      "description": "KTX"
    },
    {
      "title": "동대구역",
      "lat": 35.8793239931795,
      "lng": 128.628393775388,
      "address": "대구 동구 동대구로 550",
      "url": "http://place.map.kakao.com/7842981",
      "region": "대구",
      "description": "KTX, SRT"
    },
    {
      "title": "천안아산역",
      "lat": 36.79434469820448,
      "lng": 127.10444383891124,
      "address": "충남 아산시 배방읍 희망로 100",
      "url": "http://place.map.kakao.com/8598201",
      "region": "충남",
      "description": "KTX, SRT"
    },
    {
      "title": "울산역",
      "lat": 35.551427139940806,
      "lng": 129.1385985245419,
      "address": "울산 울주군 삼남읍 울산역로 177",
      "url": "http://place.map.kakao.com/12656962",
      "region": "울산",
      "description": "KTX, SRT"
    },
    {
      "title": "광주송정역",
      "lat": 35.13766750683345,
      "lng": 126.79080503506053,
      "address": "광주 광산구 상무대로 201",
      "url": "http://place.map.kakao.com/15135890",
      "region": "광주",
      "description": "KTX, SRT"
    },
    {
      "title": "오송역",
      "lat": 36.620086705166656,
      "lng": 127.32760329697118,
      "address": "충북 청주시 흥덕구 오송읍 오송가락로 123",
      "url": "http://place.map.kakao.com/9265313",
      "region": "충북",
      "description": "KTX, SRT"
    },
    {
      "title": "경주역",
      "lat": 35.798377252282435,
      "lng": 129.1389994195668,
      "address": "경북 경주시 건천읍 경주역로 80",
      "url": "http://place.map.kakao.com/12650630",
      "region": "경북",
      "description": "KTX, SRT"
    },
    {
      "title": "익산역",
      "lat": 35.94053257671441,
      "lng": 126.94571730566378,
      "address": "전북특별자치도 익산시 익산대로 153",
      "url": "http://place.map.kakao.com/38198980",
      "region": "전북특별자치도",
      "description": "KTX, SRT"
    },
    {
      "title": "영등포역",
      "lat": 37.515682796141235,
      "lng": 126.9078782908411,
      "address": "서울 영등포구 경인로 846",
      "url": "http://place.map.kakao.com/8001349",
      "region": "서울",
      "description": "KTX"
    },
    {
      "title": "청량리역",
      "lat": 37.57997010526071,
      "lng": 127.04773632414528,
      "address": "서울 동대문구 왕산로 214",
      "url": "http://place.map.kakao.com/8088565",
      "region": "서울",
      "description": "KTX"
    },
    {
      "title": "목포역",
      "lat": 34.79113445784631,
      "lng": 126.38657548066539,
      "address": "전남 목포시 영산로 98",
      "url": "http://place.map.kakao.com/7875967",
      "region": "전남",
      "description": "KTX, SRT"
    },
    {
      "title": "전주역",
      "lat": 35.8498531247183,
      "lng": 127.16180338402,
      "address": "전북특별자치도 전주시 덕진구 동부대로 680",
      "url": "http://place.map.kakao.com/8508642",
      "region": "전북특별자치도",
      "description": "KTX, SRT"
    },
    {
      "title": "강릉역",
      "lat": 37.7645235587621,
      "lng": 128.899627553491,
      "address": "강원특별자치도 강릉시 용지로 176",
      "url": "http://place.map.kakao.com/8632588",
      "region": "강원특별자치도",
      "description": "KTX"
    },
    {
      "title": "서대전역",
      "lat": 36.322491956070564,
      "lng": 127.40330579565601,
      "address": "대전 중구 오류로 23",
      "url": "http://place.map.kakao.com/7946425",
      "region": "대전",
      "description": "KTX"
    },
    {
      "title": "행신역",
      "lat": 37.61192587335611,
      "lng": 126.83413241404135,
      "address": "경기 고양시 덕양구 소원로 102",
      "url": "http://place.map.kakao.com/8671080",
      "region": "경기",
      "description": "KTX"
    },
    {
      "title": "순천역",
      "lat": 34.945801803518485,
      "lng": 127.5030852726651,
      "address": "전남 순천시 팔마로 135",
      "url": "http://place.map.kakao.com/18049670",
      "region": "전남",
      "description": "KTX, SRT"
    },
    {
      "title": "상봉역",
      "lat": 37.59690265237782,
      "lng": 127.08565745176551,
      "address": "서울 중랑구 망우로 297",
      "url": "http://place.map.kakao.com/97032322",
      "region": "서울",
      "description": "KTX"
    },
    {
      "title": "구포역",
      "lat": 35.2054809460664,
      "lng": 128.9971139605,
      "address": "부산 북구 구포만세길 82",
      "url": "http://place.map.kakao.com/8700019",
      "region": "부산",
      "description": "KTX"
    },
    {
      "title": "제천역",
      "lat": 37.12786542706382,
      "lng": 128.20550124214293,
      "address": "충북 제천시 의림대로 1",
      "url": "http://place.map.kakao.com/8065014",
      "region": "충북",
      "description": "KTX"
    },
    {
      "title": "포항역",
      "lat": 36.07160517955013,
      "lng": 129.34192815800867,
      "address": "경북 포항시 북구 흥해읍 포항역로 1",
      "url": "http://place.map.kakao.com/26102196",
      "region": "경북",
      "description": "KTX, SRT"
    },
    {
      "title": "창원역",
      "lat": 35.25745394198104,
      "lng": 128.60662676517705,
      "address": "경남 창원시 의창구 의창대로 67",
      "url": "http://place.map.kakao.com/8083948",
      "region": "경남",
      "description": "KTX, SRT"
    },
    {
      "title": "마산역",
      "lat": 35.23614082851537,
      "lng": 128.57702912364888,
      "address": "경남 창원시 마산회원구 마산역광장로 18",
      "url": "http://place.map.kakao.com/7871141",
      "region": "경남",
      "description": "KTX, SRT"
    },
    {
      "title": "여수엑스포역",
      "lat": 34.75306663529482,
      "lng": 127.74864067327242,
      "address": "전남 여수시 망양로 2",
      "url": "http://place.map.kakao.com/10652213",
      "region": "전남",
      "description": "KTX, SRT"
    },
    {
      "title": "부전역",
      "lat": 35.1646514052361,
      "lng": 129.060119800439,
      "address": "부산 부산진구 부전로 181",
      "url": "http://place.map.kakao.com/1959151038",
      "region": "부산",
      "description": "KTX"
    },
    {
      "title": "태화강역",
      "lat": 35.53884117380788,
      "lng": 129.3533323026285,
      "address": "울산 남구 산업로 654",
      "url": "http://place.map.kakao.com/8031674",
      "region": "울산",
      "description": "KTX"
    },
    {
      "title": "안동역",
      "lat": 36.57446184140353,
      "lng": 128.67487678751093,
      "address": "경북 안동시 경동로 122-16",
      "url": "http://place.map.kakao.com/10591681",
      "region": "경북",
      "description": "KTX"
    },
    {
      "title": "창원중앙역",
      "lat": 35.242350205163,
      "lng": 128.70130739661,
      "address": "경남 창원시 의창구 상남로 381",
      "url": "http://place.map.kakao.com/12750428",
      "region": "경남",
      "description": "KTX, SRT"
    },
    {
      "title": "원주역",
      "lat": 37.31590731732857,
      "lng": 127.9218879220676,
      "address": "강원특별자치도 원주시 북원로 1860",
      "url": "http://place.map.kakao.com/8026641",
      "region": "강원특별자치도",
      "description": "KTX"
    },
    {
      "title": "서대구역",
      "lat": 35.88134694739473,
      "lng": 128.54000702442872,
      "address": "대구 서구 와룡로 527",
      "url": "http://place.map.kakao.com/1439119117",
      "region": "대구",
      "description": "KTX, SRT"
    },
    {
      "title": "진주역",
      "lat": 35.150713268353236,
      "lng": 128.1179167693619,
      "address": "경남 진주시 진주역로 130",
      "url": "http://place.map.kakao.com/18214366",
      "region": "경남",
      "description": "KTX, SRT"
    },
    {
      "title": "김천(구미)역",
      "lat": 36.11354619349747,
      "lng": 128.18100354342397,
      "address": "경북 김천시 남면 혁신1로 51",
      "url": "http://place.map.kakao.com/12657946",
      "region": "경북",
      "description": "KTX, SRT"
    },
    {
      "title": "정읍역",
      "lat": 35.5755065340571,
      "lng": 126.842249568528,
      "address": "전북특별자치도 정읍시 서부산업도로 305",
      "url": "http://place.map.kakao.com/10714926",
      "region": "전북특별자치도",
      "description": "KTX, SRT"
    },
    {
      "title": "논산역",
      "lat": 36.20728183348845,
      "lng": 127.09248485232577,
      "address": "충남 논산시 해월로 236-12",
      "url": "http://place.map.kakao.com/86026504",
      "region": "충남",
      "description": "KTX"
    },
    {
      "title": "영주역",
      "lat": 36.81106551844564,
      "lng": 128.62501800405286,
      "address": "경북 영주시 선비로 64",
      "url": "http://place.map.kakao.com/8441216",
      "region": "경북",
      "description": "KTX"
    },
    {
      "title": "양평역",
      "lat": 37.492792543177,
      "lng": 127.491361792674,
      "address": "경기 양평군 양평읍 역전길 30",
      "url": "http://place.map.kakao.com/25411318",
      "region": "경기",
      "description": "KTX"
    },
    {
      "title": "물금역",
      "lat": 35.30715588016533,
      "lng": 128.98531922704757,
      "address": "경남 양산시 물금읍 황산로 347",
      "url": "http://place.map.kakao.com/8344197",
      "region": "경남",
      "description": "KTX"
    },
    {
      "title": "밀양역",
      "lat": 35.474524008552,
      "lng": 128.771192798788,
      "address": "경남 밀양시 중앙로 62",
      "url": "http://place.map.kakao.com/7880953",
      "region": "경남",
      "description": "KTX, SRT"
    },
    {
      "title": "충주역",
      "lat": 36.9759942228832,
      "lng": 127.909175345928,
      "address": "충북 충주시 충원대로 539",
      "url": "http://place.map.kakao.com/8095018",
      "region": "충북",
      "description": "KTX"
    },
    {
      "title": "나주역",
      "lat": 35.014078336203646,
      "lng": 126.71717488854414,
      "address": "전남 나주시 나주역길 56",
      "url": "http://place.map.kakao.com/8201653",
      "region": "전남",
      "description": "KTX, SRT"
    },
    {
      "title": "경산역",
      "lat": 35.819364296083506,
      "lng": 128.72761819017762,
      "address": "경북 경산시 중앙로 1",
      "url": "http://place.map.kakao.com/8181980",
      "region": "경북",
      "description": "KTX"
    },
    {
      "title": "수서역",
      "lat": 37.48549612670822,
      "lng": 127.10437056849396,
      "address": "서울 강남구 밤고개로 99",
      "url": "http://place.map.kakao.com/2104449482",
      "region": "서울",
      "description": "SRT"
    },
    {
      "title": "동탄역",
      "lat": 37.19994276094583,
      "lng": 127.0957376046916,
      "address": "경기 화성시 동탄역로 지하 151",
      "url": "http://place.map.kakao.com/1589447336",
      "region": "경기",
      "description": "SRT"
    },
    {
      "title": "평택지제역",
      "lat": 37.0187818090483,
      "lng": 127.069832738374,
      "address": "경기 평택시 경기대로 777",
      "url": "http://place.map.kakao.com/1246854638",
      "region": "경기",
      "description": "SRT"
    },
    {
      "title": "공주역",
      "lat": 36.332486503192,
      "lng": 127.096832710763,
      "address": "충남 공주시 이인면 새빛로 100",
      "url": "http://place.map.kakao.com/18520874",
      "region": "충남",
      "description": "KTX, SRT"
    },
    {
      "title": "남원역",
      "lat": 35.41123170900995,
      "lng": 127.36138998636785,
      "address": "전북특별자치도 남원시 교룡로 71",
      "url": "http://place.map.kakao.com/8230241",
      "region": "전북특별자치도",
      "description": "KTX, SRT"
    },
    {
      "title": "진영역",
      "lat": 35.29857664000541,
      "lng": 128.77392752974413,
      "address": "경남 김해시 진영읍 김해대로 809",
      "url": "http://place.map.kakao.com/12395948",
      "region": "경남",
      "description": "KTX, SRT"
    },
    {
      "title": "구례구역",
      "lat": 35.16342970258208,
      "lng": 127.45257855850603,
      "address": "전남 순천시 황전면 섬진강로 217",
      "url": "http://place.map.kakao.com/8210548",
      "region": "전남",
      "description": "KTX, SRT"
    },
    {
      "title": "여천역",
      "lat": 34.779132893853,
      "lng": 127.664167710114,
      "address": "전남 여수시 시청로 200",
      "url": "http://place.map.kakao.com/25049684",
      "region": "전남",
      "description": "KTX, SRT"
    },
    {
      "title": "곡성역",
      "lat": 35.28361029604956,
      "lng": 127.30368393397947,
      "address": "전남 곡성군 곡성읍 곡성로 920",
      "url": "http://place.map.kakao.com/8188247",
      "region": "전남",
      "description": "KTX, SRT"
    },
    {
      "title": "가남역",
      "lat": 37.197791469018966,
      "lng": 127.53555419017886,
      "address": "경기 여주시 가남읍 설가로 820",
      "url": "http://place.map.kakao.com/1336842263",
      "region": "경기",
      "description": "KTX"
    },
    {
      "title": "덕소역",
      "lat": 37.5868830491915,
      "lng": 127.208883449736,
      "address": "경기 남양주시 와부읍 덕소로 56",
      "url": "http://place.map.kakao.com/2073186443",
      "region": "경기",
      "description": "KTX"
    },
    {
      "title": "부발역",
      "lat": 37.25984841672823,
      "lng": 127.49046790502555,
      "address": "경기 이천시 부발읍 신아로 87",
      "url": "http://place.map.kakao.com/1577310426",
      "region": "경기",
      "description": "KTX"
    },
    {
      "title": "단양역",
      "lat": 36.9732470075953,
      "lng": 128.34370071690336,
      "address": "충북 단양군 단양읍 단양로 896",
      "url": "http://place.map.kakao.com/8218483",
      "region": "충북",
      "description": "KTX"
    },
    {
      "title": "수안보온천역",
      "lat": 36.84164116577137,
      "lng": 128.00474878444751,
      "address": "충북 충주시 수안보면 안보리 산 22-5",
      "url": "http://place.map.kakao.com/148579818",
      "region": "충북",
      "description": "KTX"
    },
    {
      "title": "연풍역",
      "lat": 36.78648879392174,
      "lng": 128.01805400857762,
      "address": "충북 괴산군 연풍면 원풍리 452-1",
      "url": "http://place.map.kakao.com/867762439",
      "region": "충북",
      "description": "KTX"
    },
    {
      "title": "감곡장호원역",
      "lat": 37.1267350395183,
      "lng": 127.63549873087771,
      "address": "충북 음성군 감곡면 성주로 96",
      "url": "http://place.map.kakao.com/1068519963",
      "region": "충북",
      "description": "KTX"
    },
    {
      "title": "살미역",
      "lat": 36.90230734850333,
      "lng": 127.96047762165756,
      "address": "충북 충주시 살미면 중원대로 2437",
      "url": "http://place.map.kakao.com/1249938402",
      "region": "충북",
      "description": "KTX"
    },
    {
      "title": "앙성온천역",
      "lat": 37.09238226244329,
      "lng": 127.78710741630962,
      "address": "충북 충주시 앙성면 가곡로 1390-22",
      "url": "http://place.map.kakao.com/1056714694",
      "region": "충북",
      "description": "KTX"
    },
    {
      "title": "계룡역",
      "lat": 36.2729874718231,
      "lng": 127.265253922439,
      "address": "충남 계룡시 두마면 팥거리로 95",
      "url": "http://place.map.kakao.com/8180580",
      "region": "충남",
      "description": "KTX"
    },
    {
      "title": "김제역",
      "lat": 35.7924801745285,
      "lng": 126.902986005603,
      "address": "전북특별자치도 김제시 두월로 198",
      "url": "http://place.map.kakao.com/8243114",
      "region": "전북특별자치도",
      "description": "KTX"
    },
    {
      "title": "장성역",
      "lat": 35.300022173219034,
      "lng": 126.78019386686799,
      "address": "전남 장성군 장성읍 역전로 87",
      "url": "http://place.map.kakao.com/8537613",
      "region": "전남",
      "description": "KTX"
    },
    {
      "title": "문경역",
      "lat": 36.72060199068701,
      "lng": 128.11064390941584,
      "address": "경북 문경시 문경읍 마원리 415-8",
      "url": "http://place.map.kakao.com/22923852",
      "region": "경북",
      "description": "KTX"
    },
    {
      "title": "영천역",
      "lat": 35.959521415625,
      "lng": 128.939164635821,
      "address": "경북 영천시 금완로 98",
      "url": "http://place.map.kakao.com/8005622",
      "region": "경북",
      "description": "KTX"
    },
    {
      "title": "풍기역",
      "lat": 36.87385594076425,
      "lng": 128.52444099490708,
      "address": "경북 영주시 풍기읍 인삼로 1",
      "url": "http://place.map.kakao.com/8138088",
      "region": "경북",
      "description": "KTX"
    },
    {
      "title": "의성역",
      "lat": 36.35379646982797,
      "lng": 128.69348317146265,
      "address": "경북 의성군 의성읍 문소3길 89-8",
      "url": "http://place.map.kakao.com/8042258",
      "region": "경북",
      "description": "KTX"
    },
    {
      "title": "동해역",
      "lat": 37.4981979916023,
      "lng": 129.12379419694,
      "address": "강원특별자치도 동해시 동해역길 69",
      "url": "http://place.map.kakao.com/864462473",
      "region": "강원특별자치도",
      "description": "KTX"
    },
    {
      "title": "정동진역",
      "lat": 37.691430132528666,
      "lng": 129.03268957371495,
      "address": "강원특별자치도 강릉시 강동면 정동역길 17",
      "url": "http://place.map.kakao.com/1995540275",
      "region": "강원특별자치도",
      "description": "KTX"
    },
    {
      "title": "묵호역",
      "lat": 37.546823983577326,
      "lng": 129.1076923125885,
      "address": "강원특별자치도 동해시 해안로 520",
      "url": "http://place.map.kakao.com/10415195",
      "region": "강원특별자치도",
      "description": "KTX"
    },
    {
      "title": "만종역",
      "lat": 37.35369709258809,
      "lng": 127.892993447308,
      "address": "강원특별자치도 원주시 호저면 운동들2길 21-33",
      "url": "http://place.map.kakao.com/1848117661",
      "region": "강원특별자치도",
      "description": "KTX"
    },
    {
      "title": "진부(오대산)역",
      "lat": 37.642737284473796,
      "lng": 128.5744966341257,
      "address": "강원특별자치도 평창군 진부면 송정길 120",
      "url": "http://place.map.kakao.com/1104868973",
      "region": "강원특별자치도",
      "description": "KTX"
    },
    {
      "title": "평창역",
      "lat": 37.56238734136261,
      "lng": 128.42973960787825,
      "address": "강원특별자치도 평창군 용평면 평창대로 1715",
      "url": "http://place.map.kakao.com/1643526010",
      "region": "강원특별자치도",
      "description": "KTX"
    },
    {
      "title": "서원주역",
      "lat": 37.349047276199165,
      "lng": 127.83994525034443,
      "address": "강원특별자치도 원주시 지정면 지정로 145",
      "url": "http://place.map.kakao.com/1790218887",
      "region": "강원특별자치도",
      "description": "KTX"
    },
    {
      "title": "횡성역",
      "lat": 37.4830996641326,
      "lng": 128.010038038557,
      "address": "강원특별자치도 횡성군 횡성읍 덕고로 591",
      "url": "http://place.map.kakao.com/2057426370",
      "region": "강원특별자치도",
      "description": "KTX"
    },
    {
      "title": "둔내역",
      "lat": 37.51031792074762,
      "lng": 128.2212155341101,
      "address": "강원특별자치도 횡성군 둔내면 고원로 116",
      "url": "http://place.map.kakao.com/1654613179",
      "region": "강원특별자치도",
      "description": "KTX"
    }
  ]
}