[
  {
    "id": "21331649",
    "name": "잠원 한강공원 수영장",
    "address": "서울 서초구 잠원동 121",
    "road_address": "",
    "latitude": 37.5195178349586,
    "longitude": 127.009922804923,
    "phone": "02-536-8263",
    "url": "http://place.map.kakao.com/21331649",
    "category": "스포츠,레저 > 수영,수상 > 수영장"
  },
  {
    "id": "10858264",
    "name": "잠실 한강공원 물놀이장",
    "address": "서울 송파구 잠실동 1-1",
    "road_address": "",
    "latitude": 37.517960674319674,
    "longitude": 127.08595738765592,
    "phone": "02-3431-8475",
    "url": "http://place.map.kakao.com/10858264",
    "category": "스포츠,레저 > 수영,수상 > 수영장"
  },
  {
    "id": "13086828",
    "name": "난지 한강공원 물놀이장",
    "address": "서울 마포구 상암동 482-182",
    "road_address": "",
    "latitude": 37.5640488814972,
    "longitude": 126.8793478804,
    "phone": "070-7715-3933",
    "url": "http://place.map.kakao.com/13086828",
    "category": "스포츠,레저 > 수영,수상 > 수영장"
  },
  {
    "id": "11586023",
    "name": "강서구민올림픽체육센터 수영장",
    "address": "서울 강서구 등촌동 707-3",
    "road_address": "서울 강서구 화곡로65길 62",
    "latitude": 37.5597020326672,
    "longitude": 126.85059818871,
    "phone": "02-3661-1999",
    "url": "http://place.map.kakao.com/11586023",
    "category": "스포츠,레저 > 수영,수상 > 수영장"
  },
  {
    "id": "11586085",
    "name": "종로구민회관 수영장",
    "address": "서울 종로구 창신동 222-8",
    "road_address": "서울 종로구 지봉로5길 7-5",
    "latitude": 37.5734980215003,
    "longitude": 127.014439877311,
    "phone": "02-3672-2530",
    "url": "http://place.map.kakao.com/11586085",
    "category": "스포츠,레저 > 수영,수상 > 수영장"
  },
  {
    "id": "7843269",
    "name": "동대문구민체육센터 수영장",
    "address": "서울 동대문구 장안동 356",
    "road_address": "서울 동대문구 장안벚꽃로 67",
    "latitude": 37.566538362878,
    "longitude": 127.073496614169,
    "phone": "02-2247-9772",
    "url": "http://place.map.kakao.com/7843269",
    "category": "스포츠,레저 > 수영,수상 > 수영장"
  },
  {
    "id": "11530299",
    "name": "구로구민체육센터 수영장",
    "address": "서울 구로구 고척동 산 9-14",
    "road_address": "서울 구로구 고척로45길 39",
    "latitude": 37.5066184847981,
    "longitude": 126.853300806677,
    "phone": "02-2681-9595",
    "url": "http://place.map.kakao.com/11530299",
    "category": "스포츠,레저 > 수영,수상 > 수영장"
  },
  {
    "id": "11586030",
    "name": "관악구민종합체육센터 수영장",
    "address": "서울 관악구 봉천동 225",
    "road_address": "서울 관악구 낙성대로3길 37",
    "latitude": 37.47308813949052,
    "longitude": 126.9603763047535,
    "phone": "",
    "url": "http://place.map.kakao.com/11586030",
    "category": "스포츠,레저 > 수영,수상 > 수영장"
  },
  {
    "id": "11586073",
    "name": "영등포 제1구민체육센터 수영장",
    "address": "서울 영등포구 신길동 426-3",
    "road_address": "서울 영등포구 신풍로 1",
    "latitude": 37.5006034206188,
    "longitude": 126.906523901164,
    "phone": "02-2650-1516",
    "url": "http://place.map.kakao.com/11586073",
    "category": "스포츠,레저 > 수영,수상 > 수영장"
  },
  {
    "id": "11586088",
    "name": "중랑구민체육센터 수영장",
    "address": "서울 중랑구 묵동 22-1",
    "road_address": "서울 중랑구 신내로15길 189",
    "latitude": 37.6152113238518,
    "longitude": 127.087349090737,
    "phone": "02-3423-1070",
    "url": "http://place.map.kakao.com/11586088",
    "category": "스포츠,레저 > 수영,수상 > 수영장"
  },
  {
    "id": "11586056",
    "name": "서초구민체육센터 수영장",
    "address": "서울 서초구 반포동 114-3",
    "road_address": "서울 서초구 사평대로 55",
    "latitude": 37.4988632369067,
    "longitude": 126.990491568787,
    "phone": "02-591-6060",
    "url": "http://place.map.kakao.com/11586056",
    "category": "스포츠,레저 > 수영,수상 > 수영장"
  },
  {
    "id": "11530533",
    "name": "금천구민문화체육센터 수영장",
    "address": "서울 금천구 독산동 371-2",
    "road_address": "서울 금천구 독산로54길 188",
    "latitude": 37.470186148348,
    "longitude": 126.90748875715,
    "phone": "02-861-1313",
    "url": "http://place.map.kakao.com/11530533",
    "category": "스포츠,레저 > 수영,수상 > 수영장"
  },
  {
    "id": "1716223845",
    "name": "은평구민체육센터 수영장",
    "address": "서울 은평구 진관동 362",
    "road_address": "서울 은평구 진관1로 40",
    "latitude": 37.6304635949099,
    "longitude": 126.923557325416,
    "phone": "02-350-5351",
    "url": "http://place.map.kakao.com/1716223845",
    "category": "스포츠,레저 > 수영,수상 > 수영장"
  },
  {
    "id": "1177451515",
    "name": "부산시민스포츠센타 수영장",
    "address": "부산 사상구 주례동 1162-90",
    "road_address": "부산 사상구 학장로324번길 8",
    "latitude": 35.1490738028118,
    "longitude": 129.000452251284,
    "phone": "051-314-3360",
    "url": "http://place.map.kakao.com/1177451515",
    "category": "스포츠,레저 > 수영,수상 > 수영장"
  },
  {
    "id": "27138080",
    "name": "부산국민체육센터 실내수영장",
    "address": "부산 서구 서대신동3가 210-3",
    "road_address": "부산 서구 대신로 150",
    "latitude": 35.117460956115,
    "longitude": 129.015652280519,
    "phone": "051-243-5959",
    "url": "http://place.map.kakao.com/27138080",
    "category": "스포츠,레저 > 수영,수상 > 수영장"
  },
  {
    "id": "1487450250",
    "name": "대구남구 공공실내수영장 (2026년예정)",
    "address": "대구 남구 대명동 1745-9",
    "road_address": "",
    "latitude": 35.8488628335657,
    "longitude": 128.578907701106,
    "phone": "",
    "url": "http://place.map.kakao.com/1487450250",
    "category": "스포츠,레저 > 수영,수상 > 수영장"
  },
  {
    "id": "11586059",
    "name": "성서국민체육센터 수영장",
    "address": "대구 달서구 이곡동 1325",
    "road_address": "대구 달서구 선원로 133",
    "latitude": 35.8595668637324,
    "longitude": 128.506909908077,
    "phone": "",
    "url": "http://place.map.kakao.com/11586059",
    "category": "스포츠,레저 > 수영,수상 > 수영장"
  },
  {
    "id": "11585887",
    "name": "군위국민체육센터 실내수영장",
    "address": "대구 군위군 군위읍 동부리 155",
    "road_address": "대구 군위군 군위읍 군청로 158",
    "latitude": 36.2371165698643,
    "longitude": 128.573962222192,
    "phone": "054-380-6884",
    "url": "http://place.map.kakao.com/11585887",
    "category": "스포츠,레저 > 수영,수상 > 수영장"
  },
  {
    "id": "11586048",
    "name": "부평국민체육센터 수영장",
    "address": "인천 부평구 갈산동 348-13",
    "road_address": "인천 부평구 부평대로296번길 33",
    "latitude": 37.5187986304931,
    "longitude": 126.723698287673,
    "phone": "032-521-3003",
    "url": "http://place.map.kakao.com/11586048",
    "category": "스포츠,레저 > 수영,수상 > 수영장"
  },
  {
    "id": "2060917031",
    "name": "광주시민의숲 물놀이장",
    "address": "광주 북구 오룡동 1117",
    "road_address": "",
    "latitude": 35.21880764982743,
    "longitude": 126.85805187240764,
    "phone": "062-613-6465",
    "url": "http://place.map.kakao.com/2060917031",
    "category": "스포츠,레저 > 수영,수상 > 수영장"
  },
  {
    "id": "1703087661",
    "name": "상무시민공원 물놀이장",
    "address": "광주 서구 치평동 1162",
    "road_address": "",
    "latitude": 35.1529109591757,
    "longitude": 126.84169219585,
    "phone": "",
    "url": "http://place.map.kakao.com/1703087661",
    "category": "스포츠,레저 > 수영,수상 > 수영장 > 어린이수영장"
  },
  {
    "id": "528595561",
    "name": "무등경기장 국민체육센터 수영장",
    "address": "광주 북구 임동 316",
    "road_address": "광주 북구 서림로 10",
    "latitude": 35.1694819438302,
    "longitude": 126.888136674132,
    "phone": "062-512-3360",
    "url": "http://place.map.kakao.com/528595561",
    "category": "스포츠,레저 > 수영,수상 > 수영장"
  },
  {
    "id": "560100956",
    "name": "중촌시민공원 물놀이장",
    "address": "대전 중구 중촌동 413-13",
    "road_address": "",
    "latitude": 36.3391726185358,
    "longitude": 127.40414364324205,
    "phone": "042-382-2040",
    "url": "http://place.map.kakao.com/560100956",
    "category": "스포츠,레저 > 수영,수상 > 수영장 > 어린이수영장"
  },
  {
    "id": "8223078",
    "name": "남선공원종합체육관 파도풀장",
    "address": "대전 서구 탄방동 1084",
    "road_address": "대전 서구 남선로 66",
    "latitude": 36.3476719557066,
    "longitude": 127.398402581749,
    "phone": "042-488-5605",
    "url": "http://place.map.kakao.com/8223078",
    "category": "스포츠,레저 > 수영,수상 > 수영장"
  },
  {
    "id": "11586339",
    "name": "동천국민체육센터 수영장",
    "address": "울산 중구 남외동 507-1",
    "road_address": "울산 중구 염포로 85-1",
    "latitude": 35.563604147899,
    "longitude": 129.349949834082,
    "phone": "052-296-2512",
    "url": "http://place.map.kakao.com/11586339",
    "category": "스포츠,레저 > 수영,수상 > 수영장"
  },
  {
    "id": "11586040",
    "name": "동구국민체육센터 수영장",
    "address": "울산 동구 화정동 208-20",
    "road_address": "울산 동구 봉수로 153",
    "latitude": 35.5035202207123,
    "longitude": 129.416405853581,
    "phone": "",
    "url": "http://place.map.kakao.com/11586040",
    "category": "스포츠,레저 > 수영,수상 > 수영장"
  },
  {
    "id": "11586087",
    "name": "구리시민스포츠센터 수영장",
    "address": "경기 구리시 토평동 9-1",
    "road_address": "경기 구리시 왕숙천로 49",
    "latitude": 37.5877409326447,
    "longitude": 127.160413209068,
    "phone": "031-558-3301",
    "url": "http://place.map.kakao.com/11586087",
    "category": "스포츠,레저 > 수영,수상 > 수영장"
  },
  {
    "id": "597835761",
    "name": "동두천어울림센터 시민수영장",
    "address": "경기 동두천시 생연동 594-1",
    "road_address": "경기 동두천시 중앙로 268",
    "latitude": 37.9055762880203,
    "longitude": 127.054781988994,
    "phone": "031-868-8633",
    "url": "http://place.map.kakao.com/597835761",
    "category": "스포츠,레저 > 수영,수상 > 수영장"
  },
  {
    "id": "17571459",
    "name": "동두천시민회관 야외수영장",
    "address": "경기 동두천시 상패동 122-2",
    "road_address": "경기 동두천시 어수로 8",
    "latitude": 37.9051700209937,
    "longitude": 127.043895394259,
    "phone": "",
    "url": "http://place.map.kakao.com/17571459",
    "category": "서비스,산업 > 관리,운영 > 문화시설관리운영"
  },
  {
    "id": "1663239105",
    "name": "광명시민체육관 어린이물놀이장",
    "address": "경기 광명시 하안동 577",
    "road_address": "경기 광명시 오리로 703",
    "latitude": 37.4628875057512,
    "longitude": 126.870548181779,
    "phone": "",
    "url": "http://place.map.kakao.com/1663239105",
    "category": "스포츠,레저 > 수영,수상 > 수영장 > 어린이수영장"
  },
  {
    "id": "12959631",
    "name": "장안구민회관 푸르내수영장",
    "address": "경기 수원시 장안구 조원동 888",
    "road_address": "경기 수원시 장안구 송원로 101",
    "latitude": 37.3033596482665,
    "longitude": 127.009524367628,
    "phone": "031-240-3028",
    "url": "http://place.map.kakao.com/12959631",
    "category": "스포츠,레저 > 수영,수상 > 수영장"
  },
  {
    "id": "11586340",
    "name": "소사국민체육센터 수영장",
    "address": "경기 부천시 소사구 소사본동 400-1",
    "road_address": "경기 부천시 소사구 소사로 108",
    "latitude": 37.4685225628717,
    "longitude": 126.798567976907,
    "phone": "032-340-5330",
    "url": "http://place.map.kakao.com/11586340",
    "category": "스포츠,레저 > 수영,수상 > 수영장"
  },
  {
    "id": "26527021",
    "name": "시흥국민체육센터 수영장",
    "address": "경기 시흥시 하중동 880-1",
    "road_address": "경기 시흥시 하중로 226",
    "latitude": 37.39145838470785,
    "longitude": 126.8053624752302,
    "phone": "031-8084-0115",
    "url": "http://place.map.kakao.com/26527021",
    "category": "스포츠,레저 > 수영,수상 > 수영장"
  },
  {
    "id": "24633545",
    "name": "서평택국민체육센터 실내수영장",
    "address": "경기 평택시 안중읍 학현리 572-1",
    "road_address": "경기 평택시 안중읍 서동대로 1531",
    "latitude": 36.9891294763279,
    "longitude": 126.919509662004,
    "phone": "031-8024-8244",
    "url": "http://place.map.kakao.com/24633545",
    "category": "스포츠,레저 > 수영,수상 > 수영장"
  },
  {
    "id": "24632943",
    "name": "안성시국민체육센터 실내수영장",
    "address": "경기 안성시 보개면 양복리 210",
    "road_address": "",
    "latitude": 37.0128856011505,
    "longitude": 127.329072561093,
    "phone": "070-8856-2330",
    "url": "http://place.map.kakao.com/24632943",
    "category": "스포츠,레저 > 수영,수상 > 수영장"
  },
  {
    "id": "11586004",
    "name": "하남종합운동장 국민체육센터 수영장",
    "address": "경기 하남시 망월동 200",
    "road_address": "경기 하남시 아리수로 600",
    "latitude": 37.56705197094183,
    "longitude": 127.19587564518132,
    "phone": "031-790-2000",
    "url": "http://place.map.kakao.com/11586004",
    "category": "스포츠,레저 > 수영,수상 > 수영장"
  },
  {
    "id": "679280114",
    "name": "광교웰빙국민체육센터 수영장",
    "address": "경기 수원시 영통구 이의동 1183",
    "road_address": "경기 수원시 영통구 웰빙타운로 71",
    "latitude": 37.305032616191234,
    "longitude": 127.04309860441373,
    "phone": "",
    "url": "http://place.map.kakao.com/679280114",
    "category": "스포츠,레저 > 수영,수상 > 수영장"
  },
  {
    "id": "24632942",
    "name": "조종국민체육센터 수영장",
    "address": "경기 가평군 조종면 현리 420-9",
    "road_address": "경기 가평군 조종면 조종희망로26번길 16",
    "latitude": 37.8183982518118,
    "longitude": 127.352200335314,
    "phone": "031-8078-8091",
    "url": "http://place.map.kakao.com/24632942",
    "category": "스포츠,레저 > 수영,수상 > 수영장"
  },
  {
    "id": "365979082",
    "name": "부천국민체육센터",
    "address": "경기 부천시 원미구 중동 1024",
    "road_address": "경기 부천시 원미구 석천로 293",
    "latitude": 37.51259633075267,
    "longitude": 126.76409517155074,
    "phone": "032-340-0815",
    "url": "http://place.map.kakao.com/365979082",
    "category": "스포츠,레저 > 수영,수상 > 수영장"
  },
  {
    "id": "24632949",
    "name": "용문국민체육센터",
    "address": "경기 양평군 용문면 마룡리 272",
    "road_address": "경기 양평군 용문면 용문체육공원길 55",
    "latitude": 37.4918677609751,
    "longitude": 127.60590624292,
    "phone": "031-775-7911",
    "url": "http://place.map.kakao.com/24632949",
    "category": "스포츠,레저 > 수영,수상 > 수영장"
  },
  {
    "id": "1450936833",
    "name": "안성수영국민체육센터",
    "address": "경기 안성시 금산동 119",
    "road_address": "경기 안성시 학자로 17",
    "latitude": 37.0113795039905,
    "longitude": 127.268369704653,
    "phone": "031-677-5500",
    "url": "http://place.map.kakao.com/1450936833",
    "category": "스포츠,레저 > 수영,수상 > 수영장"
  },
  {
    "id": "7911625",
    "name": "분당올림픽스포츠센터 수영장",
    "address": "경기 성남시 분당구 서현동 90",
    "road_address": "경기 성남시 분당구 중앙공원로 35",
    "latitude": 37.3808687464739,
    "longitude": 127.128663726146,
    "phone": "031-708-7483",
    "url": "http://place.map.kakao.com/7911625",
    "category": "스포츠,레저 > 수영,수상 > 수영장"
  },
  {
    "id": "1045059095",
    "name": "국민체육센터 수영장",
    "address": "강원특별자치도 춘천시 석사동 산 29-3",
    "road_address": "강원특별자치도 춘천시 우석로 102-3",
    "latitude": 37.8626168277644,
    "longitude": 127.756676095894,
    "phone": "033-240-1776",
    "url": "http://place.map.kakao.com/1045059095",
    "category": "스포츠,레저 > 수영,수상 > 수영장"
  },
  {
    "id": "11585969",
    "name": "원주국민체육센터 수영장",
    "address": "강원특별자치도 원주시 명륜동 555",
    "road_address": "강원특별자치도 원주시 남원로 551",
    "latitude": 37.3340718990803,
    "longitude": 127.946597627301,
    "phone": "033-749-4700",
    "url": "http://place.map.kakao.com/11585969",
    "category": "스포츠,레저 > 수영,수상 > 수영장"
  },
  {
    "id": "1137297892",
    "name": "강릉국민체육센터 수영장",
    "address": "강원특별자치도 강릉시 교동 458-1",
    "road_address": "강원특별자치도 강릉시 수리골길 76",
    "latitude": 37.7770842958109,
    "longitude": 128.896980015592,
    "phone": "033-640-4550",
    "url": "http://place.map.kakao.com/1137297892",
    "category": "스포츠,레저 > 수영,수상 > 수영장"
  },
  {
    "id": "2078790649",
    "name": "홍천군국민체육센터 수영장 매점",
    "address": "강원특별자치도 홍천군 홍천읍 태학리 산 25",
    "road_address": "강원특별자치도 홍천군 홍천읍 태학여내길 31",
    "latitude": 37.7090805850686,
    "longitude": 127.906313133484,
    "phone": "",
    "url": "http://place.map.kakao.com/2078790649",
    "category": "가정,생활 > 편의점"
  },
  {
    "id": "318607993",
    "name": "속초국민체육센터",
    "address": "강원특별자치도 속초시 조양동 1083",
    "road_address": "강원특별자치도 속초시 조양로 89",
    "latitude": 38.18671991894225,
    "longitude": 128.59065587486245,
    "phone": "033-631-8365",
    "url": "http://place.map.kakao.com/318607993",
    "category": "스포츠,레저 > 수영,수상 > 수영장"
  },
  {
    "id": "685553225",
    "name": "충주국민체육센터 수영장",
    "address": "충북 충주시 호암동 569",
    "road_address": "충북 충주시 중원대로 3306",
    "latitude": 36.96278187641343,
    "longitude": 127.92691099861032,
    "phone": "043-830-9230",
    "url": "http://place.map.kakao.com/685553225",
    "category": "스포츠,레저 > 수영,수상 > 수영장"
  },
  {
    "id": "361947286",
    "name": "맹동혁신국민체육센터 수영장",
    "address": "충북 음성군 맹동면 동성리 486",
    "road_address": "충북 음성군 맹동면 학예로 14",
    "latitude": 36.9107118120705,
    "longitude": 127.541913801923,
    "phone": "043-750-8840",
    "url": "http://place.map.kakao.com/361947286",
    "category": "스포츠,레저 > 수영,수상 > 수영장"
  },
  {
    "id": "13495442",
    "name": "영동국민체육센터 수영장",
    "address": "충북 영동군 영동읍 설계리 산 12-1",
    "road_address": "충북 영동군 영동읍 대학로 310",
    "latitude": 36.1981384813698,
    "longitude": 127.797665136224,
    "phone": "",
    "url": "http://place.map.kakao.com/13495442",
    "category": "스포츠,레저 > 수영,수상 > 수영장"
  },
  {
    "id": "27526065",
    "name": "생거진천국민체육센터 수영장",
    "address": "충북 진천군 진천읍 교성리 74",
    "road_address": "충북 진천군 진천읍 문화로 69-11",
    "latitude": 36.84749619229087,
    "longitude": 127.439940305601,
    "phone": "043-539-3806",
    "url": "http://place.map.kakao.com/27526065",
    "category": "스포츠,레저 > 수영,수상 > 수영장"
  },
  {
    "id": "348143271",
    "name": "충주장애인형국민체육센터 장애인수영장",
    "address": "충북 충주시 호암동 967",
    "road_address": "충북 충주시 모시래길 105",
    "latitude": 36.95926776432485,
    "longitude": 127.91166444227714,
    "phone": "043-830-9240",
    "url": "http://place.map.kakao.com/348143271",
    "category": "스포츠,레저 > 수영,수상 > 수영장"
  },
  {
    "id": "2086742008",
    "name": "논산시민공원 물놀이장",
    "address": "충남 논산시 관촉동 314",
    "road_address": "",
    "latitude": 36.194906013844,
    "longitude": 127.107133185628,
    "phone": "",
    "url": "http://place.map.kakao.com/2086742008",
    "category": "스포츠,레저 > 수영,수상 > 수영장"
  },
  {
    "id": "1167647336",
    "name": "아산둔포국민체육센터 수영장",
    "address": "충남 아산시 둔포면 석곡리 1481",
    "road_address": "충남 아산시 둔포면 중앙공원로 51",
    "latitude": 36.9184579909843,
    "longitude": 127.058927148264,
    "phone": "041-536-8840",
    "url": "http://place.map.kakao.com/1167647336",
    "category": "스포츠,레저 > 수영,수상 > 수영장"
  },
  {
    "id": "27433294",
    "name": "서산국민체육센터 수영장",
    "address": "충남 서산시 갈산동 90",
    "road_address": "충남 서산시 안견로 661",
    "latitude": 36.79834794139251,
    "longitude": 126.43764796184821,
    "phone": "041-660-3103",
    "url": "http://place.map.kakao.com/27433294",
    "category": "스포츠,레저 > 수영,수상 > 수영장"
  },
  {
    "id": "13575098",
    "name": "보령국민체육센터 수영장",
    "address": "충남 보령시 남포면 창동리 653-105",
    "road_address": "충남 보령시 남포면 보령남로 347",
    "latitude": 36.3139252657535,
    "longitude": 126.603947235268,
    "phone": "041-930-0963",
    "url": "http://place.map.kakao.com/13575098",
    "category": "스포츠,레저 > 수영,수상 > 수영장"
  },
  {
    "id": "463889144",
    "name": "국립공주대학교 신관캠퍼스 공주국민체육센터 수영장",
    "address": "충남 공주시 신관동 182",
    "road_address": "충남 공주시 공주대학로 56",
    "latitude": 36.465738776051,
    "longitude": 127.13700123368,
    "phone": "",
    "url": "http://place.map.kakao.com/463889144",
    "category": "스포츠,레저 > 수영,수상 > 수영장"
  },
  {
    "id": "12139507",
    "name": "논산시국민체육센터 수영장",
    "address": "충남 논산시 관촉동 327-7",
    "road_address": "충남 논산시 논산대로 382",
    "latitude": 36.1961376318793,
    "longitude": 127.1034068201,
    "phone": "041-746-8403",
    "url": "http://place.map.kakao.com/12139507",
    "category": "스포츠,레저 > 수영,수상 > 수영장"
  },
  {
    "id": "26007562",
    "name": "천안종합운동장 수영장",
    "address": "충남 천안시 서북구 백석동 251",
    "road_address": "충남 천안시 서북구 번영로 208",
    "latitude": 36.8200355782855,
    "longitude": 127.113094416963,
    "phone": "041-529-5092",
    "url": "http://place.map.kakao.com/26007562",
    "category": "스포츠,레저 > 수영,수상 > 수영장"
  },
  {
    "id": "17573002",
    "name": "천안종합운동장 수영장사우나전용주차장",
    "address": "충남 천안시 서북구 백석동 287-1",
    "road_address": "충남 천안시 서북구 번영로 208",
    "latitude": 36.8212828650212,
    "longitude": 127.112934852745,
    "phone": "",
    "url": "http://place.map.kakao.com/17573002",
    "category": "교통,수송 > 교통시설 > 주차장"
  },
  {
    "id": "30271014",
    "name": "김제시민공원 어린이물놀이장",
    "address": "전북특별자치도 김제시 검산동 433",
    "road_address": "전북특별자치도 김제시 도작로 224-122",
    "latitude": 35.81299046011306,
    "longitude": 126.90217324485599,
    "phone": "",
    "url": "http://place.map.kakao.com/30271014",
    "category": "스포츠,레저 > 수영,수상 > 수영장 > 어린이수영장"
  },
  {
    "id": "26777457",
    "name": "전북특별자치도국민체육센터 수영장",
    "address": "전북특별자치도 전주시 덕진구 우아동1가 1007-1",
    "road_address": "전북특별자치도 전주시 덕진구 한배미6길 7",
    "latitude": 35.8236909559345,
    "longitude": 127.169983630975,
    "phone": "063-246-0534",
    "url": "http://place.map.kakao.com/26777457",
    "category": "스포츠,레저 > 수영,수상 > 수영장"
  },
  {
    "id": "1424710399",
    "name": "군산국민체육센터 수영장",
    "address": "전북특별자치도 군산시 대야면 산월리 795-1",
    "road_address": "전북특별자치도 군산시 대야면 석화로 63-15",
    "latitude": 35.9506027311275,
    "longitude": 126.816302233191,
    "phone": "",
    "url": "http://place.map.kakao.com/1424710399",
    "category": "스포츠,레저 > 수영,수상 > 수영장"
  },
  {
    "id": "12011371",
    "name": "부안국민체육센터 수영장",
    "address": "전북특별자치도 부안군 부안읍 동중리 99-8",
    "road_address": "전북특별자치도 부안군 부안읍 석정로 165",
    "latitude": 35.7308847703856,
    "longitude": 126.737227484145,
    "phone": "063-580-3995",
    "url": "http://place.map.kakao.com/12011371",
    "category": "스포츠,레저 > 수영,수상 > 수영장"
  },
  {
    "id": "2064102282",
    "name": "임실국민체육센터 수영장",
    "address": "전북특별자치도 임실군 임실읍 이도리 504",
    "road_address": "전북특별자치도 임실군 임실읍 호국로 1628",
    "latitude": 35.608207203543,
    "longitude": 127.281437545324,
    "phone": "063-640-4456",
    "url": "http://place.map.kakao.com/2064102282",
    "category": "스포츠,레저 > 수영,수상 > 수영장"
  },
  {
    "id": "26370935",
    "name": "전북특별자치도교육청남원학생교육문화관 수영장",
    "address": "전북특별자치도 남원시 동충동 171-2",
    "road_address": "전북특별자치도 남원시 용성로 49",
    "latitude": 35.4099843808662,
    "longitude": 127.381580136239,
    "phone": "063-636-7070",
    "url": "http://place.map.kakao.com/26370935",
    "category": "스포츠,레저 > 수영,수상 > 수영장"
  },
  {
    "id": "105699489",
    "name": "화순군민종합문화센터 수영장",
    "address": "전남 화순군 화순읍 신기리 405-2",
    "road_address": "전남 화순군 화순읍 광덕로 231",
    "latitude": 35.0655445177214,
    "longitude": 126.991679028985,
    "phone": "061-379-3951",
    "url": "http://place.map.kakao.com/105699489",
    "category": "스포츠,레저 > 수영,수상 > 수영장"
  },
  {
    "id": "1487026395",
    "name": "망마국민체육센터 수영장",
    "address": "전남 여수시 시전동 109",
    "road_address": "전남 여수시 여천체육공원길 49",
    "latitude": 34.758748907447874,
    "longitude": 127.67835824974992,
    "phone": "061-684-8227",
    "url": "http://place.map.kakao.com/1487026395",
    "category": "스포츠,레저 > 수영,수상 > 수영장"
  },
  {
    "id": "14509612",
    "name": "화순국민체육센터 수영장",
    "address": "전남 화순군 화순읍 신기리 405-2",
    "road_address": "전남 화순군 화순읍 광덕로 231",
    "latitude": 35.0656193387641,
    "longitude": 126.991782074355,
    "phone": "061-379-3951",
    "url": "http://place.map.kakao.com/14509612",
    "category": "스포츠,레저 > 수영,수상 > 수영장"
  },
  {
    "id": "24901262",
    "name": "우슬국민체육센터 조오련수영장",
    "address": "전남 해남군 해남읍 해리 산 34-4",
    "road_address": "전남 해남군 해남읍 해남로 72",
    "latitude": 34.5674731621709,
    "longitude": 126.618343005549,
    "phone": "061-530-5796",
    "url": "http://place.map.kakao.com/24901262",
    "category": "스포츠,레저 > 수영,수상 > 수영장"
  },
  {
    "id": "1156252022",
    "name": "장흥국민체육센터 수영장",
    "address": "전남 장흥군 장흥읍 건산리 318-2",
    "road_address": "전남 장흥군 장흥읍 흥성로 43",
    "latitude": 34.6757138494919,
    "longitude": 126.908040503667,
    "phone": "",
    "url": "http://place.map.kakao.com/1156252022",
    "category": "스포츠,레저 > 수영,수상 > 수영장"
  },
  {
    "id": "1025636164",
    "name": "담양국민체육센터(담빛수영장) 전기차충전소",
    "address": "전남 담양군 담양읍 만성리 460",
    "road_address": "전남 담양군 담양읍 담장로 20",
    "latitude": 35.32845027072407,
    "longitude": 126.97173178040114,
    "phone": "1661-9408",
    "url": "http://place.map.kakao.com/1025636164",
    "category": "교통,수송 > 자동차 > 전기차 충전소"
  },
  {
    "id": "11585874",
    "name": "경주국민체육센터 수영장",
    "address": "경북 경주시 황성동 800-10",
    "road_address": "경북 경주시 유림로5번길 85-15",
    "latitude": 35.8790908219269,
    "longitude": 129.217162144791,
    "phone": "",
    "url": "http://place.map.kakao.com/11585874",
    "category": "스포츠,레저 > 수영,수상 > 수영장"
  },
  {
    "id": "24632953",
    "name": "상주시국민체육센터 수영장",
    "address": "경북 상주시 복룡동 130",
    "road_address": "경북 상주시 영남제일로 1432",
    "latitude": 36.4224428232039,
    "longitude": 128.184002186343,
    "phone": "054-532-7173",
    "url": "http://place.map.kakao.com/24632953",
    "category": "스포츠,레저 > 수영,수상 > 수영장"
  },
  {
    "id": "460326371",
    "name": "안동국민체육센터 수영장",
    "address": "경북 안동시 서후면 교리 496",
    "road_address": "경북 안동시 서후면 서선길 189",
    "latitude": 36.5886850926897,
    "longitude": 128.653684667221,
    "phone": "054-851-3687",
    "url": "http://place.map.kakao.com/460326371",
    "category": "스포츠,레저 > 수영,수상 > 수영장"
  },
  {
    "id": "1649329246",
    "name": "석적국민체육센터 수영장",
    "address": "경북 칠곡군 석적읍 남율리 895",
    "road_address": "경북 칠곡군 석적읍 남율로7길 5",
    "latitude": 36.0661382624907,
    "longitude": 128.401070349383,
    "phone": "",
    "url": "http://place.map.kakao.com/1649329246",
    "category": "스포츠,레저 > 수영,수상 > 수영장"
  },
  {
    "id": "13336261",
    "name": "문경시국민체육센터 실내수영장",
    "address": "경북 문경시 모전동 498",
    "road_address": "경북 문경시 점고길 30",
    "latitude": 36.5955072862837,
    "longitude": 128.185537166205,
    "phone": "054-555-0288",
    "url": "http://place.map.kakao.com/13336261",
    "category": "스포츠,레저 > 수영,수상 > 수영장"
  },
  {
    "id": "149466473",
    "name": "봉화국민체육센터 실내수영장",
    "address": "경북 봉화군 봉화읍 해저리 산 4-7",
    "road_address": "경북 봉화군 봉화읍 봉화로 1111-105",
    "latitude": 36.8960467296392,
    "longitude": 128.728575639116,
    "phone": "",
    "url": "http://place.map.kakao.com/149466473",
    "category": "스포츠,레저 > 수영,수상 > 수영장"
  },
  {
    "id": "11585936",
    "name": "시민스포츠센터 수영장",
    "address": "경남 김해시 내동 1131",
    "road_address": "경남 김해시 김해대로 2060",
    "latitude": 35.2437879922027,
    "longitude": 128.869415541738,
    "phone": "055-320-1200",
    "url": "http://place.map.kakao.com/11585936",
    "category": "스포츠,레저 > 수영,수상 > 수영장"
  },
  {
    "id": "26777613",
    "name": "시민생활체육관 수영장",
    "address": "경남 창원시 성산구 상남동 43-2",
    "road_address": "경남 창원시 성산구 원이대로 692",
    "latitude": 35.2223886537649,
    "longitude": 128.688023474767,
    "phone": "055-712-0775",
    "url": "http://place.map.kakao.com/26777613",
    "category": "스포츠,레저 > 수영,수상 > 수영장"
  },
  {
    "id": "843540787",
    "name": "쌍벽루국민체육센터 실내수영장",
    "address": "경남 양산시 북부동 533",
    "road_address": "경남 양산시 양산대로 849",
    "latitude": 35.3485214072942,
    "longitude": 129.035478800184,
    "phone": "055-379-8440",
    "url": "http://place.map.kakao.com/843540787",
    "category": "스포츠,레저 > 수영,수상 > 수영장"
  },
  {
    "id": "1766877148",
    "name": "곰두리국민체육센터 수영장",
    "address": "경남 창원시 의창구 도계동 470",
    "road_address": "경남 창원시 의창구 원이대로114번길 6",
    "latitude": 35.2531364818797,
    "longitude": 128.63672445423,
    "phone": "",
    "url": "http://place.map.kakao.com/1766877148",
    "category": "스포츠,레저 > 수영,수상 > 수영장"
  },
  {
    "id": "1097345221",
    "name": "우주항공 국민체육센터 수영장",
    "address": "경남 사천시 정동면 예수리 405",
    "road_address": "경남 사천시 정동면 사천강2길 36",
    "latitude": 35.0706417284599,
    "longitude": 128.084084670913,
    "phone": "",
    "url": "http://place.map.kakao.com/1097345221",
    "category": "스포츠,레저 > 수영,수상 > 수영장"
  },
  {
    "id": "1854693201",
    "name": "진주국민체육센터 진주실내수영장",
    "address": "경남 진주시 초전동 1583-14",
    "road_address": "경남 진주시 남강로 1655",
    "latitude": 35.208725360761306,
    "longitude": 128.1250181563159,
    "phone": "055-756-3070",
    "url": "http://place.map.kakao.com/1854693201",
    "category": "스포츠,레저 > 수영,수상 > 수영장"
  },
  {
    "id": "2015657989",
    "name": "함안군국민체육센터 수영장",
    "address": "경남 함안군 칠원읍 용산리 317-7",
    "road_address": "경남 함안군 칠원읍 용산2길 68",
    "latitude": 35.3099221541116,
    "longitude": 128.516048202241,
    "phone": "055-586-2116",
    "url": "http://place.map.kakao.com/2015657989",
    "category": "스포츠,레저 > 수영,수상 > 수영장"
  },
  {
    "id": "1018446572",
    "name": "제주시국민체육센터 수영장",
    "address": "제주특별자치도 제주시 건입동 513",
    "road_address": "제주특별자치도 제주시 사라봉동길 25",
    "latitude": 33.5145777246342,
    "longitude": 126.546298530644,
    "phone": "064-728-3461",
    "url": "http://place.map.kakao.com/1018446572",
    "category": "스포츠,레저 > 수영,수상 > 수영장"
  }
]