[
  {
    "id": "11902329",
    "name": "맥도날드 서울시청점",
    "address": "서울 중구 을지로1가 32",
    "road_address": "서울 중구 남대문로9길 51",
    "latitude": 37.5668369438027,
    "longitude": 126.979367619692,
    "phone": "02-6215-8100",
    "url": "http://place.map.kakao.com/11902329",
    "category": "음식점 > 패스트푸드 > 맥도날드"
  },
  {
    "id": "22318989",
    "name": "맥도날드 강남2호점",
    "address": "서울 강남구 역삼동 822-2",
    "road_address": "서울 강남구 테헤란로 107",
    "latitude": 37.49864658673187,
    "longitude": 127.02873329209403,
    "phone": "02-6205-6400",
    "url": "http://place.map.kakao.com/22318989",
    "category": "음식점 > 패스트푸드 > 맥도날드"
  },
  {
    "id": "8350550",
    "name": "맥도날드 종로3가점",
    "address": "서울 종로구 종로3가 10",
    "road_address": "서울 종로구 종로 115",
    "latitude": 37.57056758352427,
    "longitude": 126.9904779328265,
    "phone": "02-6215-7800",
    "url": "http://place.map.kakao.com/8350550",
    "category": "음식점 > 패스트푸드 > 맥도날드"
  },
  {
    "id": "27336044",
    "name": "맥도날드 서울둔촌DT점",
    "address": "서울 강동구 둔촌동 517-2",
    "road_address": "서울 강동구 양재대로 1382",
    "latitude": 37.5293314748911,
    "longitude": 127.137276627444,
    "phone": "02-6140-5000",
    "url": "http://place.map.kakao.com/27336044",
    "category": "음식점 > 패스트푸드 > 맥도날드"
  },
  {
    "id": "25002367",
    "name": "맥도날드 강남구청점",
    "address": "서울 강남구 논현동 242-29",
    "road_address": "서울 강남구 선릉로 667",
    "latitude": 37.5162457553437,
    "longitude": 127.041413345131,
    "phone": "02-6204-6400",
    "url": "http://place.map.kakao.com/25002367",
    "category": "음식점 > 패스트푸드 > 맥도날드"
  },
  {
    "id": "2091772039",
    "name": "맥도날드 강남삼성DT점",
    "address": "서울 강남구 삼성동 113-7",
    "road_address": "서울 강남구 봉은사로 432",
    "latitude": 37.5109122911237,
    "longitude": 127.04733263226441,
    "phone": "02-6743-2600",
    "url": "http://place.map.kakao.com/2091772039",
    "category": "음식점 > 패스트푸드 > 맥도날드"
  },
  {
    "id": "26458836",
    "name": "맥도날드 송파잠실DT점",
    "address": "서울 송파구 잠실동 305-15",
    "road_address": "서울 송파구 도곡로 434",
    "latitude": 37.50435990313616,
    "longitude": 127.0769766588255,
    "phone": "02-6204-6700",
    "url": "http://place.map.kakao.com/26458836",
    "category": "음식점 > 패스트푸드 > 맥도날드"
  },
  {
    "id": "21937079",
    "name": "맥도날드 등촌DT점",
    "address": "서울 강서구 등촌동 630",
    "road_address": "서울 강서구 양천로 546",
    "latitude": 37.5583040736413,
    "longitude": 126.859727620441,
    "phone": "02-6091-6800",
    "url": "http://place.map.kakao.com/21937079",
    "category": "음식점 > 패스트푸드 > 맥도날드"
  },
  {
    "id": "12674579",
    "name": "맥도날드 명동점",
    "address": "서울 중구 명동1가 48-2",
    "road_address": "서울 중구 명동7길 8",
    "latitude": 37.5641779925965,
    "longitude": 126.984529660329,
    "phone": "02-6215-8200",
    "url": "http://place.map.kakao.com/12674579",
    "category": "음식점 > 패스트푸드 > 맥도날드"
  },
  {
    "id": "7861686",
    "name": "맥도날드 노량진점",
    "address": "서울 동작구 노량진동 100-1",
    "road_address": "서울 동작구 노량진로 158",
    "latitude": 37.5135184986792,
    "longitude": 126.943558104375,
    "phone": "02-6391-3500",
    "url": "http://place.map.kakao.com/7861686",
    "category": "음식점 > 패스트푸드 > 맥도날드"
  },
  {
    "id": "7861591",
    "name": "맥도날드 영등포점",
    "address": "서울 영등포구 영등포동3가 10-4",
    "road_address": "서울 영등포구 경인로 855",
    "latitude": 37.516982785480984,
    "longitude": 126.90767534775247,
    "phone": "02-6335-3900",
    "url": "http://place.map.kakao.com/7861591",
    "category": "음식점 > 패스트푸드 > 맥도날드"
  },
  {
    "id": "27168594",
    "name": "맥도날드 서울시흥DT점",
    "address": "서울 금천구 시흥동 903-4",
    "road_address": "서울 금천구 시흥대로 184",
    "latitude": 37.4504681915593,
    "longitude": 126.902734772323,
    "phone": "02-6269-6200",
    "url": "http://place.map.kakao.com/27168594",
    "category": "음식점 > 패스트푸드 > 맥도날드"
  },
  {
    "id": "21325935",
    "name": "맥도날드 신림점",
    "address": "서울 관악구 신림동 1641-22",
    "road_address": "서울 관악구 신림로 310",
    "latitude": 37.48197881673212,
    "longitude": 126.93015567293818,
    "phone": "02-6335-4300",
    "url": "http://place.map.kakao.com/21325935",
    "category": "음식점 > 패스트푸드 > 맥도날드"
  },
  {
    "id": "24999700",
    "name": "맥도날드 신사역점",
    "address": "서울 강남구 신사동 514-15",
    "road_address": "서울 강남구 도산대로 123",
    "latitude": 37.51741507668443,
    "longitude": 127.02192751652281,
    "phone": "02-6203-6400",
    "url": "http://place.map.kakao.com/24999700",
    "category": "음식점 > 패스트푸드 > 맥도날드"
  },
  {
    "id": "26618775",
    "name": "맥도날드 잠실역점",
    "address": "서울 송파구 신천동 7-25",
    "road_address": "서울 송파구 송파대로 558",
    "latitude": 37.5149209776624,
    "longitude": 127.099371257798,
    "phone": "02-6435-6400",
    "url": "http://place.map.kakao.com/26618775",
    "category": "음식점 > 패스트푸드 > 맥도날드"
  },
  {
    "id": "10347873",
    "name": "맥도날드 어린이대공원점",
    "address": "서울 광진구 화양동 212",
    "road_address": "서울 광진구 광나루로 392",
    "latitude": 37.5473004981961,
    "longitude": 127.073129185972,
    "phone": "02-6212-6500",
    "url": "http://place.map.kakao.com/10347873",
    "category": "음식점 > 패스트푸드 > 맥도날드"
  },
  {
    "id": "27440997",
    "name": "맥도날드 보라매점",
    "address": "서울 영등포구 신길동 505",
    "road_address": "서울 영등포구 여의대방로 145",
    "latitude": 37.50025117773754,
    "longitude": 126.92009852892339,
    "phone": "02-6166-5000",
    "url": "http://place.map.kakao.com/27440997",
    "category": "음식점 > 패스트푸드 > 맥도날드"
  },
  {
    "id": "18606733",
    "name": "맥도날드 연세대점",
    "address": "서울 서대문구 창천동 33-12",
    "road_address": "서울 서대문구 연세로 33",
    "latitude": 37.55856058625979,
    "longitude": 126.9367843937591,
    "phone": "02-6010-5800",
    "url": "http://place.map.kakao.com/18606733",
    "category": "음식점 > 패스트푸드 > 맥도날드"
  },
  {
    "id": "7862195",
    "name": "맥도날드 수유점",
    "address": "서울 강북구 번동 418-17",
    "road_address": "서울 강북구 도봉로 342",
    "latitude": 37.63789160449129,
    "longitude": 127.02595210704666,
    "phone": "02-6231-2600",
    "url": "http://place.map.kakao.com/7862195",
    "category": "음식점 > 패스트푸드 > 맥도날드"
  },
  {
    "id": "21555292",
    "name": "맥도날드 양재SK DT점",
    "address": "서울 서초구 양재동 81",
    "road_address": "서울 서초구 바우뫼로 178",
    "latitude": 37.4781698603516,
    "longitude": 127.039547238523,
    "phone": "02-6447-6500",
    "url": "http://place.map.kakao.com/21555292",
    "category": "음식점 > 패스트푸드 > 맥도날드"
  },
  {
    "id": "16988033",
    "name": "맥도날드 이태원점",
    "address": "서울 용산구 이태원동 56-21",
    "road_address": "서울 용산구 이태원로 142-1",
    "latitude": 37.5340167272809,
    "longitude": 126.989699646402,
    "phone": "02-6743-1200",
    "url": "http://place.map.kakao.com/16988033",
    "category": "음식점 > 패스트푸드 > 맥도날드"
  },
  {
    "id": "22264679",
    "name": "맥도날드 양평SK DT점",
    "address": "서울 영등포구 양평동3가 80-2",
    "road_address": "서울 영등포구 선유로 195",
    "latitude": 37.5308588619941,
    "longitude": 126.893457396957,
    "phone": "02-6748-6500",
    "url": "http://place.map.kakao.com/22264679",
    "category": "음식점 > 패스트푸드 > 맥도날드"
  },
  {
    "id": "27316244",
    "name": "맥도날드 굽은다리역DT점",
    "address": "서울 강동구 천호동 31-10",
    "road_address": "서울 강동구 양재대로 1587",
    "latitude": 37.5472508507001,
    "longitude": 127.143098792431,
    "phone": "02-6140-4100",
    "url": "http://place.map.kakao.com/27316244",
    "category": "음식점 > 패스트푸드 > 맥도날드"
  },
  {
    "id": "26357892",
    "name": "맥도날드 숭실대점",
    "address": "서울 동작구 상도동 505-5",
    "road_address": "서울 동작구 사당로 22",
    "latitude": 37.4951364047689,
    "longitude": 126.956906603023,
    "phone": "02-6166-6500",
    "url": "http://place.map.kakao.com/26357892",
    "category": "음식점 > 패스트푸드 > 맥도날드"
  },
  {
    "id": "13050161",
    "name": "맥도날드 선릉점",
    "address": "서울 강남구 역삼동 707-27",
    "road_address": "서울 강남구 테헤란로 326",
    "latitude": 37.5035719753543,
    "longitude": 127.04690276073,
    "phone": "02-6207-9100",
    "url": "http://place.map.kakao.com/13050161",
    "category": "음식점 > 패스트푸드 > 맥도날드"
  },
  {
    "id": "12513113",
    "name": "맥도날드 구로디지털점",
    "address": "서울 구로구 구로동 197-21",
    "road_address": "서울 구로구 디지털로31길 12",
    "latitude": 37.4852189404974,
    "longitude": 126.894978549527,
    "phone": "02-6378-6700",
    "url": "http://place.map.kakao.com/12513113",
    "category": "음식점 > 패스트푸드 > 맥도날드"
  },
  {
    "id": "8291988",
    "name": "맥도날드 대학로점",
    "address": "서울 종로구 동숭동 1-34",
    "road_address": "서울 종로구 대학로 130",
    "latitude": 37.582865621277,
    "longitude": 127.002101267647,
    "phone": "02-6212-2900",
    "url": "http://place.map.kakao.com/8291988",
    "category": "음식점 > 패스트푸드 > 맥도날드"
  },
  {
    "id": "26227122",
    "name": "맥도날드 염창DT점",
    "address": "서울 강서구 염창동 280-11",
    "road_address": "서울 강서구 공항대로71길 3",
    "latitude": 37.5476569432952,
    "longitude": 126.871566161306,
    "phone": "02-6359-5900",
    "url": "http://place.map.kakao.com/26227122",
    "category": "음식점 > 패스트푸드 > 맥도날드"
  },
  {
    "id": "18285093",
    "name": "맥도날드 여의도점",
    "address": "서울 영등포구 여의도동 23",
    "road_address": "서울 영등포구 국제금융로 10",
    "latitude": 37.52598765293301,
    "longitude": 126.925934554003,
    "phone": "02-6671-6500",
    "url": "http://place.map.kakao.com/18285093",
    "category": "음식점 > 패스트푸드 > 맥도날드"
  },
  {
    "id": "8331009",
    "name": "맥도날드 목동점",
    "address": "서울 양천구 신정동 899-6",
    "road_address": "서울 양천구 목동로 221",
    "latitude": 37.528149629058746,
    "longitude": 126.86373241338259,
    "phone": "02-6212-2300",
    "url": "http://place.map.kakao.com/8331009",
    "category": "음식점 > 패스트푸드 > 맥도날드"
  },
  {
    "id": "7860480",
    "name": "맥도날드 종암SKDT점",
    "address": "서울 성북구 종암동 10-15",
    "road_address": "서울 성북구 종암로 58",
    "latitude": 37.5957515749764,
    "longitude": 127.035917942119,
    "phone": "02-6229-3700",
    "url": "http://place.map.kakao.com/7860480",
    "category": "음식점 > 패스트푸드 > 맥도날드"
  },
  {
    "id": "18941648",
    "name": "맥도날드 이수점",
    "address": "서울 동작구 사당동 147-29",
    "road_address": "서울 동작구 사당로 300",
    "latitude": 37.48464233587453,
    "longitude": 126.98064641265356,
    "phone": "02-6743-6200",
    "url": "http://place.map.kakao.com/18941648",
    "category": "음식점 > 패스트푸드 > 맥도날드"
  },
  {
    "id": "1509297288",
    "name": "맥도날드 서울상암DMC점",
    "address": "서울 마포구 상암동 1602",
    "road_address": "서울 마포구 월드컵북로 400",
    "latitude": 37.580469959324276,
    "longitude": 126.88995304722175,
    "phone": "02-6743-2700",
    "url": "http://place.map.kakao.com/1509297288",
    "category": "음식점 > 패스트푸드 > 맥도날드"
  },
  {
    "id": "7861688",
    "name": "맥도날드 신천점",
    "address": "서울 송파구 잠실동 181-9",
    "road_address": "서울 송파구 올림픽로 108",
    "latitude": 37.5114234178882,
    "longitude": 127.082839452637,
    "phone": "02-6378-7900",
    "url": "http://place.map.kakao.com/7861688",
    "category": "음식점 > 패스트푸드 > 맥도날드"
  },
  {
    "id": "20809733",
    "name": "맥도날드 석촌역점",
    "address": "서울 송파구 송파동 84",
    "road_address": "서울 송파구 백제고분로 390",
    "latitude": 37.5060176551338,
    "longitude": 127.109126654708,
    "phone": "02-6415-6200",
    "url": "http://place.map.kakao.com/20809733",
    "category": "음식점 > 패스트푸드 > 맥도날드"
  },
  {
    "id": "22379077",
    "name": "맥도날드 신월DT점",
    "address": "서울 양천구 신월동 199-3",
    "road_address": "서울 양천구 남부순환로 404",
    "latitude": 37.53142203806361,
    "longitude": 126.83095181926853,
    "phone": "02-6461-6400",
    "url": "http://place.map.kakao.com/22379077",
    "category": "음식점 > 패스트푸드 > 맥도날드"
  },
  {
    "id": "10346282",
    "name": "맥도날드 서울역점",
    "address": "서울 중구 봉래동2가 122-11",
    "road_address": "서울 중구 한강대로 405",
    "latitude": 37.554271552328366,
    "longitude": 126.9704644811706,
    "phone": "02-6743-1400",
    "url": "http://place.map.kakao.com/10346282",
    "category": "음식점 > 패스트푸드 > 맥도날드"
  },
  {
    "id": "14536202",
    "name": "맥도날드 공덕점",
    "address": "서울 마포구 도화동 559",
    "road_address": "서울 마포구 마포대로 53",
    "latitude": 37.541068262776854,
    "longitude": 126.9470846462646,
    "phone": "02-6743-6300",
    "url": "http://place.map.kakao.com/14536202",
    "category": "음식점 > 패스트푸드 > 맥도날드"
  },
  {
    "id": "13050166",
    "name": "맥도날드 서초GS점",
    "address": "서울 서초구 서초동 1536-15",
    "road_address": "서울 서초구 반포대로 69",
    "latitude": 37.48656717239016,
    "longitude": 127.00973866478523,
    "phone": "02-6242-2060",
    "url": "http://place.map.kakao.com/13050166",
    "category": "음식점 > 패스트푸드 > 맥도날드"
  },
  {
    "id": "27176968",
    "name": "맥도날드 우장산DT점",
    "address": "서울 강서구 화곡동 1026",
    "road_address": "서울 강서구 강서로 216",
    "latitude": 37.545125488746436,
    "longitude": 126.83747836513412,
    "phone": "02-6091-2100",
    "url": "http://place.map.kakao.com/27176968",
    "category": "음식점 > 패스트푸드 > 맥도날드"
  },
  {
    "id": "7862271",
    "name": "맥도날드 중랑점",
    "address": "서울 중랑구 상봉동 130-166",
    "road_address": "서울 중랑구 망우로 202",
    "latitude": 37.5935308967985,
    "longitude": 127.075457137376,
    "phone": "02-6212-1900",
    "url": "http://place.map.kakao.com/7862271",
    "category": "음식점 > 패스트푸드 > 맥도날드"
  },
  {
    "id": "27347577",
    "name": "맥도날드 고척DT점",
    "address": "서울 구로구 고척동 73-20",
    "road_address": "서울 구로구 경인로 393",
    "latitude": 37.497200859037186,
    "longitude": 126.86355910584498,
    "phone": "02-6734-5800",
    "url": "http://place.map.kakao.com/27347577",
    "category": "음식점 > 패스트푸드 > 맥도날드"
  },
  {
    "id": "10349441",
    "name": "맥도날드 양재점",
    "address": "서울 서초구 양재동 24",
    "road_address": "서울 서초구 강남대로 213",
    "latitude": 37.48232289779557,
    "longitude": 127.03582400254028,
    "phone": "02-6242-2100",
    "url": "http://place.map.kakao.com/10349441",
    "category": "음식점 > 패스트푸드 > 맥도날드"
  },
  {
    "id": "10346361",
    "name": "맥도날드 연신내점",
    "address": "서울 은평구 갈현동 456-28",
    "road_address": "서울 은평구 연서로 213",
    "latitude": 37.617587448962,
    "longitude": 126.919285602014,
    "phone": "02-6215-7100",
    "url": "http://place.map.kakao.com/10346361",
    "category": "음식점 > 패스트푸드 > 맥도날드"
  },
  {
    "id": "7869636",
    "name": "맥도날드 송정역점",
    "address": "서울 강서구 공항동 45-38",
    "road_address": "서울 강서구 공항대로 21",
    "latitude": 37.5616938247956,
    "longitude": 126.809676409986,
    "phone": "02-6391-8700",
    "url": "http://place.map.kakao.com/7869636",
    "category": "음식점 > 패스트푸드 > 맥도날드"
  },
  {
    "id": "27377002",
    "name": "맥도날드 서면3호점",
    "address": "부산 부산진구 부전동 172-6",
    "road_address": "부산 부산진구 중앙대로692번길 33",
    "latitude": 35.154568093052134,
    "longitude": 129.0610856313016,
    "phone": "051-915-6000",
    "url": "http://place.map.kakao.com/27377002",
    "category": "음식점 > 패스트푸드 > 맥도날드"
  },
  {
    "id": "1203718040",
    "name": "맥도날드 부산초량DT점",
    "address": "부산 동구 초량동 1198-7",
    "road_address": "부산 동구 중앙대로 228",
    "latitude": 35.11728014176137,
    "longitude": 129.04130994018306,
    "phone": "051-961-5700",
    "url": "http://place.map.kakao.com/1203718040",
    "category": "음식점 > 패스트푸드 > 맥도날드"
  },
  {
    "id": "27296402",
    "name": "맥도날드 부산범전DT점",
    "address": "부산 부산진구 범전동 383-25",
    "road_address": "부산 부산진구 중앙대로 823",
    "latitude": 35.1653481027459,
    "longitude": 129.064294341814,
    "phone": "051-912-5000",
    "url": "http://place.map.kakao.com/27296402",
    "category": "음식점 > 패스트푸드 > 맥도날드"
  },
  {
    "id": "26932557",
    "name": "맥도날드 해운대DT점",
    "address": "부산 해운대구 우동 626-13",
    "road_address": "부산 해운대구 해운대로570번길 51",
    "latitude": 35.1601742668249,
    "longitude": 129.159643755784,
    "phone": "051-932-4500",
    "url": "http://place.map.kakao.com/26932557",
    "category": "음식점 > 패스트푸드 > 맥도날드"
  },
  {
    "id": "7867267",
    "name": "맥도날드 시청DT점",
    "address": "부산 연제구 연산동 1364-2",
    "road_address": "부산 연제구 중앙대로 1031",
    "latitude": 35.18073760162053,
    "longitude": 129.07707444209333,
    "phone": "051-916-5200",
    "url": "http://place.map.kakao.com/7867267",
    "category": "음식점 > 패스트푸드 > 맥도날드"
  },
  {
    "id": "26309623",
    "name": "맥도날드 부산구서DT점",
    "address": "부산 금정구 구서동 163-2",
    "road_address": "부산 금정구 중앙대로 1957",
    "latitude": 35.258939230231,
    "longitude": 129.091104453018,
    "phone": "051-915-5400",
    "url": "http://place.map.kakao.com/26309623",
    "category": "음식점 > 패스트푸드 > 맥도날드"
  },
  {
    "id": "22670939",
    "name": "맥도날드 부산수영SK DT점",
    "address": "부산 수영구 수영동 450-9",
    "road_address": "부산 수영구 연수로 411",
    "latitude": 35.16823352060923,
    "longitude": 129.11417881288622,
    "phone": "051-912-4800",
    "url": "http://place.map.kakao.com/22670939",
    "category": "음식점 > 패스트푸드 > 맥도날드"
  },
  {
    "id": "1326759026",
    "name": "맥도날드 부산명지DT점",
    "address": "부산 강서구 명지동 3420-8",
    "road_address": "부산 강서구 명지국제8로 272",
    "latitude": 35.09742655281154,
    "longitude": 128.92259677701662,
    "phone": "051-961-5600",
    "url": "http://place.map.kakao.com/1326759026",
    "category": "음식점 > 패스트푸드 > 맥도날드"
  },
  {
    "id": "19298930",
    "name": "맥도날드 부산온천SK DT점",
    "address": "부산 동래구 온천동 1431-4",
    "road_address": "부산 동래구 충렬대로 121",
    "latitude": 35.2063597252226,
    "longitude": 129.073891822183,
    "phone": "051-912-4500",
    "url": "http://place.map.kakao.com/19298930",
    "category": "음식점 > 패스트푸드 > 맥도날드"
  },
  {
    "id": "18211925",
    "name": "맥도날드 범일SK DT점",
    "address": "부산 동구 범일동 828-8",
    "road_address": "부산 동구 자성로 127",
    "latitude": 35.1375280951125,
    "longitude": 129.064043509071,
    "phone": "051-965-4500",
    "url": "http://place.map.kakao.com/18211925",
    "category": "음식점 > 패스트푸드 > 맥도날드"
  },
  {
    "id": "7861135",
    "name": "맥도날드 원동점",
    "address": "부산 동래구 안락동 65-2",
    "road_address": "부산 동래구 충렬대로 486",
    "latitude": 35.194400902496305,
    "longitude": 129.11093555764816,
    "phone": "051-915-5800",
    "url": "http://place.map.kakao.com/7861135",
    "category": "음식점 > 패스트푸드 > 맥도날드"
  },
  {
    "id": "26911204",
    "name": "맥도날드 부산덕천DT점",
    "address": "부산 북구 덕천동 554-1",
    "road_address": "부산 북구 금곡대로 107",
    "latitude": 35.21942464187784,
    "longitude": 129.00648785496045,
    "phone": "051-916-4500",
    "url": "http://place.map.kakao.com/26911204",
    "category": "음식점 > 패스트푸드 > 맥도날드"
  },
  {
    "id": "26415168",
    "name": "맥도날드 부산영도DT점",
    "address": "부산 영도구 봉래동3가 82-2",
    "road_address": "부산 영도구 태종로 150",
    "latitude": 35.09284225115668,
    "longitude": 129.04541954443434,
    "phone": "051-969-4500",
    "url": "http://place.map.kakao.com/26415168",
    "category": "음식점 > 패스트푸드 > 맥도날드"
  },
  {
    "id": "1096944516",
    "name": "맥도날드 부산남천DT점",
    "address": "부산 수영구 남천동 30-4",
    "road_address": "부산 수영구 수영로 470",
    "latitude": 35.14786625257804,
    "longitude": 129.1106849704894,
    "phone": "051-912-4700",
    "url": "http://place.map.kakao.com/1096944516",
    "category": "음식점 > 패스트푸드 > 맥도날드"
  },
  {
    "id": "26781637",
    "name": "맥도날드 부산동명대DT점",
    "address": "부산 남구 용당동 524",
    "road_address": "부산 남구 신선로 424",
    "latitude": 35.1228775635728,
    "longitude": 129.099566305057,
    "phone": "051-911-4300",
    "url": "http://place.map.kakao.com/26781637",
    "category": "음식점 > 패스트푸드 > 맥도날드"
  },
  {
    "id": "65324332",
    "name": "맥도날드 부산하단DT점",
    "address": "부산 사하구 하단동 619-20",
    "road_address": "부산 사하구 낙동대로 431",
    "latitude": 35.10418318308523,
    "longitude": 128.97098868444778,
    "phone": "051-961-6300",
    "url": "http://place.map.kakao.com/65324332",
    "category": "음식점 > 패스트푸드 > 맥도날드"
  },
  {
    "id": "18604908",
    "name": "맥도날드 부산교대DT점",
    "address": "부산 연제구 거제동 1-1",
    "road_address": "부산 연제구 중앙대로 1179",
    "latitude": 35.1925772390369,
    "longitude": 129.079473695928,
    "phone": "051-925-4500",
    "url": "http://place.map.kakao.com/18604908",
    "category": "음식점 > 패스트푸드 > 맥도날드"
  },
  {
    "id": "21338573",
    "name": "맥도날드 부산대2점",
    "address": "부산 금정구 장전동 302-9",
    "road_address": "부산 금정구 금정로60번길 24",
    "latitude": 35.22957414776247,
    "longitude": 129.08747293016128,
    "phone": "051-936-8700",
    "url": "http://place.map.kakao.com/21338573",
    "category": "음식점 > 패스트푸드 > 맥도날드"
  },
  {
    "id": "7869816",
    "name": "맥도날드 경성대점",
    "address": "부산 남구 대연동 72-23",
    "road_address": "부산 남구 수영로 304",
    "latitude": 35.1368260432761,
    "longitude": 129.09944182685,
    "phone": "051-915-5600",
    "url": "http://place.map.kakao.com/7869816",
    "category": "음식점 > 패스트푸드 > 맥도날드"
  },
  {
    "id": "7869812",
    "name": "맥도날드 가야점",
    "address": "부산 부산진구 가야동 50-4",
    "road_address": "부산 부산진구 가야대로 607",
    "latitude": 35.1553119789163,
    "longitude": 129.038377714581,
    "phone": "051-935-6900",
    "url": "http://place.map.kakao.com/7869812",
    "category": "음식점 > 패스트푸드 > 맥도날드"
  },
  {
    "id": "11079253",
    "name": "맥도날드 주례점",
    "address": "부산 사상구 주례동 60-10",
    "road_address": "부산 사상구 가야대로 368",
    "latitude": 35.15100019477056,
    "longitude": 129.01271041587623,
    "phone": "051-963-4700",
    "url": "http://place.map.kakao.com/11079253",
    "category": "음식점 > 패스트푸드 > 맥도날드"
  },
  {
    "id": "7862025",
    "name": "맥도날드 달맞이DT점",
    "address": "부산 해운대구 중동 1777-5",
    "road_address": "부산 해운대구 좌동순환로 455",
    "latitude": 35.16182200235073,
    "longitude": 129.17090754329152,
    "phone": "051-916-5100",
    "url": "http://place.map.kakao.com/7862025",
    "category": "음식점 > 패스트푸드 > 맥도날드"
  },
  {
    "id": "19824937",
    "name": "맥도날드 부산송정DT점",
    "address": "부산 해운대구 송정동 135-2",
    "road_address": "부산 해운대구 해운대로 1114",
    "latitude": 35.1845217591654,
    "longitude": 129.201739000939,
    "phone": "051-959-4500",
    "url": "http://place.map.kakao.com/19824937",
    "category": "음식점 > 패스트푸드 > 맥도날드"
  },
  {
    "id": "7869983",
    "name": "맥도날드 당감DT점",
    "address": "부산 부산진구 당감동 282-30",
    "road_address": "부산 부산진구 동평로 91",
    "latitude": 35.1656672884015,
    "longitude": 129.039500939566,
    "phone": "051-935-6500",
    "url": "http://place.map.kakao.com/7869983",
    "category": "음식점 > 패스트푸드 > 맥도날드"
  },
  {
    "id": "1200421619",
    "name": "맥도날드 부산엄궁DT점",
    "address": "부산 사상구 엄궁동 367-3",
    "road_address": "부산 사상구 낙동대로 745",
    "latitude": 35.1280015295568,
    "longitude": 128.969157056321,
    "phone": "051-961-5900",
    "url": "http://place.map.kakao.com/1200421619",
    "category": "음식점 > 패스트푸드 > 맥도날드"
  },
  {
    "id": "7862193",
    "name": "맥도날드 사직점",
    "address": "부산 동래구 사직동 92-7",
    "road_address": "부산 동래구 사직북로 1",
    "latitude": 35.1959096739023,
    "longitude": 129.060610396071,
    "phone": "051-911-3500",
    "url": "http://place.map.kakao.com/7862193",
    "category": "음식점 > 패스트푸드 > 맥도날드"
  },
  {
    "id": "24926900",
    "name": "맥도날드 부산구남DT점",
    "address": "부산 북구 구포동 920-16",
    "road_address": "부산 북구 백양대로 1045",
    "latitude": 35.1987391049499,
    "longitude": 128.99608813002,
    "phone": "051-912-6800",
    "url": "http://place.map.kakao.com/24926900",
    "category": "음식점 > 패스트푸드 > 맥도날드"
  },
  {
    "id": "21604729",
    "name": "맥도날드 부산기장DT점",
    "address": "부산 기장군 기장읍 청강리 112-1",
    "road_address": "부산 기장군 기장읍 기장대로 500",
    "latitude": 35.239665158988025,
    "longitude": 129.22048331290264,
    "phone": "051-916-5400",
    "url": "http://place.map.kakao.com/21604729",
    "category": "음식점 > 패스트푸드 > 맥도날드"
  },
  {
    "id": "1894310103",
    "name": "맥도날드 부산정관DT점",
    "address": "부산 기장군 정관읍 매학리 720-3",
    "road_address": "부산 기장군 정관읍 정관로 584",
    "latitude": 35.3206323289449,
    "longitude": 129.177383316455,
    "phone": "051-911-2700",
    "url": "http://place.map.kakao.com/1894310103",
    "category": "음식점 > 패스트푸드 > 맥도날드"
  },
  {
    "id": "21603901",
    "name": "맥도날드 부산황령DT점",
    "address": "부산 남구 대연동 201",
    "road_address": "부산 남구 황령대로 374",
    "latitude": 35.1449532734474,
    "longitude": 129.097846939407,
    "phone": "051-911-4700",
    "url": "http://place.map.kakao.com/21603901",
    "category": "음식점 > 패스트푸드 > 맥도날드"
  },
  {
    "id": "8349865",
    "name": "맥도날드 동아대점",
    "address": "부산 사하구 하단동 492-1",
    "road_address": "부산 사하구 낙동대로 548",
    "latitude": 35.11288692500131,
    "longitude": 128.96432299127707,
    "phone": "051-988-5300",
    "url": "http://place.map.kakao.com/8349865",
    "category": "음식점 > 패스트푸드 > 맥도날드"
  },
  {
    "id": "26895920",
    "name": "맥도날드 부산사직DT점",
    "address": "부산 동래구 사직동 105-10",
    "road_address": "부산 동래구 아시아드대로 110",
    "latitude": 35.194378856207,
    "longitude": 129.06709701169314,
    "phone": "051-911-6200",
    "url": "http://place.map.kakao.com/26895920",
    "category": "음식점 > 패스트푸드 > 맥도날드"
  },
  {
    "id": "8292804",
    "name": "맥도날드 토곡점",
    "address": "부산 연제구 연산동 399-10",
    "road_address": "부산 연제구 과정로 226",
    "latitude": 35.18788545522356,
    "longitude": 129.102503507519,
    "phone": "051-915-5700",
    "url": "http://place.map.kakao.com/8292804",
    "category": "음식점 > 패스트푸드 > 맥도날드"
  },
  {
    "id": "9761233",
    "name": "맥도날드 화명DT점",
    "address": "부산 북구 화명동 193-1",
    "road_address": "부산 북구 금곡대로 360",
    "latitude": 35.240434199394244,
    "longitude": 129.0143604717426,
    "phone": "051-959-3100",
    "url": "http://place.map.kakao.com/9761233",
    "category": "음식점 > 패스트푸드 > 맥도날드"
  },
  {
    "id": "16219294",
    "name": "맥도날드 부곡점",
    "address": "부산 금정구 부곡동 63-11",
    "road_address": "부산 금정구 수림로 6",
    "latitude": 35.2395339885718,
    "longitude": 129.092042720968,
    "phone": "051-915-3900",
    "url": "http://place.map.kakao.com/16219294",
    "category": "음식점 > 패스트푸드 > 맥도날드"
  },
  {
    "id": "11075112",
    "name": "맥도날드 좌동1점",
    "address": "부산 해운대구 좌동 1407-5",
    "road_address": "부산 해운대구 좌동순환로 181",
    "latitude": 35.177905492004335,
    "longitude": 129.17602947154964,
    "phone": "051-915-3600",
    "url": "http://place.map.kakao.com/11075112",
    "category": "음식점 > 패스트푸드 > 맥도날드"
  },
  {
    "id": "18605202",
    "name": "맥도날드 초읍DT점",
    "address": "부산 부산진구 초읍동 171-6",
    "road_address": "부산 부산진구 성지로 152",
    "latitude": 35.1820074465085,
    "longitude": 129.048027310929,
    "phone": "051-911-6900",
    "url": "http://place.map.kakao.com/18605202",
    "category": "음식점 > 패스트푸드 > 맥도날드"
  },
  {
    "id": "27336045",
    "name": "맥도날드 부산다대DT점",
    "address": "부산 사하구 다대동 1160-12",
    "road_address": "부산 사하구 다대로 532-1",
    "latitude": 35.05874408081043,
    "longitude": 128.97150348697065,
    "phone": "051-961-6000",
    "url": "http://place.map.kakao.com/27336045",
    "category": "음식점 > 패스트푸드 > 맥도날드"
  },
  {
    "id": "2005940583",
    "name": "맥도날드 부산초량DT점 주차장",
    "address": "부산 동구 초량동 1198-7",
    "road_address": "부산 동구 중앙대로 228",
    "latitude": 35.1172147306294,
    "longitude": 129.041341210779,
    "phone": "",
    "url": "http://place.map.kakao.com/2005940583",
    "category": "교통,수송 > 교통시설 > 주차장"
  },
  {
    "id": "414981071",
    "name": "맥도날드 부산덕천DT점 주차장",
    "address": "부산 북구 덕천동 554-1",
    "road_address": "부산 북구 금곡대로 107",
    "latitude": 35.2194785350719,
    "longitude": 129.006444157892,
    "phone": "",
    "url": "http://place.map.kakao.com/414981071",
    "category": "교통,수송 > 교통시설 > 주차장"
  },
  {
    "id": "1663282275",
    "name": "맥도날드 범일SK DT점 주차장",
    "address": "부산 동구 범일동 828-8",
    "road_address": "",
    "latitude": 35.1374681922347,
    "longitude": 129.064280051585,
    "phone": "",
    "url": "http://place.map.kakao.com/1663282275",
    "category": "교통,수송 > 교통시설 > 주차장"
  },
  {
    "id": "1569279002",
    "name": "맥도날드 부산범전DT점 주차장",
    "address": "부산 부산진구 범전동 383-29",
    "road_address": "",
    "latitude": 35.16547829715645,
    "longitude": 129.06453357517756,
    "phone": "",
    "url": "http://place.map.kakao.com/1569279002",
    "category": "교통,수송 > 교통시설 > 주차장"
  },
  {
    "id": "1873962148",
    "name": "맥도날드 부산영도DT점 주차장",
    "address": "부산 영도구 봉래동3가 82-2",
    "road_address": "",
    "latitude": 35.0926925584303,
    "longitude": 129.045371947673,
    "phone": "",
    "url": "http://place.map.kakao.com/1873962148",
    "category": "교통,수송 > 교통시설 > 주차장"
  },
  {
    "id": "305260153",
    "name": "맥도날드 화명DT점 주차장",
    "address": "부산 북구 화명동 193-1",
    "road_address": "",
    "latitude": 35.2404885957009,
    "longitude": 129.014557337447,
    "phone": "",
    "url": "http://place.map.kakao.com/305260153",
    "category": "교통,수송 > 교통시설 > 주차장"
  },
  {
    "id": "1746015034",
    "name": "맥도날드 부산수영SK DT점 주차장",
    "address": "부산 수영구 수영동 450-9",
    "road_address": "",
    "latitude": 35.1684268563391,
    "longitude": 129.114357213566,
    "phone": "",
    "url": "http://place.map.kakao.com/1746015034",
    "category": "교통,수송 > 교통시설 > 주차장"
  },
  {
    "id": "20355117",
    "name": "맥도날드 대구수성DT점",
    "address": "대구 수성구 수성동4가 1020-2",
    "road_address": "대구 수성구 달구벌대로 2345",
    "latitude": 35.85999184248239,
    "longitude": 128.61913001031894,
    "phone": "053-213-3200",
    "url": "http://place.map.kakao.com/20355117",
    "category": "음식점 > 패스트푸드 > 맥도날드"
  },
  {
    "id": "18720734",
    "name": "맥도날드 대구진천DT점",
    "address": "대구 달서구 진천동 608-6",
    "road_address": "대구 달서구 월배로 67",
    "latitude": 35.81388998304996,
    "longitude": 128.52177112362122,
    "phone": "053-261-5800",
    "url": "http://place.map.kakao.com/18720734",
    "category": "음식점 > 패스트푸드 > 맥도날드"
  },
  {
    "id": "14516015",
    "name": "맥도날드 대구침산DT점",
    "address": "대구 북구 침산동 244-6",
    "road_address": "대구 북구 침산로 120",
    "latitude": 35.886872359560925,
    "longitude": 128.5916638476703,
    "phone": "053-215-8900",
    "url": "http://place.map.kakao.com/14516015",
    "category": "음식점 > 패스트푸드 > 맥도날드"
  },
  {
    "id": "1083123513",
    "name": "맥도날드 동성로2호점",
    "address": "대구 중구 사일동 77",
    "road_address": "대구 중구 동성로 23-2",
    "latitude": 35.8690959404402,
    "longitude": 128.595096792387,
    "phone": "053-214-5600",
    "url": "http://place.map.kakao.com/1083123513",
    "category": "음식점 > 패스트푸드 > 맥도날드"
  },
  {
    "id": "25007096",
    "name": "맥도날드 대구본리DT점",
    "address": "대구 달서구 감삼동 346",
    "road_address": "대구 달서구 와룡로 134",
    "latitude": 35.8446783842317,
    "longitude": 128.537459283725,
    "phone": "053-261-5400",
    "url": "http://place.map.kakao.com/25007096",
    "category": "음식점 > 패스트푸드 > 맥도날드"
  },
  {
    "id": "26319949",
    "name": "맥도날드 대구두류DT점",
    "address": "대구 달서구 두류동 495-47",
    "road_address": "대구 달서구 달구벌대로 1684",
    "latitude": 35.8546914323943,
    "longitude": 128.550125617374,
    "phone": "053-267-2600",
    "url": "http://place.map.kakao.com/26319949",
    "category": "음식점 > 패스트푸드 > 맥도날드"
  },
  {
    "id": "27357486",
    "name": "맥도날드 대구교대DT점",
    "address": "대구 남구 대명동 1793-5",
    "road_address": "대구 남구 중앙대로 225",
    "latitude": 35.85338794550715,
    "longitude": 128.59028242692642,
    "phone": "070-7209-0560",
    "url": "http://place.map.kakao.com/27357486",
    "category": "음식점 > 패스트푸드 > 맥도날드"
  },
  {
    "id": "645099391",
    "name": "맥도날드 대구동호DT점",
    "address": "대구 동구 신서동 718",
    "road_address": "대구 동구 안심로 403",
    "latitude": 35.8697429484107,
    "longitude": 128.728228698394,
    "phone": "053-213-6300",
    "url": "http://place.map.kakao.com/645099391",
    "category": "음식점 > 패스트푸드 > 맥도날드"
  },
  {
    "id": "24998744",
    "name": "맥도날드 칠곡2DT점",
    "address": "대구 북구 읍내동 1385-2",
    "road_address": "대구 북구 구암로 83",
    "latitude": 35.9326623902593,
    "longitude": 128.549550291913,
    "phone": "053-213-8500",
    "url": "http://place.map.kakao.com/24998744",
    "category": "음식점 > 패스트푸드 > 맥도날드"
  },
  {
    "id": "13571586",
    "name": "맥도날드 대구평리DT점",
    "address": "대구 서구 평리동 1407-1",
    "road_address": "대구 서구 서대구로 95",
    "latitude": 35.86632915752824,
    "longitude": 128.55526336904933,
    "phone": "053-285-3700",
    "url": "http://place.map.kakao.com/13571586",
    "category": "음식점 > 패스트푸드 > 맥도날드"
  },
  {
    "id": "14585153",
    "name": "맥도날드 대구시지DT점",
    "address": "대구 수성구 매호동 1087-1",
    "road_address": "대구 수성구 달구벌대로 3199",
    "latitude": 35.840767613761074,
    "longitude": 128.70696174976044,
    "phone": "053-214-2900",
    "url": "http://place.map.kakao.com/14585153",
    "category": "음식점 > 패스트푸드 > 맥도날드"
  },
  {
    "id": "27177669",
    "name": "맥도날드 대구복현DT점",
    "address": "대구 북구 복현동 364-5",
    "road_address": "대구 북구 동북로 303",
    "latitude": 35.892277351532115,
    "longitude": 128.62303763857335,
    "phone": "053-216-3900",
    "url": "http://place.map.kakao.com/27177669",
    "category": "음식점 > 패스트푸드 > 맥도날드"
  },
  {
    "id": "19607227",
    "name": "맥도날드 대구황금DT점",
    "address": "대구 수성구 황금동 567-11",
    "road_address": "대구 수성구 청수로 157",
    "latitude": 35.839811328587984,
    "longitude": 128.62529472982348,
    "phone": "053-219-7200",
    "url": "http://place.map.kakao.com/19607227",
    "category": "음식점 > 패스트푸드 > 맥도날드"
  },
  {
    "id": "25117299",
    "name": "맥도날드 대구상인DT점",
    "address": "대구 달서구 상인동 54-2",
    "road_address": "대구 달서구 월곡로 338",
    "latitude": 35.8228681483277,
    "longitude": 128.533404742467,
    "phone": "053-267-4100",
    "url": "http://place.map.kakao.com/25117299",
    "category": "음식점 > 패스트푸드 > 맥도날드"
  },
  {
    "id": "8356475",
    "name": "맥도날드 방촌DT점",
    "address": "대구 동구 방촌동 883-9",
    "road_address": "대구 동구 동촌로 243",
    "latitude": 35.88107886840048,
    "longitude": 128.6667906279562,
    "phone": "053-214-6200",
    "url": "http://place.map.kakao.com/8356475",
    "category": "음식점 > 패스트푸드 > 맥도날드"
  },
  {
    "id": "7861928",
    "name": "맥도날드 용산DT점",
    "address": "대구 달서구 용산동 934",
    "road_address": "대구 달서구 용산로 222",
    "latitude": 35.8574453289031,
    "longitude": 128.53080269363437,
    "phone": "053-267-7400",
    "url": "http://place.map.kakao.com/7861928",
    "category": "음식점 > 패스트푸드 > 맥도날드"
  },
  {
    "id": "14527174",
    "name": "맥도날드 대구희망DT점",
    "address": "대구 수성구 중동 70-10",
    "road_address": "대구 수성구 수성로 238",
    "latitude": 35.84672771991593,
    "longitude": 128.61331845570032,
    "phone": "053-217-9300",
    "url": "http://place.map.kakao.com/14527174",
    "category": "음식점 > 패스트푸드 > 맥도날드"
  },
  {
    "id": "22565496",
    "name": "맥도날드 대구태전DT점",
    "address": "대구 북구 태전동 409-12",
    "road_address": "대구 북구 칠곡중앙대로 303",
    "latitude": 35.92276561888502,
    "longitude": 128.54650989118844,
    "phone": "053-213-2900",
    "url": "http://place.map.kakao.com/22565496",
    "category": "음식점 > 패스트푸드 > 맥도날드"
  },
  {
    "id": "26309176",
    "name": "맥도날드 대구이곡DT점",
    "address": "대구 달서구 이곡동 1244-3",
    "road_address": "대구 달서구 이곡공원로 8",
    "latitude": 35.8550672005419,
    "longitude": 128.5082892309921,
    "phone": "053-267-4600",
    "url": "http://place.map.kakao.com/26309176",
    "category": "음식점 > 패스트푸드 > 맥도날드"
  },
  {
    "id": "26381392",
    "name": "맥도날드 대구만촌DT점",
    "address": "대구 수성구 만촌동 853-1",
    "road_address": "대구 수성구 달구벌대로 2634",
    "latitude": 35.85649686854394,
    "longitude": 128.65008117148685,
    "phone": "053-213-3100",
    "url": "http://place.map.kakao.com/26381392",
    "category": "음식점 > 패스트푸드 > 맥도날드"
  },
  {
    "id": "27272531",
    "name": "맥도날드 대구다사DT점",
    "address": "대구 달성군 다사읍 죽곡리 5-23",
    "road_address": "대구 달성군 다사읍 달구벌대로 825",
    "latitude": 35.86175400278668,
    "longitude": 128.4615435571177,
    "phone": "053-267-5100",
    "url": "http://place.map.kakao.com/27272531",
    "category": "음식점 > 패스트푸드 > 맥도날드"
  },
  {
    "id": "18377174",
    "name": "맥도날드 대구모다DT점",
    "address": "대구 달서구 호산동 720-2",
    "road_address": "대구 달서구 달서대로 455",
    "latitude": 35.840045306705,
    "longitude": 128.491218778789,
    "phone": "053-267-3900",
    "url": "http://place.map.kakao.com/18377174",
    "category": "음식점 > 패스트푸드 > 맥도날드"
  },
  {
    "id": "10346153",
    "name": "맥도날드 만촌이마트점",
    "address": "대구 수성구 만촌동 1356-5",
    "road_address": "대구 수성구 동원로 136",
    "latitude": 35.87113777739087,
    "longitude": 128.63689965466105,
    "phone": "053-213-8600",
    "url": "http://place.map.kakao.com/10346153",
    "category": "음식점 > 패스트푸드 > 맥도날드"
  },
  {
    "id": "1379718269",
    "name": "맥도날드 대구현풍DT점",
    "address": "대구 달성군 현풍읍 원교리 120-5",
    "road_address": "대구 달성군 현풍읍 비슬로 592",
    "latitude": 35.6917384388378,
    "longitude": 128.444459291333,
    "phone": "053-267-7100",
    "url": "http://place.map.kakao.com/1379718269",
    "category": "음식점 > 패스트푸드 > 맥도날드"
  },
  {
    "id": "1565864904",
    "name": "맥도날드 대구시지DT점 주차장",
    "address": "대구 수성구 매호동 1087-1",
    "road_address": "대구 수성구 달구벌대로 3199",
    "latitude": 35.8407882015984,
    "longitude": 128.707098317238,
    "phone": "",
    "url": "http://place.map.kakao.com/1565864904",
    "category": "교통,수송 > 교통시설 > 주차장"
  },
  {
    "id": "402286799",
    "name": "맥도날드 대구수성DT점 주차장",
    "address": "대구 수성구 수성동4가 1020-32",
    "road_address": "대구 수성구 달구벌대로469길 13",
    "latitude": 35.860024664968485,
    "longitude": 128.61930226311475,
    "phone": "",
    "url": "http://place.map.kakao.com/402286799",
    "category": "교통,수송 > 교통시설 > 주차장"
  },
  {
    "id": "127528082",
    "name": "맥도날드 방촌DT점 주차장",
    "address": "대구 동구 방촌동 883-9",
    "road_address": "대구 동구 동촌로 243",
    "latitude": 35.8811143193099,
    "longitude": 128.666833447778,
    "phone": "",
    "url": "http://place.map.kakao.com/127528082",
    "category": "교통,수송 > 교통시설 > 주차장"
  },
  {
    "id": "1141988605",
    "name": "맥도날드 대구희망DT점 주차장",
    "address": "대구 수성구 중동 70-1",
    "road_address": "",
    "latitude": 35.8467165838267,
    "longitude": 128.613141139422,
    "phone": "",
    "url": "http://place.map.kakao.com/1141988605",
    "category": "교통,수송 > 교통시설 > 주차장"
  },
  {
    "id": "676941785",
    "name": "맥도날드 대구황금DT점 주차장",
    "address": "대구 수성구 황금동 567-11",
    "road_address": "대구 수성구 청수로 157",
    "latitude": 35.8397703598984,
    "longitude": 128.625458794889,
    "phone": "",
    "url": "http://place.map.kakao.com/676941785",
    "category": "교통,수송 > 교통시설 > 주차장"
  },
  {
    "id": "1185106021",
    "name": "맥도날드 대구침산DT점 주차장",
    "address": "대구 북구 침산동 244-6",
    "road_address": "",
    "latitude": 35.8869115856026,
    "longitude": 128.591491881537,
    "phone": "",
    "url": "http://place.map.kakao.com/1185106021",
    "category": "교통,수송 > 교통시설 > 주차장"
  },
  {
    "id": "1008278437",
    "name": "맥도날드 대구본리DT점 주차장",
    "address": "대구 달서구 감삼동 346",
    "road_address": "",
    "latitude": 35.8445448285749,
    "longitude": 128.5375441427,
    "phone": "",
    "url": "http://place.map.kakao.com/1008278437",
    "category": "교통,수송 > 교통시설 > 주차장"
  },
  {
    "id": "414835502",
    "name": "맥도날드 대구평리DT점 주차장",
    "address": "대구 서구 평리동 1407-1",
    "road_address": "",
    "latitude": 35.8664516827718,
    "longitude": 128.555265763614,
    "phone": "",
    "url": "http://place.map.kakao.com/414835502",
    "category": "교통,수송 > 교통시설 > 주차장"
  },
  {
    "id": "1255254337",
    "name": "맥도날드 대구태전DT점 주차장",
    "address": "대구 북구 태전동 409-12",
    "road_address": "",
    "latitude": 35.9227826305678,
    "longitude": 128.546308586866,
    "phone": "",
    "url": "http://place.map.kakao.com/1255254337",
    "category": "교통,수송 > 교통시설 > 주차장"
  },
  {
    "id": "1138980643",
    "name": "맥도날드 대구교대DT점 주차장",
    "address": "대구 남구 대명동 1793-5",
    "road_address": "",
    "latitude": 35.8533928235401,
    "longitude": 128.590050072516,
    "phone": "",
    "url": "http://place.map.kakao.com/1138980643",
    "category": "교통,수송 > 교통시설 > 주차장"
  },
  {
    "id": "652735209",
    "name": "맥도날드 대구진천DT점 주차장",
    "address": "대구 달서구 진천동 599-1",
    "road_address": "",
    "latitude": 35.8140466538407,
    "longitude": 128.521639135632,
    "phone": "",
    "url": "http://place.map.kakao.com/652735209",
    "category": "교통,수송 > 교통시설 > 주차장"
  },
  {
    "id": "82890723",
    "name": "맥도날드 대구만촌DT점 주차장",
    "address": "대구 수성구 만촌동 853-1",
    "road_address": "대구 수성구 달구벌대로 2634",
    "latitude": 35.8564399914557,
    "longitude": 128.650088848106,
    "phone": "",
    "url": "http://place.map.kakao.com/82890723",
    "category": "교통,수송 > 교통시설 > 주차장"
  },
  {
    "id": "485152903",
    "name": "맥도날드 대구상인DT점 주차장",
    "address": "대구 달서구 상인동 54-2",
    "road_address": "",
    "latitude": 35.822875491989,
    "longitude": 128.533535450594,
    "phone": "",
    "url": "http://place.map.kakao.com/485152903",
    "category": "교통,수송 > 교통시설 > 주차장"
  },
  {
    "id": "1194048847",
    "name": "맥도날드 대구이곡DT점 주차장",
    "address": "대구 달서구 이곡동 1244-3",
    "road_address": "",
    "latitude": 35.8551149876069,
    "longitude": 128.508430719098,
    "phone": "",
    "url": "http://place.map.kakao.com/1194048847",
    "category": "교통,수송 > 교통시설 > 주차장"
  },
  {
    "id": "16146745",
    "name": "맥도날드 인천구월DT점",
    "address": "인천 남동구 구월동 1120-16",
    "road_address": "인천 남동구 인주대로 514",
    "latitude": 37.450006237925805,
    "longitude": 126.69383668749326,
    "phone": "032-212-9300",
    "url": "http://place.map.kakao.com/16146745",
    "category": "음식점 > 패스트푸드 > 맥도날드"
  },
  {
    "id": "8357985",
    "name": "맥도날드 연희DT점",
    "address": "인천 서구 심곡동 255-2",
    "road_address": "인천 서구 서곶로 265",
    "latitude": 37.541304250681165,
    "longitude": 126.67635637129021,
    "phone": "032-262-5100",
    "url": "http://place.map.kakao.com/8357985",
    "category": "음식점 > 패스트푸드 > 맥도날드"
  },
  {
    "id": "25070670",
    "name": "맥도날드 송도GS DT점",
    "address": "인천 연수구 송도동 8-18",
    "road_address": "인천 연수구 하모니로 128",
    "latitude": 37.3850862860298,
    "longitude": 126.644556560233,
    "phone": "032-223-3400",
    "url": "http://place.map.kakao.com/25070670",
    "category": "음식점 > 패스트푸드 > 맥도날드"
  },
  {
    "id": "25743374",
    "name": "맥도날드 문학DT점",
    "address": "인천 미추홀구 문학동 381-5",
    "road_address": "인천 미추홀구 매소홀로 600",
    "latitude": 37.438205436282,
    "longitude": 126.688907288716,
    "phone": "032-266-5700",
    "url": "http://place.map.kakao.com/25743374",
    "category": "음식점 > 패스트푸드 > 맥도날드"
  },
  {
    "id": "25007089",
    "name": "맥도날드 만수DT점",
    "address": "인천 남동구 만수동 904-4",
    "road_address": "인천 남동구 백범로 229",
    "latitude": 37.4600422591238,
    "longitude": 126.723684042399,
    "phone": "032-228-5800",
    "url": "http://place.map.kakao.com/25007089",
    "category": "음식점 > 패스트푸드 > 맥도날드"
  },
  {
    "id": "1150560161",
    "name": "맥도날드 인천청라DT점",
    "address": "인천 서구 청라동 208-3",
    "road_address": "인천 서구 원창로 8",
    "latitude": 37.5174496391993,
    "longitude": 126.649589982095,
    "phone": "032-263-2400",
    "url": "http://place.map.kakao.com/1150560161",
    "category": "음식점 > 패스트푸드 > 맥도날드"
  },
  {
    "id": "18385136",
    "name": "맥도날드 인천구산DT점",
    "address": "인천 부평구 구산동 1-4",
    "road_address": "인천 부평구 경인로 1191",
    "latitude": 37.4840570246106,
    "longitude": 126.751785059807,
    "phone": "032-299-9500",
    "url": "http://place.map.kakao.com/18385136",
    "category": "음식점 > 패스트푸드 > 맥도날드"
  },
  {
    "id": "8357294",
    "name": "맥도날드 부평역점",
    "address": "인천 부평구 부평동 738-21",
    "road_address": "인천 부평구 광장로 16",
    "latitude": 37.4901034896745,
    "longitude": 126.723695467163,
    "phone": "032-262-3700",
    "url": "http://place.map.kakao.com/8357294",
    "category": "음식점 > 패스트푸드 > 맥도날드"
  },
  {
    "id": "462393894",
    "name": "맥도날드 인천계산DT점",
    "address": "인천 계양구 계산동 1083-3",
    "road_address": "인천 계양구 오조산로 39",
    "latitude": 37.5343180359027,
    "longitude": 126.738195512467,
    "phone": "032-262-7800",
    "url": "http://place.map.kakao.com/462393894",
    "category": "음식점 > 패스트푸드 > 맥도날드"
  },
  {
    "id": "27284849",
    "name": "맥도날드 구월아시아드DT점",
    "address": "인천 남동구 구월동 1185",
    "road_address": "인천 남동구 남동대로 724",
    "latitude": 37.44691268063027,
    "longitude": 126.7075595776843,
    "phone": "032-226-6400",
    "url": "http://place.map.kakao.com/27284849",
    "category": "음식점 > 패스트푸드 > 맥도날드"
  },
  {
    "id": "8357291",
    "name": "맥도날드 동인천점",
    "address": "인천 중구 인현동 27-3",
    "road_address": "인천 중구 우현로 85-1",
    "latitude": 37.4746216607089,
    "longitude": 126.630453827523,
    "phone": "032-218-5400",
    "url": "http://place.map.kakao.com/8357291",
    "category": "음식점 > 패스트푸드 > 맥도날드"
  },
  {
    "id": "18949571",
    "name": "맥도날드 부평SK DT점",
    "address": "인천 부평구 부평동 440-2",
    "road_address": "인천 부평구 부평대로 96",
    "latitude": 37.50010572558211,
    "longitude": 126.72262271603255,
    "phone": "032-294-9500",
    "url": "http://place.map.kakao.com/18949571",
    "category": "음식점 > 패스트푸드 > 맥도날드"
  },
  {
    "id": "7860826",
    "name": "맥도날드 부평중앙점",
    "address": "인천 부평구 부평동 212-65",
    "road_address": "인천 부평구 부평문화로 65",
    "latitude": 37.49414481635693,
    "longitude": 126.72344763391355,
    "phone": "032-266-3200",
    "url": "http://place.map.kakao.com/7860826",
    "category": "음식점 > 패스트푸드 > 맥도날드"
  },
  {
    "id": "25770904",
    "name": "맥도날드 인천삼산DT점",
    "address": "인천 부평구 삼산동 226-7",
    "road_address": "인천 부평구 장제로 380",
    "latitude": 37.5195150712948,
    "longitude": 126.732767768495,
    "phone": "032-277-6700",
    "url": "http://place.map.kakao.com/25770904",
    "category": "음식점 > 패스트푸드 > 맥도날드"
  },
  {
    "id": "7862200",
    "name": "맥도날드 연수GS DT점",
    "address": "인천 연수구 연수동 597",
    "road_address": "인천 연수구 먼우금로 200",
    "latitude": 37.4148731951995,
    "longitude": 126.676966685397,
    "phone": "032-244-5600",
    "url": "http://place.map.kakao.com/7862200",
    "category": "음식점 > 패스트푸드 > 맥도날드"
  },
  {
    "id": "7862198",
    "name": "맥도날드 신흥DT점",
    "address": "인천 중구 신흥동3가 7-227",
    "road_address": "인천 중구 인항로 38",
    "latitude": 37.4569960330556,
    "longitude": 126.634464774561,
    "phone": "032-226-6300",
    "url": "http://place.map.kakao.com/7862198",
    "category": "음식점 > 패스트푸드 > 맥도날드"
  },
  {
    "id": "26337913",
    "name": "맥도날드 인천옥련DT점",
    "address": "인천 연수구 옥련동 265-29",
    "road_address": "인천 연수구 비류대로 176",
    "latitude": 37.42814012852682,
    "longitude": 126.65417679628052,
    "phone": "032-226-6100",
    "url": "http://place.map.kakao.com/26337913",
    "category": "음식점 > 패스트푸드 > 맥도날드"
  },
  {
    "id": "25003402",
    "name": "맥도날드 씨앤씨점",
    "address": "인천 남동구 구월동 1130",
    "road_address": "인천 남동구 예술로 198",
    "latitude": 37.451896682898294,
    "longitude": 126.70199331233653,
    "phone": "032-223-7300",
    "url": "http://place.map.kakao.com/25003402",
    "category": "음식점 > 패스트푸드 > 맥도날드"
  },
  {
    "id": "499911493",
    "name": "맥도날드 인천영종하늘도시점",
    "address": "인천 중구 중산동 1886-24",
    "road_address": "인천 중구 하늘중앙로 197",
    "latitude": 37.49010499071525,
    "longitude": 126.56010661837682,
    "phone": "032-238-6900",
    "url": "http://place.map.kakao.com/499911493",
    "category": "음식점 > 패스트푸드 > 맥도날드"
  },
  {
    "id": "661335092",
    "name": "맥도날드 인천간석DT점",
    "address": "인천 부평구 십정동 162-17",
    "road_address": "인천 부평구 경원대로 1122",
    "latitude": 37.4803150097872,
    "longitude": 126.698650378511,
    "phone": "032-267-1600",
    "url": "http://place.map.kakao.com/661335092",
    "category": "음식점 > 패스트푸드 > 맥도날드"
  },
  {
    "id": "24998768",
    "name": "맥도날드 연수이마트점",
    "address": "인천 연수구 동춘동 926-9",
    "road_address": "인천 연수구 경원대로 184",
    "latitude": 37.4039703012009,
    "longitude": 126.680727117911,
    "phone": "032-224-3500",
    "url": "http://place.map.kakao.com/24998768",
    "category": "음식점 > 패스트푸드 > 맥도날드"
  },
  {
    "id": "1185159776",
    "name": "맥도날드 구월DT점 주차장",
    "address": "인천 남동구 구월동 1120-16",
    "road_address": "인천 남동구 인주대로 514",
    "latitude": 37.4499818962641,
    "longitude": 126.693831136007,
    "phone": "",
    "url": "http://place.map.kakao.com/1185159776",
    "category": "교통,수송 > 교통시설 > 주차장"
  },
  {
    "id": "1616355962",
    "name": "맥도날드 연희DT점 주차장",
    "address": "인천 서구 심곡동 255-2",
    "road_address": "",
    "latitude": 37.5415122077236,
    "longitude": 126.676293238876,
    "phone": "",
    "url": "http://place.map.kakao.com/1616355962",
    "category": "교통,수송 > 교통시설 > 주차장"
  },
  {
    "id": "937944379",
    "name": "맥도날드 구월아시아드DT점 주차장",
    "address": "인천 남동구 구월동 1185-1",
    "road_address": "",
    "latitude": 37.4468198633937,
    "longitude": 126.707554288515,
    "phone": "",
    "url": "http://place.map.kakao.com/937944379",
    "category": "교통,수송 > 교통시설 > 주차장"
  },
  {
    "id": "652907453",
    "name": "맥도날드 신흥DT점 주차장",
    "address": "인천 중구 신흥동3가 7-227",
    "road_address": "인천 중구 인항로 38",
    "latitude": 37.4570393646807,
    "longitude": 126.634491689489,
    "phone": "",
    "url": "http://place.map.kakao.com/652907453",
    "category": "교통,수송 > 교통시설 > 주차장"
  },
  {
    "id": "1254689497",
    "name": "맥도날드 문학DT점 주차장",
    "address": "인천 미추홀구 문학동 381-7",
    "road_address": "",
    "latitude": 37.4382342439351,
    "longitude": 126.688555751371,
    "phone": "",
    "url": "http://place.map.kakao.com/1254689497",
    "category": "교통,수송 > 교통시설 > 주차장"
  },
  {
    "id": "1565858609",
    "name": "맥도날드 인천계산DT점 주차장",
    "address": "인천 계양구 계산동 1083-3",
    "road_address": "인천 계양구 오조산로 39",
    "latitude": 37.5343142814248,
    "longitude": 126.738127640927,
    "phone": "",
    "url": "http://place.map.kakao.com/1565858609",
    "category": "교통,수송 > 교통시설 > 주차장"
  },
  {
    "id": "652777640",
    "name": "맥도날드 만수DT점 주차장",
    "address": "인천 남동구 만수동 904-4",
    "road_address": "",
    "latitude": 37.460075128242,
    "longitude": 126.723483859907,
    "phone": "",
    "url": "http://place.map.kakao.com/652777640",
    "category": "교통,수송 > 교통시설 > 주차장"
  },
  {
    "id": "1746644220",
    "name": "맥도날드 인천삼산DT점 주차장",
    "address": "인천 부평구 삼산동 226-2",
    "road_address": "",
    "latitude": 37.519241220505,
    "longitude": 126.732791368791,
    "phone": "",
    "url": "http://place.map.kakao.com/1746644220",
    "category": "교통,수송 > 교통시설 > 주차장"
  },
  {
    "id": "26309527",
    "name": "맥도날드 광주월산DT점",
    "address": "광주 남구 월산동 951-3",
    "road_address": "광주 남구 대남대로 393",
    "latitude": 35.145899423794,
    "longitude": 126.889827097919,
    "phone": "062-410-9700",
    "url": "http://place.map.kakao.com/26309527",
    "category": "음식점 > 패스트푸드 > 맥도날드"
  },
  {
    "id": "25000754",
    "name": "맥도날드 광주산정DT점",
    "address": "광주 광산구 산정동 143-16",
    "road_address": "광주 광산구 용아로 251",
    "latitude": 35.1658509418612,
    "longitude": 126.801364717959,
    "phone": "062-444-2700",
    "url": "http://place.map.kakao.com/25000754",
    "category": "음식점 > 패스트푸드 > 맥도날드"
  },
  {
    "id": "24664590",
    "name": "맥도날드 전남대DT점",
    "address": "광주 북구 용봉동 127-1",
    "road_address": "광주 북구 우치로 134",
    "latitude": 35.179484316971,
    "longitude": 126.912217140276,
    "phone": "062-462-3200",
    "url": "http://place.map.kakao.com/24664590",
    "category": "음식점 > 패스트푸드 > 맥도날드"
  },
  {
    "id": "1424156191",
    "name": "맥도날드 광주쌍촌DT점",
    "address": "광주 서구 쌍촌동 964-9",
    "road_address": "광주 서구 상무대로 921-1",
    "latitude": 35.151488905004925,
    "longitude": 126.86261468332441,
    "phone": "062-451-1300",
    "url": "http://place.map.kakao.com/1424156191",
    "category": "음식점 > 패스트푸드 > 맥도날드"
  },
  {
    "id": "18397469",
    "name": "맥도날드 광주첨단DT점",
    "address": "광주 북구 용두동 311-15",
    "road_address": "광주 북구 임방울대로 1048",
    "latitude": 35.2117104298653,
    "longitude": 126.87179915924328,
    "phone": "062-400-2900",
    "url": "http://place.map.kakao.com/18397469",
    "category": "음식점 > 패스트푸드 > 맥도날드"
  },
  {
    "id": "27134939",
    "name": "맥도날드 상무대점",
    "address": "광주 서구 치평동 1182",
    "road_address": "광주 서구 치평로 72",
    "latitude": 35.153745046913265,
    "longitude": 126.84757311363052,
    "phone": "062-453-8700",
    "url": "http://place.map.kakao.com/27134939",
    "category": "음식점 > 패스트푸드 > 맥도날드"
  },
  {
    "id": "21531450",
    "name": "맥도날드 광주동림DT점",
    "address": "광주 북구 동림동 900-41",
    "road_address": "광주 북구 하남대로 635",
    "latitude": 35.1723638697505,
    "longitude": 126.862176707231,
    "phone": "062-462-3300",
    "url": "http://place.map.kakao.com/21531450",
    "category": "음식점 > 패스트푸드 > 맥도날드"
  },
  {
    "id": "27336043",
    "name": "맥도날드 광주진월DT점",
    "address": "광주 남구 진월동 291-7",
    "road_address": "광주 남구 서문대로 697",
    "latitude": 35.12164380421147,
    "longitude": 126.89813816298262,
    "phone": "062-400-2000",
    "url": "http://place.map.kakao.com/27336043",
    "category": "음식점 > 패스트푸드 > 맥도날드"
  },
  {
    "id": "26072829",
    "name": "맥도날드 광주운암DT점",
    "address": "광주 북구 운암동 1078-2",
    "road_address": "광주 북구 북문대로187번길 2",
    "latitude": 35.18493761614587,
    "longitude": 126.87018118304204,
    "phone": "062-462-3100",
    "url": "http://place.map.kakao.com/26072829",
    "category": "음식점 > 패스트푸드 > 맥도날드"
  },
  {
    "id": "11512196",
    "name": "맥도날드 용봉DT점",
    "address": "광주 북구 용봉동 1130-6",
    "road_address": "광주 북구 설죽로 289",
    "latitude": 35.185078901065275,
    "longitude": 126.89822595298624,
    "phone": "062-419-2300",
    "url": "http://place.map.kakao.com/11512196",
    "category": "음식점 > 패스트푸드 > 맥도날드"
  },
  {
    "id": "2005573540",
    "name": "맥도날드 전남대DT점 주차장",
    "address": "광주 북구 용봉동 127-1",
    "road_address": "광주 북구 우치로 134",
    "latitude": 35.1795023790826,
    "longitude": 126.91226542558,
    "phone": "",
    "url": "http://place.map.kakao.com/2005573540",
    "category": "교통,수송 > 교통시설 > 주차장"
  },
  {
    "id": "773392152",
    "name": "맥도날드 광주산정DT점 주차장",
    "address": "광주 광산구 산정동 143-16",
    "road_address": "",
    "latitude": 35.1658529352853,
    "longitude": 126.801481063943,
    "phone": "",
    "url": "http://place.map.kakao.com/773392152",
    "category": "교통,수송 > 교통시설 > 주차장"
  },
  {
    "id": "741815794",
    "name": "맥도날드 광주진월DT점 주차장",
    "address": "광주 남구 진월동 291-7",
    "road_address": "광주 남구 서문대로 697",
    "latitude": 35.1216240175244,
    "longitude": 126.89818974931,
    "phone": "",
    "url": "http://place.map.kakao.com/741815794",
    "category": "교통,수송 > 교통시설 > 주차장"
  },
  {
    "id": "877824938",
    "name": "맥도날드 광주월산DT점 주차장",
    "address": "광주 남구 월산동 951-3",
    "road_address": "광주 남구 대남대로 393",
    "latitude": 35.1458542899179,
    "longitude": 126.889754731511,
    "phone": "",
    "url": "http://place.map.kakao.com/877824938",
    "category": "교통,수송 > 교통시설 > 주차장"
  },
  {
    "id": "1254516925",
    "name": "맥도날드 광주첨단DT점 주차장",
    "address": "광주 북구 용두동 311-15",
    "road_address": "광주 북구 임방울대로 1048",
    "latitude": 35.211662618789,
    "longitude": 126.871761893329,
    "phone": "",
    "url": "http://place.map.kakao.com/1254516925",
    "category": "교통,수송 > 교통시설 > 주차장"
  },
  {
    "id": "384425917",
    "name": "맥도날드 광주운암DT점 주차장",
    "address": "광주 북구 운암동 1078-2",
    "road_address": "",
    "latitude": 35.1850440723334,
    "longitude": 126.870271042254,
    "phone": "",
    "url": "http://place.map.kakao.com/384425917",
    "category": "교통,수송 > 교통시설 > 주차장"
  },
  {
    "id": "816593889",
    "name": "맥도날드 광주동림DT점 주차장",
    "address": "광주 북구 동림동 900-41",
    "road_address": "광주 북구 하남대로 635",
    "latitude": 35.172340539393,
    "longitude": 126.862268956568,
    "phone": "",
    "url": "http://place.map.kakao.com/816593889",
    "category": "교통,수송 > 교통시설 > 주차장"
  },
  {
    "id": "25070675",
    "name": "맥도날드 대전유성DT점",
    "address": "대전 유성구 봉명동 446-5",
    "road_address": "대전 유성구 계룡로87번길 3",
    "latitude": 36.3543866426275,
    "longitude": 127.340379186801,
    "phone": "042-361-3200",
    "url": "http://place.map.kakao.com/25070675",
    "category": "음식점 > 패스트푸드 > 맥도날드"
  },
  {
    "id": "26378999",
    "name": "맥도날드 대전가장DT점",
    "address": "대전 서구 가장동 54-26",
    "road_address": "대전 서구 도산로 324",
    "latitude": 36.33439279748231,
    "longitude": 127.38892773742452,
    "phone": "042-369-1600",
    "url": "http://place.map.kakao.com/26378999",
    "category": "음식점 > 패스트푸드 > 맥도날드"
  },
  {
    "id": "22105346",
    "name": "맥도날드 대전신탄진DT점",
    "address": "대전 대덕구 상서동 834-4",
    "road_address": "대전 대덕구 신탄진로 605",
    "latitude": 36.432674179533095,
    "longitude": 127.42316371004583,
    "phone": "042-331-2100",
    "url": "http://place.map.kakao.com/22105346",
    "category": "음식점 > 패스트푸드 > 맥도날드"
  },
  {
    "id": "27067741",
    "name": "맥도날드 대전부사DT점",
    "address": "대전 중구 부사동 87-14",
    "road_address": "대전 중구 충무로 139",
    "latitude": 36.319822360697664,
    "longitude": 127.43177233174892,
    "phone": "042-335-5800",
    "url": "http://place.map.kakao.com/27067741",
    "category": "음식점 > 패스트푸드 > 맥도날드"
  },
  {
    "id": "25070665",
    "name": "맥도날드 대전한남대DT점",
    "address": "대전 대덕구 중리동 230-15",
    "road_address": "대전 대덕구 한밭대로 1102",
    "latitude": 36.358447555501,
    "longitude": 127.421186136201,
    "phone": "042-331-2700",
    "url": "http://place.map.kakao.com/25070665",
    "category": "음식점 > 패스트푸드 > 맥도날드"
  },
  {
    "id": "15274378",
    "name": "맥도날드 대전센트럴DT점",
    "address": "대전 중구 대흥동 522-1",
    "road_address": "대전 중구 중앙로 64",
    "latitude": 36.3242167464405,
    "longitude": 127.4193001819,
    "phone": "042-342-4200",
    "url": "http://place.map.kakao.com/15274378",
    "category": "음식점 > 패스트푸드 > 맥도날드"
  },
  {
    "id": "25070673",
    "name": "맥도날드 대전가수원DT점",
    "address": "대전 서구 가수원동 655-4",
    "road_address": "대전 서구 계백로 1124",
    "latitude": 36.303660591306,
    "longitude": 127.3483630592118,
    "phone": "042-369-1300",
    "url": "http://place.map.kakao.com/25070673",
    "category": "음식점 > 패스트푸드 > 맥도날드"
  },
  {
    "id": "22559525",
    "name": "맥도날드 대전카이스트DT점",
    "address": "대전 유성구 가정동 2-23",
    "road_address": "대전 유성구 대덕대로 535",
    "latitude": 36.3805073124227,
    "longitude": 127.378371441189,
    "phone": "042-361-3600",
    "url": "http://place.map.kakao.com/22559525",
    "category": "음식점 > 패스트푸드 > 맥도날드"
  },
  {
    "id": "24728456",
    "name": "맥도날드 대전유천DT점",
    "address": "대전 중구 유천동 327-4",
    "road_address": "대전 중구 계백로 1549",
    "latitude": 36.31742206388121,
    "longitude": 127.39243354837863,
    "phone": "042-331-2900",
    "url": "http://place.map.kakao.com/24728456",
    "category": "음식점 > 패스트푸드 > 맥도날드"
  },
  {
    "id": "15238960",
    "name": "맥도날드 대전터미널점",
    "address": "대전 동구 용전동 63-3",
    "road_address": "대전 동구 동서대로 1689",
    "latitude": 36.3499088178479,
    "longitude": 127.437030615592,
    "phone": "042-331-2800",
    "url": "http://place.map.kakao.com/15238960",
    "category": "음식점 > 패스트푸드 > 맥도날드"
  },
  {
    "id": "24999684",
    "name": "맥도날드 세이브존대전점",
    "address": "대전 서구 둔산동 1809",
    "road_address": "대전 서구 둔산로 201",
    "latitude": 36.3516646722561,
    "longitude": 127.39553529928,
    "phone": "042-384-3700",
    "url": "http://place.map.kakao.com/24999684",
    "category": "음식점 > 패스트푸드 > 맥도날드"
  },
  {
    "id": "21611200",
    "name": "맥도날드 목원대점",
    "address": "대전 유성구 용계동 664-8",
    "road_address": "대전 유성구 도안북로 81",
    "latitude": 36.3302892752187,
    "longitude": 127.337797356846,
    "phone": "042-361-3800",
    "url": "http://place.map.kakao.com/21611200",
    "category": "음식점 > 패스트푸드 > 맥도날드"
  },
  {
    "id": "1257890762",
    "name": "맥도날드 대전가장DT점 주차장",
    "address": "대전 서구 가장동 54-9",
    "road_address": "",
    "latitude": 36.3343673310192,
    "longitude": 127.388445332393,
    "phone": "",
    "url": "http://place.map.kakao.com/1257890762",
    "category": "교통,수송 > 교통시설 > 주차장"
  },
  {
    "id": "901840170",
    "name": "맥도날드 대전유천DT점 주차장",
    "address": "대전 중구 유천동 327-33",
    "road_address": "",
    "latitude": 36.3174721452026,
    "longitude": 127.392550723895,
    "phone": "",
    "url": "http://place.map.kakao.com/901840170",
    "category": "교통,수송 > 교통시설 > 주차장"
  },
  {
    "id": "1749680752",
    "name": "맥도날드 대전카이스트점 주차장",
    "address": "대전 유성구 가정동 2-23",
    "road_address": "",
    "latitude": 36.3806590173337,
    "longitude": 127.378274102967,
    "phone": "",
    "url": "http://place.map.kakao.com/1749680752",
    "category": "교통,수송 > 교통시설 > 주차장"
  },
  {
    "id": "1184585500",
    "name": "맥도날드 대전신탄진DT점 주차장",
    "address": "대전 대덕구 상서동 834-5",
    "road_address": "",
    "latitude": 36.4327755897477,
    "longitude": 127.423282472767,
    "phone": "",
    "url": "http://place.map.kakao.com/1184585500",
    "category": "교통,수송 > 교통시설 > 주차장"
  },
  {
    "id": "2092926785",
    "name": "맥도날드 대전부사DT점 주차장",
    "address": "대전 중구 부사동 87-14",
    "road_address": "",
    "latitude": 36.3196913586255,
    "longitude": 127.431864037691,
    "phone": "",
    "url": "http://place.map.kakao.com/2092926785",
    "category": "교통,수송 > 교통시설 > 주차장"
  },
  {
    "id": "1746352643",
    "name": "맥도날드 대전한남대DT점 주차장",
    "address": "대전 대덕구 중리동 230-15",
    "road_address": "",
    "latitude": 36.3583757144021,
    "longitude": 127.42111444367,
    "phone": "",
    "url": "http://place.map.kakao.com/1746352643",
    "category": "교통,수송 > 교통시설 > 주차장"
  },
  {
    "id": "652036984",
    "name": "맥도날드 대전가수원DT점 주차장",
    "address": "대전 서구 가수원동 655-4",
    "road_address": "",
    "latitude": 36.3034629784796,
    "longitude": 127.348450136486,
    "phone": "",
    "url": "http://place.map.kakao.com/652036984",
    "category": "교통,수송 > 교통시설 > 주차장"
  },
  {
    "id": "925256084",
    "name": "투루카 목원대학교 정문(맥도날드 옆 방문자주차장)",
    "address": "대전 서구 도안동 800",
    "road_address": "대전 서구 도안북로 88",
    "latitude": 36.3288664012632,
    "longitude": 127.337447072077,
    "phone": "1600-6038",
    "url": "http://place.map.kakao.com/925256084",
    "category": "교통,수송 > 교통시설 > 카셰어링 > 투루카"
  },
  {
    "id": "911880093",
    "name": "투루카 목원대학교 정문(맥도날드 옆 공한지 주차장)",
    "address": "대전 서구 도안동 1557",
    "road_address": "",
    "latitude": 36.3300007647451,
    "longitude": 127.337525470958,
    "phone": "1600-6038",
    "url": "http://place.map.kakao.com/911880093",
    "category": "교통,수송 > 교통시설 > 카셰어링 > 투루카"
  },
  {
    "id": "26414783",
    "name": "맥도날드 울산삼산로DT점",
    "address": "울산 남구 달동 1253-1",
    "road_address": "울산 남구 삼산로 230",
    "latitude": 35.5380394065796,
    "longitude": 129.332323633917,
    "phone": "052-939-7500",
    "url": "http://place.map.kakao.com/26414783",
    "category": "음식점 > 패스트푸드 > 맥도날드"
  },
  {
    "id": "21534400",
    "name": "맥도날드 울산삼산DT점",
    "address": "울산 남구 삼산동 1550-7",
    "road_address": "울산 남구 화합로 201",
    "latitude": 35.542633924505004,
    "longitude": 129.339157488091,
    "phone": "052-939-6500",
    "url": "http://place.map.kakao.com/21534400",
    "category": "음식점 > 패스트푸드 > 맥도날드"
  },
  {
    "id": "26357900",
    "name": "맥도날드 울산굴화DT점",
    "address": "울산 울주군 범서읍 굴화리 28-8",
    "road_address": "울산 울주군 범서읍 울밀로 2877",
    "latitude": 35.556549927425735,
    "longitude": 129.26241308831584,
    "phone": "052-977-6200",
    "url": "http://place.map.kakao.com/26357900",
    "category": "음식점 > 패스트푸드 > 맥도날드"
  },
  {
    "id": "8331012",
    "name": "맥도날드 달동점",
    "address": "울산 남구 달동 707-1",
    "road_address": "울산 남구 신정로 37",
    "latitude": 35.5351613504821,
    "longitude": 129.321966267469,
    "phone": "052-955-7100",
    "url": "http://place.map.kakao.com/8331012",
    "category": "음식점 > 패스트푸드 > 맥도날드"
  },
  {
    "id": "18989662",
    "name": "맥도날드 울산병영점",
    "address": "울산 중구 남외동 441-2",
    "road_address": "울산 중구 번영로 576",
    "latitude": 35.568512707673015,
    "longitude": 129.34502028601,
    "phone": "052-915-6500",
    "url": "http://place.map.kakao.com/18989662",
    "category": "음식점 > 패스트푸드 > 맥도날드"
  },
  {
    "id": "21928324",
    "name": "맥도날드 울산옥동DT점",
    "address": "울산 남구 신정동 1639-36",
    "road_address": "울산 남구 문수로423번길 2",
    "latitude": 35.53387145204353,
    "longitude": 129.29994825157087,
    "phone": "052-939-8500",
    "url": "http://place.map.kakao.com/21928324",
    "category": "음식점 > 패스트푸드 > 맥도날드"
  },
  {
    "id": "15304698",
    "name": "맥도날드 울산옥현점",
    "address": "울산 남구 무거동 487-1",
    "road_address": "울산 남구 옥현로58번길 4",
    "latitude": 35.541137376286514,
    "longitude": 129.261869702937,
    "phone": "052-955-7200",
    "url": "http://place.map.kakao.com/15304698",
    "category": "음식점 > 패스트푸드 > 맥도날드"
  },
  {
    "id": "2052908861",
    "name": "맥도날드 울산서동DT점",
    "address": "울산 중구 서동 53-3",
    "road_address": "울산 중구 북부순환도로 891",
    "latitude": 35.5809561280662,
    "longitude": 129.347477746384,
    "phone": "052-912-3800",
    "url": "http://place.map.kakao.com/2052908861",
    "category": "음식점 > 패스트푸드 > 맥도날드"
  },
  {
    "id": "17214575",
    "name": "맥도날드 울산호계SKDT점",
    "address": "울산 북구 신천동 451-2",
    "road_address": "",
    "latitude": 35.635771097353214,
    "longitude": 129.34527031247157,
    "phone": "052-939-9500",
    "url": "http://place.map.kakao.com/17214575",
    "category": "음식점 > 패스트푸드 > 맥도날드"
  },
  {
    "id": "12119342",
    "name": "맥도날드 울산SKDT점",
    "address": "울산 남구 달동 819",
    "road_address": "울산 남구 중앙로 126",
    "latitude": 35.5326826200616,
    "longitude": 129.31563797999445,
    "phone": "052-931-7600",
    "url": "http://place.map.kakao.com/12119342",
    "category": "음식점 > 패스트푸드 > 맥도날드"
  },
  {
    "id": "27284847",
    "name": "맥도날드 울산일산DT점",
    "address": "울산 동구 일산동 951-5",
    "road_address": "울산 동구 방어진순환도로 634",
    "latitude": 35.49837812327498,
    "longitude": 129.42828378004776,
    "phone": "052-915-9500",
    "url": "http://place.map.kakao.com/27284847",
    "category": "음식점 > 패스트푸드 > 맥도날드"
  },
  {
    "id": "1634861518",
    "name": "맥도날드 울산굴화DT점 주차장",
    "address": "울산 울주군 범서읍 굴화리 28-8",
    "road_address": "",
    "latitude": 35.5564254916894,
    "longitude": 129.262561758421,
    "phone": "",
    "url": "http://place.map.kakao.com/1634861518",
    "category": "교통,수송 > 교통시설 > 주차장"
  },
  {
    "id": "231124644",
    "name": "맥도날드 울산삼산DT점 주차장",
    "address": "울산 남구 삼산동 1550-7",
    "road_address": "",
    "latitude": 35.5425936440972,
    "longitude": 129.3389115715,
    "phone": "",
    "url": "http://place.map.kakao.com/231124644",
    "category": "교통,수송 > 교통시설 > 주차장"
  },
  {
    "id": "1588908636",
    "name": "맥도날드 울산일산DT점 주차장",
    "address": "울산 동구 일산동 951-5",
    "road_address": "",
    "latitude": 35.4981928869109,
    "longitude": 129.42826498021,
    "phone": "",
    "url": "http://place.map.kakao.com/1588908636",
    "category": "교통,수송 > 교통시설 > 주차장"
  },
  {
    "id": "1369140935",
    "name": "맥도날드 울산SK DT점 주차장",
    "address": "울산 남구 달동 819",
    "road_address": "",
    "latitude": 35.5325949384861,
    "longitude": 129.315277201946,
    "phone": "",
    "url": "http://place.map.kakao.com/1369140935",
    "category": "교통,수송 > 교통시설 > 주차장"
  },
  {
    "id": "547291425",
    "name": "맥도날드 울산삼산로DT점 주차장",
    "address": "울산 남구 달동 1253-1",
    "road_address": "울산 남구 삼산로 230",
    "latitude": 35.5380331401913,
    "longitude": 129.332274946819,
    "phone": "",
    "url": "http://place.map.kakao.com/547291425",
    "category": "교통,수송 > 교통시설 > 주차장"
  },
  {
    "id": "415335273",
    "name": "맥도날드 울산옥동점 주차장",
    "address": "울산 남구 신정동 1639-60",
    "road_address": "",
    "latitude": 35.5339017568247,
    "longitude": 129.3002489566,
    "phone": "",
    "url": "http://place.map.kakao.com/415335273",
    "category": "교통,수송 > 교통시설 > 주차장"
  },
  {
    "id": "1990959495",
    "name": "맥도날드 안산고잔DT점",
    "address": "경기 안산시 단원구 고잔동 705-5",
    "road_address": "경기 안산시 단원구 광덕3로 145-3",
    "latitude": 37.3128490362349,
    "longitude": 126.82858841254358,
    "phone": "031-503-2300",
    "url": "http://place.map.kakao.com/1990959495",
    "category": "음식점 > 패스트푸드 > 맥도날드"
  },
  {
    "id": "18606597",
    "name": "맥도날드 용인수지DT점",
    "address": "경기 용인시 수지구 풍덕천동 43-5",
    "road_address": "경기 용인시 수지구 신수로 677",
    "latitude": 37.33025662804653,
    "longitude": 127.10241439947927,
    "phone": "031-8031-9200",
    "url": "http://place.map.kakao.com/18606597",
    "category": "음식점 > 패스트푸드 > 맥도날드"
  },
  {
    "id": "7862270",
    "name": "맥도날드 중동DT점",
    "address": "경기 부천시 원미구 중동 1142-9",
    "road_address": "경기 부천시 원미구 중동로262번길 94",
    "latitude": 37.5022284464248,
    "longitude": 126.77421679898411,
    "phone": "032-255-2700",
    "url": "http://place.map.kakao.com/7862270",
    "category": "음식점 > 패스트푸드 > 맥도날드"
  },
  {
    "id": "15265331",
    "name": "맥도날드 안양비산DT점",
    "address": "경기 안양시 동안구 비산동 576-13",
    "road_address": "경기 안양시 동안구 경수대로 839",
    "latitude": 37.3934234430109,
    "longitude": 126.94186850962,
    "phone": "031-341-5300",
    "url": "http://place.map.kakao.com/15265331",
    "category": "음식점 > 패스트푸드 > 맥도날드"
  },
  {
    "id": "18685405",
    "name": "맥도날드 동수원GS DT점",
    "address": "경기 수원시 영통구 이의동 835",
    "road_address": "경기 수원시 영통구 창룡대로 370-1",
    "latitude": 37.29485605773896,
    "longitude": 127.04840933182666,
    "phone": "031-890-4000",
    "url": "http://place.map.kakao.com/18685405",
    "category": "음식점 > 패스트푸드 > 맥도날드"
  },
  {
    "id": "26647420",
    "name": "맥도날드 용인신갈DT점",
    "address": "경기 용인시 기흥구 영덕동 41",
    "road_address": "경기 용인시 기흥구 중부대로 266",
    "latitude": 37.26962389595868,
    "longitude": 127.09730721533113,
    "phone": "031-8081-8000",
    "url": "http://place.map.kakao.com/26647420",
    "category": "음식점 > 패스트푸드 > 맥도날드"
  },
  {
    "id": "8357991",
    "name": "맥도날드 포천DT점",
    "address": "경기 포천시 설운동 13-7",
    "road_address": "경기 포천시 호국로 894",
    "latitude": 37.8457794158473,
    "longitude": 127.16034792176,
    "phone": "031-8080-2900",
    "url": "http://place.map.kakao.com/8357991",
    "category": "음식점 > 패스트푸드 > 맥도날드"
  },
  {
    "id": "25070674",
    "name": "맥도날드 수원인계DT점",
    "address": "경기 수원시 팔달구 인계동 363-3",
    "road_address": "경기 수원시 팔달구 권광로 261",
    "latitude": 37.27062910464837,
    "longitude": 127.03509772239204,
    "phone": "031-8001-6000",
    "url": "http://place.map.kakao.com/25070674",
    "category": "음식점 > 패스트푸드 > 맥도날드"
  },
  {
    "id": "7867270",
    "name": "맥도날드 안양점",
    "address": "경기 안양시 만안구 안양동 674-208",
    "road_address": "경기 안양시 만안구 안양로292번길 22",
    "latitude": 37.39890083284121,
    "longitude": 126.92307260688195,
    "phone": "031-346-7900",
    "url": "http://place.map.kakao.com/7867270",
    "category": "음식점 > 패스트푸드 > 맥도날드"
  },
  {
    "id": "27123621",
    "name": "맥도날드 이천DT점",
    "address": "경기 이천시 중리동 461-3",
    "road_address": "경기 이천시 경충대로 2578",
    "latitude": 37.27513811641288,
    "longitude": 127.4465072326838,
    "phone": "031-694-6000",
    "url": "http://place.map.kakao.com/27123621",
    "category": "음식점 > 패스트푸드 > 맥도날드"
  },
  {
    "id": "25000081",
    "name": "맥도날드 수내역점",
    "address": "경기 성남시 분당구 수내동 18-1",
    "road_address": "경기 성남시 분당구 백현로101번길 29",
    "latitude": 37.3782857761783,
    "longitude": 127.11343951134,
    "phone": "031-629-8000",
    "url": "http://place.map.kakao.com/25000081",
    "category": "음식점 > 패스트푸드 > 맥도날드"
  },
  {
    "id": "1875972329",
    "name": "맥도날드 구리인창DT점",
    "address": "경기 구리시 인창동 410-5",
    "road_address": "경기 구리시 동구릉로 130",
    "latitude": 37.61026555070321,
    "longitude": 127.13769140134039,
    "phone": "070-7209-1618",
    "url": "http://place.map.kakao.com/1875972329",
    "category": "음식점 > 패스트푸드 > 맥도날드"
  },
  {
    "id": "27120996",
    "name": "맥도날드 부천역곡역DT점",
    "address": "경기 부천시 소사구 괴안동 112-23",
    "road_address": "경기 부천시 소사구 경인로 487",
    "latitude": 37.48368129744206,
    "longitude": 126.80953641175573,
    "phone": "032-214-9000",
    "url": "http://place.map.kakao.com/27120996",
    "category": "음식점 > 패스트푸드 > 맥도날드"
  },
  {
    "id": "26314184",
    "name": "맥도날드 수원세류DT점",
    "address": "경기 수원시 권선구 세류동 1155-8",
    "road_address": "경기 수원시 권선구 경수대로 195",
    "latitude": 37.2446685925617,
    "longitude": 127.017244166685,
    "phone": "031-302-4000",
    "url": "http://place.map.kakao.com/26314184",
    "category": "음식점 > 패스트푸드 > 맥도날드"
  },
  {
    "id": "27061627",
    "name": "맥도날드 수원정자DT점",
    "address": "경기 수원시 장안구 정자동 76-18",
    "road_address": "경기 수원시 장안구 수성로 267",
    "latitude": 37.2903454402524,
    "longitude": 127.001578850981,
    "phone": "031-8001-9000",
    "url": "http://place.map.kakao.com/27061627",
    "category": "음식점 > 패스트푸드 > 맥도날드"
  },
  {
    "id": "7860655",
    "name": "맥도날드 강선점",
    "address": "경기 고양시 일산서구 주엽동 51-1",
    "road_address": "경기 고양시 일산서구 대산로 113",
    "latitude": 37.67394804715797,
    "longitude": 126.76441843309561,
    "phone": "031-811-5600",
    "url": "http://place.map.kakao.com/7860655",
    "category": "음식점 > 패스트푸드 > 맥도날드"
  },
  {
    "id": "26308458",
    "name": "맥도날드 김포장기DT점",
    "address": "경기 김포시 장기동 1911-2",
    "road_address": "경기 김포시 김포한강1로 77-40",
    "latitude": 37.646314013701385,
    "longitude": 126.67067878962445,
    "phone": "031-991-4000",
    "url": "http://place.map.kakao.com/26308458",
    "category": "음식점 > 패스트푸드 > 맥도날드"
  },
  {
    "id": "7862202",
    "name": "맥도날드 오산DT점",
    "address": "경기 오산시 원동 372-5",
    "road_address": "경기 오산시 경기대로 170",
    "latitude": 37.1399372574714,
    "longitude": 127.073860733653,
    "phone": "031-8058-0700",
    "url": "http://place.map.kakao.com/7862202",
    "category": "음식점 > 패스트푸드 > 맥도날드"
  },
  {
    "id": "7862546",
    "name": "맥도날드 평택세교DT점",
    "address": "경기 평택시 세교동 629-2",
    "road_address": "경기 평택시 경기대로 570",
    "latitude": 37.00542368996969,
    "longitude": 127.0844701955455,
    "phone": "031-8094-3000",
    "url": "http://place.map.kakao.com/7862546",
    "category": "음식점 > 패스트푸드 > 맥도날드"
  },
  {
    "id": "8292806",
    "name": "맥도날드 평촌호계점",
    "address": "경기 안양시 동안구 호계동 1058-3",
    "road_address": "경기 안양시 동안구 평촌대로 137",
    "latitude": 37.3842402318307,
    "longitude": 126.959124575703,
    "phone": "031-341-7800",
    "url": "http://place.map.kakao.com/8292806",
    "category": "음식점 > 패스트푸드 > 맥도날드"
  },
  {
    "id": "973880183",
    "name": "맥도날드 화성향남DT점",
    "address": "경기 화성시 향남읍 방축리 297-75",
    "road_address": "경기 화성시 향남읍 행정남로 120",
    "latitude": 37.1218030497675,
    "longitude": 126.918748273327,
    "phone": "031-8050-4100",
    "url": "http://place.map.kakao.com/973880183",
    "category": "음식점 > 패스트푸드 > 맥도날드"
  },
  {
    "id": "21604485",
    "name": "맥도날드 중산DT점",
    "address": "경기 고양시 일산동구 중산동 1667-5",
    "road_address": "경기 고양시 일산동구 고양대로 745",
    "latitude": 37.682862325027,
    "longitude": 126.778848998197,
    "phone": "031-811-6000",
    "url": "http://place.map.kakao.com/21604485",
    "category": "음식점 > 패스트푸드 > 맥도날드"
  },
  {
    "id": "24094124",
    "name": "맥도날드 성남신흥DT점",
    "address": "경기 성남시 수정구 신흥동 181",
    "road_address": "경기 성남시 수정구 수정로 306",
    "latitude": 37.4513733614279,
    "longitude": 127.148688818186,
    "phone": "031-602-3800",
    "url": "http://place.map.kakao.com/24094124",
    "category": "음식점 > 패스트푸드 > 맥도날드"
  },
  {
    "id": "25003667",
    "name": "맥도날드 의왕오전DT점",
    "address": "경기 의왕시 오전동 207-1",
    "road_address": "경기 의왕시 경수대로 351",
    "latitude": 37.356627187347904,
    "longitude": 126.96713668835201,
    "phone": "031-344-1000",
    "url": "http://place.map.kakao.com/25003667",
    "category": "음식점 > 패스트푸드 > 맥도날드"
  },
  {
    "id": "11079252",
    "name": "맥도날드 정발산점",
    "address": "경기 고양시 일산동구 장항동 770-2",
    "road_address": "경기 고양시 일산동구 중앙로1275번길 38-5",
    "latitude": 37.65932793179938,
    "longitude": 126.77039183011871,
    "phone": "031-812-5700",
    "url": "http://place.map.kakao.com/11079252",
    "category": "음식점 > 패스트푸드 > 맥도날드"
  },
  {
    "id": "21853693",
    "name": "맥도날드 병점DT점",
    "address": "경기 화성시 병점동 372-1",
    "road_address": "경기 화성시 경기대로 1004",
    "latitude": 37.2055549517371,
    "longitude": 127.037083978208,
    "phone": "031-304-2600",
    "url": "http://place.map.kakao.com/21853693",
    "category": "음식점 > 패스트푸드 > 맥도날드"
  },
  {
    "id": "677696490",
    "name": "맥도날드 동탄2DT점",
    "address": "경기 화성시 영천동 871-4",
    "road_address": "경기 화성시 동탄순환대로 754-9",
    "latitude": 37.2096346285437,
    "longitude": 127.105109208258,
    "phone": "031-8043-5900",
    "url": "http://place.map.kakao.com/677696490",
    "category": "음식점 > 패스트푸드 > 맥도날드"
  },
  {
    "id": "556882931",
    "name": "맥도날드 고양덕이DT점",
    "address": "경기 고양시 일산서구 덕이동 304-3",
    "road_address": "경기 고양시 일산서구 경의로 914",
    "latitude": 37.6990258142764,
    "longitude": 126.75951431141168,
    "phone": "031-817-6200",
    "url": "http://place.map.kakao.com/556882931",
    "category": "음식점 > 패스트푸드 > 맥도날드"
  },
  {
    "id": "8356483",
    "name": "맥도날드 철산역점",
    "address": "경기 광명시 철산동 404",
    "road_address": "경기 광명시 오리로856번길 17",
    "latitude": 37.4755048555974,
    "longitude": 126.868555915074,
    "phone": "02-6279-5600",
    "url": "http://place.map.kakao.com/8356483",
    "category": "음식점 > 패스트푸드 > 맥도날드"
  },
  {
    "id": "20851108",
    "name": "맥도날드 오산세교DT점",
    "address": "경기 오산시 내삼미동 466-1",
    "road_address": "경기 오산시 경기대로 651",
    "latitude": 37.178580822307445,
    "longitude": 127.05596315165953,
    "phone": "031-8058-1400",
    "url": "http://place.map.kakao.com/20851108",
    "category": "음식점 > 패스트푸드 > 맥도날드"
  },
  {
    "id": "25006468",
    "name": "맥도날드 마석DT점",
    "address": "경기 남양주시 화도읍 마석우리 481-2",
    "road_address": "경기 남양주시 화도읍 비룡로 89",
    "latitude": 37.660104556108635,
    "longitude": 127.30234119841614,
    "phone": "031-510-8200",
    "url": "http://place.map.kakao.com/25006468",
    "category": "음식점 > 패스트푸드 > 맥도날드"
  },
  {
    "id": "13571581",
    "name": "맥도날드 의정부녹양DT점",
    "address": "경기 의정부시 가능동 106-1",
    "road_address": "경기 의정부시 서부로 717",
    "latitude": 37.7566115264977,
    "longitude": 127.038637363705,
    "phone": "031-824-1600",
    "url": "http://place.map.kakao.com/13571581",
    "category": "음식점 > 패스트푸드 > 맥도날드"
  },
  {
    "id": "27020187",
    "name": "맥도날드 광명소하DT점",
    "address": "경기 광명시 소하동 1340",
    "road_address": "경기 광명시 오리로 512",
    "latitude": 37.4476883399368,
    "longitude": 126.881736448508,
    "phone": "02-6275-5300",
    "url": "http://place.map.kakao.com/27020187",
    "category": "음식점 > 패스트푸드 > 맥도날드"
  },
  {
    "id": "1424013006",
    "name": "맥도날드 용인DT점",
    "address": "경기 용인시 처인구 김량장동 177-9",
    "road_address": "경기 용인시 처인구 백옥대로 1176",
    "latitude": 37.23995113202097,
    "longitude": 127.21065297945259,
    "phone": "031-8097-3800",
    "url": "http://place.map.kakao.com/1424013006",
    "category": "음식점 > 패스트푸드 > 맥도날드"
  },
  {
    "id": "25000755",
    "name": "맥도날드 용인마북DT점",
    "address": "경기 용인시 기흥구 마북동 552-4",
    "road_address": "경기 용인시 기흥구 용구대로 2420",
    "latitude": 37.3023137828645,
    "longitude": 127.106481029444,
    "phone": "031-8081-4000",
    "url": "http://place.map.kakao.com/25000755",
    "category": "음식점 > 패스트푸드 > 맥도날드"
  },
  {
    "id": "403960846",
    "name": "맥도날드 경기광주DT점",
    "address": "경기 광주시 쌍령동 155-18",
    "road_address": "경기 광주시 경충대로 1477",
    "latitude": 37.40135138557924,
    "longitude": 127.27113769131121,
    "phone": "031-699-2100",
    "url": "http://place.map.kakao.com/403960846",
    "category": "음식점 > 패스트푸드 > 맥도날드"
  },
  {
    "id": "677253395",
    "name": "맥도날드 수원탑동DT점",
    "address": "경기 수원시 권선구 탑동 452-1",
    "road_address": "경기 수원시 권선구 서부로 1766",
    "latitude": 37.2665583853828,
    "longitude": 126.97241149579,
    "phone": "031-893-4500",
    "url": "http://place.map.kakao.com/677253395",
    "category": "음식점 > 패스트푸드 > 맥도날드"
  },
  {
    "id": "25005779",
    "name": "맥도날드 수원GS DT점",
    "address": "경기 수원시 권선구 권선동 1029",
    "road_address": "경기 수원시 권선구 권선로 684",
    "latitude": 37.25912064701299,
    "longitude": 127.02597039195815,
    "phone": "031-306-4000",
    "url": "http://place.map.kakao.com/25005779",
    "category": "음식점 > 패스트푸드 > 맥도날드"
  },
  {
    "id": "25001083",
    "name": "맥도날드 수원아주대점",
    "address": "경기 수원시 영통구 원천동 18-1",
    "road_address": "경기 수원시 영통구 아주로 46",
    "latitude": 37.27891570780273,
    "longitude": 127.04398690068008,
    "phone": "031-309-4000",
    "url": "http://place.map.kakao.com/25001083",
    "category": "음식점 > 패스트푸드 > 맥도날드"
  },
  {
    "id": "19208772",
    "name": "맥도날드 평택GSDT점",
    "address": "경기 평택시 용이동 470-5",
    "road_address": "경기 평택시 서동대로 3929",
    "latitude": 36.996022240367495,
    "longitude": 127.14245700150327,
    "phone": "031-8029-4200",
    "url": "http://place.map.kakao.com/19208772",
    "category": "음식점 > 패스트푸드 > 맥도날드"
  },
  {
    "id": "14533663",
    "name": "맥도날드 탄현점",
    "address": "경기 고양시 일산서구 탄현동 1573-1",
    "road_address": "경기 고양시 일산서구 일현로 56",
    "latitude": 37.6920519375668,
    "longitude": 126.76380560711166,
    "phone": "031-812-6700",
    "url": "http://place.map.kakao.com/14533663",
    "category": "음식점 > 패스트푸드 > 맥도날드"
  },
  {
    "id": "18606544",
    "name": "맥도날드 의정부역점",
    "address": "경기 의정부시 의정부동 194-10",
    "road_address": "경기 의정부시 행복로 11",
    "latitude": 37.7399687994896,
    "longitude": 127.048508258549,
    "phone": "031-825-7000",
    "url": "http://place.map.kakao.com/18606544",
    "category": "음식점 > 패스트푸드 > 맥도날드"
  },
  {
    "id": "25854115",
    "name": "맥도날드 수원망포DT점",
    "address": "경기 수원시 영통구 망포동 21-13",
    "road_address": "경기 수원시 영통구 덕영대로 1495",
    "latitude": 37.24605036849585,
    "longitude": 127.05439901113824,
    "phone": "031-308-4000",
    "url": "http://place.map.kakao.com/25854115",
    "category": "음식점 > 패스트푸드 > 맥도날드"
  },
  {
    "id": "11296960",
    "name": "맥도날드 시흥은행점",
    "address": "경기 시흥시 은행동 532-1",
    "road_address": "경기 시흥시 대은로 90",
    "latitude": 37.4447607316095,
    "longitude": 126.798355962044,
    "phone": "031-503-9700",
    "url": "http://place.map.kakao.com/11296960",
    "category": "음식점 > 패스트푸드 > 맥도날드"
  },
  {
    "id": "25005417",
    "name": "맥도날드 시화점",
    "address": "경기 시흥시 정왕동 1734-2",
    "road_address": "경기 시흥시 정왕대로 210",
    "latitude": 37.345812239772336,
    "longitude": 126.7367962728756,
    "phone": "031-506-8400",
    "url": "http://place.map.kakao.com/25005417",
    "category": "음식점 > 패스트푸드 > 맥도날드"
  },
  {
    "id": "24927312",
    "name": "맥도날드 춘천퇴계DT점",
    "address": "강원특별자치도 춘천시 퇴계동 418-20",
    "road_address": "강원특별자치도 춘천시 영서로 2173",
    "latitude": 37.859125937655,
    "longitude": 127.731116003722,
    "phone": "033-910-5000",
    "url": "http://place.map.kakao.com/24927312",
    "category": "음식점 > 패스트푸드 > 맥도날드"
  },
  {
    "id": "10349434",
    "name": "맥도날드 강릉점",
    "address": "강원특별자치도 강릉시 임당동 86",
    "road_address": "강원특별자치도 강릉시 경강로 2097",
    "latitude": 37.75490102920019,
    "longitude": 128.89614437151116,
    "phone": "033-920-3100",
    "url": "http://place.map.kakao.com/10349434",
    "category": "음식점 > 패스트푸드 > 맥도날드"
  },
  {
    "id": "700163124",
    "name": "맥도날드 동해DT점",
    "address": "강원특별자치도 동해시 천곡동 1066",
    "road_address": "강원특별자치도 동해시 한섬로 93",
    "latitude": 37.52084566036642,
    "longitude": 129.11403096648644,
    "phone": "033-930-2000",
    "url": "http://place.map.kakao.com/700163124",
    "category": "음식점 > 패스트푸드 > 맥도날드"
  },
  {
    "id": "13571584",
    "name": "맥도날드 속초DT점",
    "address": "강원특별자치도 속초시 조양동 636-53",
    "road_address": "강원특별자치도 속초시 동해대로 4118",
    "latitude": 38.189843251508,
    "longitude": 128.583979426431,
    "phone": "033-947-8100",
    "url": "http://place.map.kakao.com/13571584",
    "category": "음식점 > 패스트푸드 > 맥도날드"
  },
  {
    "id": "19163236",
    "name": "맥도날드 원주단계DT점",
    "address": "강원특별자치도 원주시 단계동 879-1",
    "road_address": "강원특별자치도 원주시 서원대로 154",
    "latitude": 37.34416555297362,
    "longitude": 127.9286658315286,
    "phone": "033-900-6500",
    "url": "http://place.map.kakao.com/19163236",
    "category": "음식점 > 패스트푸드 > 맥도날드"
  },
  {
    "id": "1373619634",
    "name": "맥도날드 춘천후평DT점",
    "address": "강원특별자치도 춘천시 후평동 702-5",
    "road_address": "강원특별자치도 춘천시 후석로 334",
    "latitude": 37.88085699106636,
    "longitude": 127.74950274221112,
    "phone": "033-911-9000",
    "url": "http://place.map.kakao.com/1373619634",
    "category": "음식점 > 패스트푸드 > 맥도날드"
  },
  {
    "id": "14555809",
    "name": "맥도날드 원주단구DT점",
    "address": "강원특별자치도 원주시 단구동 1026-16",
    "road_address": "강원특별자치도 원주시 서원대로 426",
    "latitude": 37.3291356856915,
    "longitude": 127.951382819129,
    "phone": "033-900-6400",
    "url": "http://place.map.kakao.com/14555809",
    "category": "음식점 > 패스트푸드 > 맥도날드"
  },
  {
    "id": "159385370",
    "name": "맥도날드 강릉송정DT점",
    "address": "강원특별자치도 강릉시 송정동 546-4",
    "road_address": "강원특별자치도 강릉시 경강로 2412",
    "latitude": 37.7722813801324,
    "longitude": 128.923842230386,
    "phone": "033-920-9200",
    "url": "http://place.map.kakao.com/159385370",
    "category": "음식점 > 패스트푸드 > 맥도날드"
  },
  {
    "id": "848765402",
    "name": "맥도날드 춘천퇴계DT점 주차장",
    "address": "강원특별자치도 춘천시 퇴계동 418-20",
    "road_address": "강원특별자치도 춘천시 영서로 2173",
    "latitude": 37.8591587078974,
    "longitude": 127.731061783191,
    "phone": "",
    "url": "http://place.map.kakao.com/848765402",
    "category": "교통,수송 > 교통시설 > 주차장"
  },
  {
    "id": "848660263",
    "name": "맥도날드 속초DT점 주차장",
    "address": "강원특별자치도 속초시 조양동 636-53",
    "road_address": "강원특별자치도 속초시 동해대로 4118",
    "latitude": 38.1898620088116,
    "longitude": 128.584124787597,
    "phone": "",
    "url": "http://place.map.kakao.com/848660263",
    "category": "교통,수송 > 교통시설 > 주차장"
  },
  {
    "id": "64165599",
    "name": "맥도날드 춘천후평DT점 주차장",
    "address": "강원특별자치도 춘천시 후평동 702-5",
    "road_address": "",
    "latitude": 37.8807013321235,
    "longitude": 127.749612558163,
    "phone": "",
    "url": "http://place.map.kakao.com/64165599",
    "category": "교통,수송 > 교통시설 > 주차장"
  },
  {
    "id": "2076085019",
    "name": "맥도날드 원주단구DT점 주차장",
    "address": "강원특별자치도 원주시 단구동 1026-16",
    "road_address": "",
    "latitude": 37.329016085442,
    "longitude": 127.951465932462,
    "phone": "",
    "url": "http://place.map.kakao.com/2076085019",
    "category": "교통,수송 > 교통시설 > 주차장"
  },
  {
    "id": "1139687243",
    "name": "맥도날드 동해DT점 주차장",
    "address": "강원특별자치도 동해시 천곡동 1066",
    "road_address": "강원특별자치도 동해시 한섬로 93",
    "latitude": 37.5208310411767,
    "longitude": 129.114092759385,
    "phone": "",
    "url": "http://place.map.kakao.com/1139687243",
    "category": "교통,수송 > 교통시설 > 주차장"
  },
  {
    "id": "1354662348",
    "name": "맥도날드 강릉송정DT점 전기차충전소",
    "address": "강원특별자치도 강릉시 송정동 546-4",
    "road_address": "강원특별자치도 강릉시 경강로 2412",
    "latitude": 37.77228316251018,
    "longitude": 128.92384341144276,
    "phone": "",
    "url": "http://place.map.kakao.com/1354662348",
    "category": "교통,수송 > 자동차 > 전기차 충전소"
  },
  {
    "id": "24264928",
    "name": "맥도날드 청주율량GSDT점",
    "address": "충북 청주시 청원구 율량동 769",
    "road_address": "충북 청주시 청원구 공항로 156",
    "latitude": 36.6707777379263,
    "longitude": 127.483999710452,
    "phone": "043-900-6900",
    "url": "http://place.map.kakao.com/24264928",
    "category": "음식점 > 패스트푸드 > 맥도날드"
  },
  {
    "id": "22570098",
    "name": "맥도날드 청주비하DT점",
    "address": "충북 청주시 흥덕구 비하동 671-12",
    "road_address": "충북 청주시 흥덕구 2순환로 1076",
    "latitude": 36.6387052765101,
    "longitude": 127.422299669649,
    "phone": "043-903-4900",
    "url": "http://place.map.kakao.com/22570098",
    "category": "음식점 > 패스트푸드 > 맥도날드"
  },
  {
    "id": "21029557",
    "name": "맥도날드 청주봉명DT점",
    "address": "충북 청주시 흥덕구 봉명동 1405",
    "road_address": "충북 청주시 흥덕구 1순환로 518",
    "latitude": 36.646192409295914,
    "longitude": 127.46428716588396,
    "phone": "043-903-8900",
    "url": "http://place.map.kakao.com/21029557",
    "category": "음식점 > 패스트푸드 > 맥도날드"
  },
  {
    "id": "25002845",
    "name": "맥도날드 청주분평DT점",
    "address": "충북 청주시 서원구 분평동 241-4",
    "road_address": "충북 청주시 서원구 청남로 1991",
    "latitude": 36.610281183495125,
    "longitude": 127.48383936276895,
    "phone": "043-902-7800",
    "url": "http://place.map.kakao.com/25002845",
    "category": "음식점 > 패스트푸드 > 맥도날드"
  },
  {
    "id": "10198874",
    "name": "맥도날드 충주교현DT점",
    "address": "충북 충주시 교현동 624-1",
    "road_address": "충북 충주시 국원대로 87",
    "latitude": 36.9793481291882,
    "longitude": 127.92801601481,
    "phone": "043-910-4900",
    "url": "http://place.map.kakao.com/10198874",
    "category": "음식점 > 패스트푸드 > 맥도날드"
  },
  {
    "id": "26312040",
    "name": "맥도날드 청주금천DT점",
    "address": "충북 청주시 상당구 금천동 44-1",
    "road_address": "충북 청주시 상당구 중고개로 281",
    "latitude": 36.62781116609862,
    "longitude": 127.50822986676262,
    "phone": "043-900-5900",
    "url": "http://place.map.kakao.com/26312040",
    "category": "음식점 > 패스트푸드 > 맥도날드"
  },
  {
    "id": "18605001",
    "name": "맥도날드 청주성화점",
    "address": "충북 청주시 서원구 성화동 721",
    "road_address": "충북 청주시 서원구 서부로 1344",
    "latitude": 36.6171372799031,
    "longitude": 127.447566357729,
    "phone": "043-903-2900",
    "url": "http://place.map.kakao.com/18605001",
    "category": "음식점 > 패스트푸드 > 맥도날드"
  },
  {
    "id": "27177673",
    "name": "맥도날드 제천DT점",
    "address": "충북 제천시 청전동 165-5",
    "road_address": "충북 제천시 의림대로 202",
    "latitude": 37.14526341702215,
    "longitude": 128.2141073500897,
    "phone": "043-920-8900",
    "url": "http://place.map.kakao.com/27177673",
    "category": "음식점 > 패스트푸드 > 맥도날드"
  },
  {
    "id": "786563730",
    "name": "맥도날드 청주비하DT점 주차장",
    "address": "충북 청주시 흥덕구 비하동 671-16",
    "road_address": "",
    "latitude": 36.6388044147642,
    "longitude": 127.422295738054,
    "phone": "",
    "url": "http://place.map.kakao.com/786563730",
    "category": "교통,수송 > 교통시설 > 주차장"
  },
  {
    "id": "651845791",
    "name": "맥도날드 제천DT점 주차장",
    "address": "충북 제천시 청전동 165-7",
    "road_address": "",
    "latitude": 37.1452038958384,
    "longitude": 128.214376524102,
    "phone": "",
    "url": "http://place.map.kakao.com/651845791",
    "category": "교통,수송 > 교통시설 > 주차장"
  },
  {
    "id": "903924900",
    "name": "맥도날드 청주분평DT점 주차장",
    "address": "충북 청주시 서원구 분평동 241-4",
    "road_address": "",
    "latitude": 36.610440648083,
    "longitude": 127.48384818325,
    "phone": "",
    "url": "http://place.map.kakao.com/903924900",
    "category": "교통,수송 > 교통시설 > 주차장"
  },
  {
    "id": "652644150",
    "name": "맥도날드 충주교현DT점 주차장",
    "address": "충북 충주시 교현동 624-1",
    "road_address": "",
    "latitude": 36.9794649772037,
    "longitude": 127.927937693466,
    "phone": "",
    "url": "http://place.map.kakao.com/652644150",
    "category": "교통,수송 > 교통시설 > 주차장"
  },
  {
    "id": "1851660549",
    "name": "맥도날드 청주금천DT점 주차장",
    "address": "충북 청주시 상당구 금천동 44-1",
    "road_address": "",
    "latitude": 36.6277801232102,
    "longitude": 127.507902086207,
    "phone": "",
    "url": "http://place.map.kakao.com/1851660549",
    "category": "교통,수송 > 교통시설 > 주차장"
  },
  {
    "id": "1874453538",
    "name": "맥도날드 청주봉명DT점 주차장",
    "address": "충북 청주시 흥덕구 봉명동 1405",
    "road_address": "",
    "latitude": 36.6463113509908,
    "longitude": 127.46428899809,
    "phone": "",
    "url": "http://place.map.kakao.com/1874453538",
    "category": "교통,수송 > 교통시설 > 주차장"
  },
  {
    "id": "1202459883",
    "name": "G car zone 맥도날드 제천DT점 뒤",
    "address": "충북 제천시 청전동 138-34",
    "road_address": "충북 제천시 칠성로13가길 6",
    "latitude": 37.1450040859826,
    "longitude": 128.214883189781,
    "phone": "",
    "url": "http://place.map.kakao.com/1202459883",
    "category": "교통,수송 > 교통시설 > 카셰어링 > G car zone"
  },
  {
    "id": "13050156",
    "name": "맥도날드 천안두정DT점",
    "address": "충남 천안시 서북구 두정동 620",
    "road_address": "충남 천안시 서북구 동서대로 49",
    "latitude": 36.825603037769255,
    "longitude": 127.12864827101649,
    "phone": "041-900-2700",
    "url": "http://place.map.kakao.com/13050156",
    "category": "음식점 > 패스트푸드 > 맥도날드"
  },
  {
    "id": "17944605",
    "name": "맥도날드 천안쌍용역DT점",
    "address": "충남 천안시 서북구 쌍용동 394-10",
    "road_address": "충남 천안시 서북구 충무로 166",
    "latitude": 36.79373351868333,
    "longitude": 127.12606503463718,
    "phone": "041-902-4900",
    "url": "http://place.map.kakao.com/17944605",
    "category": "음식점 > 패스트푸드 > 맥도날드"
  },
  {
    "id": "25070668",
    "name": "맥도날드 천안원성DT점",
    "address": "충남 천안시 동남구 원성동 442-1",
    "road_address": "충남 천안시 동남구 천안대로 699",
    "latitude": 36.810600657064064,
    "longitude": 127.16433903433334,
    "phone": "041-909-4500",
    "url": "http://place.map.kakao.com/25070668",
    "category": "음식점 > 패스트푸드 > 맥도날드"
  },
  {
    "id": "27254826",
    "name": "맥도날드 충남아산DT점",
    "address": "충남 아산시 온천동 36-28",
    "road_address": "충남 아산시 충무로 37",
    "latitude": 36.7846106508628,
    "longitude": 127.00507718205,
    "phone": "041-911-2100",
    "url": "http://place.map.kakao.com/27254826",
    "category": "음식점 > 패스트푸드 > 맥도날드"
  },
  {
    "id": "921940809",
    "name": "맥도날드 아산탕정DT점",
    "address": "충남 아산시 탕정면 매곡리 633-7",
    "road_address": "충남 아산시 탕정면 이순신대로 748",
    "latitude": 36.7940420601455,
    "longitude": 127.085040889672,
    "phone": "041-910-5900",
    "url": "http://place.map.kakao.com/921940809",
    "category": "음식점 > 패스트푸드 > 맥도날드"
  },
  {
    "id": "27181418",
    "name": "맥도날드 충남당진DT점",
    "address": "충남 당진시 읍내동 423-2",
    "road_address": "충남 당진시 서해로 5754",
    "latitude": 36.89733312798789,
    "longitude": 126.62699781576455,
    "phone": "041-970-4900",
    "url": "http://place.map.kakao.com/27181418",
    "category": "음식점 > 패스트푸드 > 맥도날드"
  },
  {
    "id": "74784720",
    "name": "맥도날드 충남논산DT점",
    "address": "충남 논산시 내동 343-1",
    "road_address": "충남 논산시 시민로 247",
    "latitude": 36.18857864346654,
    "longitude": 127.09543344360449,
    "phone": "041-980-6100",
    "url": "http://place.map.kakao.com/74784720",
    "category": "음식점 > 패스트푸드 > 맥도날드"
  },
  {
    "id": "122705113",
    "name": "맥도날드 천안두정역DT점",
    "address": "충남 천안시 서북구 두정동 24-8",
    "road_address": "충남 천안시 서북구 천안대로 1022",
    "latitude": 36.832930208908,
    "longitude": 127.152086063146,
    "phone": "041-900-4300",
    "url": "http://place.map.kakao.com/122705113",
    "category": "음식점 > 패스트푸드 > 맥도날드"
  },
  {
    "id": "26821820",
    "name": "맥도날드 천안고속버스터미널점",
    "address": "충남 천안시 동남구 신부동 354-1",
    "road_address": "충남 천안시 동남구 만남로 43",
    "latitude": 36.81909992036221,
    "longitude": 127.1542498533037,
    "phone": "041-908-4500",
    "url": "http://place.map.kakao.com/26821820",
    "category": "음식점 > 패스트푸드 > 맥도날드"
  },
  {
    "id": "27284836",
    "name": "맥도날드 서산DT점",
    "address": "충남 서산시 예천동 524-26",
    "road_address": "충남 서산시 충의로 3",
    "latitude": 36.7729049115732,
    "longitude": 126.440813344491,
    "phone": "041-920-2500",
    "url": "http://place.map.kakao.com/27284836",
    "category": "음식점 > 패스트푸드 > 맥도날드"
  },
  {
    "id": "109595824",
    "name": "맥도날드 충남홍성DT점",
    "address": "충남 홍성군 홍성읍 소향리 72-4",
    "road_address": "충남 홍성군 홍성읍 충서로 1528",
    "latitude": 36.60468450812717,
    "longitude": 126.66144707965779,
    "phone": "041-977-6100",
    "url": "http://place.map.kakao.com/109595824",
    "category": "음식점 > 패스트푸드 > 맥도날드"
  },
  {
    "id": "99736224",
    "name": "맥도날드 충남보령DT점",
    "address": "충남 보령시 궁촌동 345-4",
    "road_address": "충남 보령시 터미널길 3",
    "latitude": 36.3416779673186,
    "longitude": 126.589009572502,
    "phone": "041-927-6100",
    "url": "http://place.map.kakao.com/99736224",
    "category": "음식점 > 패스트푸드 > 맥도날드"
  },
  {
    "id": "1565611895",
    "name": "맥도날드 천안쌍용역DT점 주차장",
    "address": "충남 천안시 서북구 쌍용동 394-10",
    "road_address": "충남 천안시 서북구 충무로 166",
    "latitude": 36.7936992324992,
    "longitude": 127.126106434282,
    "phone": "",
    "url": "http://place.map.kakao.com/1565611895",
    "category": "교통,수송 > 교통시설 > 주차장"
  },
  {
    "id": "1746797110",
    "name": "맥도날드 천안원성DT점 주차장",
    "address": "충남 천안시 동남구 원성동 442-1",
    "road_address": "",
    "latitude": 36.8106415117756,
    "longitude": 127.164118348881,
    "phone": "",
    "url": "http://place.map.kakao.com/1746797110",
    "category": "교통,수송 > 교통시설 > 주차장"
  },
  {
    "id": "2076782630",
    "name": "맥도날드 충남아산DT점 주차장",
    "address": "충남 아산시 온천동 36-28",
    "road_address": "",
    "latitude": 36.7847683462006,
    "longitude": 127.00507271126,
    "phone": "",
    "url": "http://place.map.kakao.com/2076782630",
    "category": "교통,수송 > 교통시설 > 주차장"
  },
  {
    "id": "2019835972",
    "name": "맥도날드 서산DT점 주차장",
    "address": "충남 서산시 예천동 524-26",
    "road_address": "",
    "latitude": 36.7727710400303,
    "longitude": 126.441088743372,
    "phone": "",
    "url": "http://place.map.kakao.com/2019835972",
    "category": "교통,수송 > 교통시설 > 주차장"
  },
  {
    "id": "193781788",
    "name": "맥도날드 충남홍성DT점 주차장",
    "address": "충남 홍성군 홍성읍 소향리 72-4",
    "road_address": "",
    "latitude": 36.6047099960452,
    "longitude": 126.661220078548,
    "phone": "",
    "url": "http://place.map.kakao.com/193781788",
    "category": "교통,수송 > 교통시설 > 주차장"
  },
  {
    "id": "634405392",
    "name": "맥도날드 충남논산DT점 주차장",
    "address": "충남 논산시 내동 343-1",
    "road_address": "",
    "latitude": 36.1886181731514,
    "longitude": 127.09558802438,
    "phone": "",
    "url": "http://place.map.kakao.com/634405392",
    "category": "교통,수송 > 교통시설 > 주차장"
  },
  {
    "id": "1254748695",
    "name": "맥도날드 충남당진DT점 주차장",
    "address": "충남 당진시 읍내동 423-2",
    "road_address": "",
    "latitude": 36.8972965634657,
    "longitude": 126.626831947432,
    "phone": "",
    "url": "http://place.map.kakao.com/1254748695",
    "category": "교통,수송 > 교통시설 > 주차장"
  },
  {
    "id": "1125419856",
    "name": "맥도날드 충남보령DT점 주차장",
    "address": "충남 보령시 궁촌동 345-4",
    "road_address": "",
    "latitude": 36.3417607272366,
    "longitude": 126.589228578196,
    "phone": "",
    "url": "http://place.map.kakao.com/1125419856",
    "category": "교통,수송 > 교통시설 > 주차장"
  },
  {
    "id": "22401534",
    "name": "맥도날드 전주덕진DT점",
    "address": "전북특별자치도 전주시 덕진구 덕진동1가 1401-18",
    "road_address": "전북특별자치도 전주시 덕진구 기린대로 503",
    "latitude": 35.843846168153,
    "longitude": 127.123102297522,
    "phone": "063-905-3400",
    "url": "http://place.map.kakao.com/22401534",
    "category": "음식점 > 패스트푸드 > 맥도날드"
  },
  {
    "id": "12628236",
    "name": "맥도날드 전주중화산점",
    "address": "전북특별자치도 전주시 완산구 중화산동2가 648-11",
    "road_address": "전북특별자치도 전주시 완산구 백제대로 238",
    "latitude": 35.81430068479507,
    "longitude": 127.12350813006225,
    "phone": "063-903-3600",
    "url": "http://place.map.kakao.com/12628236",
    "category": "음식점 > 패스트푸드 > 맥도날드"
  },
  {
    "id": "25070671",
    "name": "맥도날드 익산영등DT점",
    "address": "전북특별자치도 익산시 영등동 747-8",
    "road_address": "전북특별자치도 익산시 무왕로 1046",
    "latitude": 35.95817640794555,
    "longitude": 126.97301889303796,
    "phone": "063-915-9500",
    "url": "http://place.map.kakao.com/25070671",
    "category": "음식점 > 패스트푸드 > 맥도날드"
  },
  {
    "id": "17916165",
    "name": "맥도날드 전주송천DT점",
    "address": "전북특별자치도 전주시 덕진구 송천동2가 527",
    "road_address": "전북특별자치도 전주시 덕진구 송천중앙로 200",
    "latitude": 35.86502320966616,
    "longitude": 127.12197136104217,
    "phone": "063-901-7500",
    "url": "http://place.map.kakao.com/17916165",
    "category": "음식점 > 패스트푸드 > 맥도날드"
  },
  {
    "id": "22400876",
    "name": "맥도날드 전주효자DT점",
    "address": "전북특별자치도 전주시 완산구 효자동1가 411-24",
    "road_address": "전북특별자치도 전주시 완산구 용머리로 13",
    "latitude": 35.80566274927069,
    "longitude": 127.11178366970874,
    "phone": "063-901-6400",
    "url": "http://place.map.kakao.com/22400876",
    "category": "음식점 > 패스트푸드 > 맥도날드"
  },
  {
    "id": "25001487",
    "name": "맥도날드 군산나운DT점",
    "address": "전북특별자치도 군산시 나운동 844-6",
    "road_address": "전북특별자치도 군산시 나운로 132",
    "latitude": 35.96217634229503,
    "longitude": 126.69604305733172,
    "phone": "063-911-9500",
    "url": "http://place.map.kakao.com/25001487",
    "category": "음식점 > 패스트푸드 > 맥도날드"
  },
  {
    "id": "22272689",
    "name": "맥도날드 전주인후DT점",
    "address": "전북특별자치도 전주시 덕진구 인후동2가 1529-3",
    "road_address": "전북특별자치도 전주시 덕진구 백제대로 692",
    "latitude": 35.84402266857521,
    "longitude": 127.14504388612126,
    "phone": "063-901-3600",
    "url": "http://place.map.kakao.com/22272689",
    "category": "음식점 > 패스트푸드 > 맥도날드"
  },
  {
    "id": "1083582822",
    "name": "맥도날드 전북정읍DT점",
    "address": "전북특별자치도 정읍시 수성동 524-17",
    "road_address": "전북특별자치도 정읍시 남북로 51",
    "latitude": 35.5696527587701,
    "longitude": 126.851593528026,
    "phone": "063-927-3600",
    "url": "http://place.map.kakao.com/1083582822",
    "category": "음식점 > 패스트푸드 > 맥도날드"
  },
  {
    "id": "26318576",
    "name": "맥도날드 전주평화DT점",
    "address": "전북특별자치도 전주시 완산구 평화동1가 732-1",
    "road_address": "전북특별자치도 전주시 완산구 모악로 4758",
    "latitude": 35.7939566418529,
    "longitude": 127.132667138049,
    "phone": "063-901-4500",
    "url": "http://place.map.kakao.com/26318576",
    "category": "음식점 > 패스트푸드 > 맥도날드"
  },
  {
    "id": "1813263152",
    "name": "맥도날드 군산조촌DT점",
    "address": "전북특별자치도 군산시 조촌동 471-1",
    "road_address": "전북특별자치도 군산시 조촌로 143",
    "latitude": 35.9769697464762,
    "longitude": 126.737097224365,
    "phone": "063-910-2200",
    "url": "http://place.map.kakao.com/1813263152",
    "category": "음식점 > 패스트푸드 > 맥도날드"
  },
  {
    "id": "2006136256",
    "name": "맥도날드 군산나운DT점 주차장",
    "address": "전북특별자치도 군산시 나운동 844-6",
    "road_address": "전북특별자치도 군산시 나운로 132",
    "latitude": 35.9620934996219,
    "longitude": 126.696071088763,
    "phone": "",
    "url": "http://place.map.kakao.com/2006136256",
    "category": "교통,수송 > 교통시설 > 주차장"
  },
  {
    "id": "675651542",
    "name": "맥도날드 전주덕진DT점 주차장",
    "address": "전북특별자치도 전주시 덕진구 덕진동1가 1401-18",
    "road_address": "",
    "latitude": 35.8439553243064,
    "longitude": 127.123000629869,
    "phone": "",
    "url": "http://place.map.kakao.com/675651542",
    "category": "교통,수송 > 교통시설 > 주차장"
  },
  {
    "id": "288039924",
    "name": "맥도날드 익산영등DT점 주차장",
    "address": "전북특별자치도 익산시 영등동 747-8",
    "road_address": "",
    "latitude": 35.9581691509939,
    "longitude": 126.972810495854,
    "phone": "",
    "url": "http://place.map.kakao.com/288039924",
    "category": "교통,수송 > 교통시설 > 주차장"
  },
  {
    "id": "2032284466",
    "name": "맥도날드 전주송천DT점 주차장",
    "address": "전북특별자치도 전주시 덕진구 송천동2가 527-12",
    "road_address": "",
    "latitude": 35.8648339422379,
    "longitude": 127.121975499868,
    "phone": "",
    "url": "http://place.map.kakao.com/2032284466",
    "category": "교통,수송 > 교통시설 > 주차장"
  },
  {
    "id": "901479501",
    "name": "맥도날드 전주인후DT점 주차장",
    "address": "전북특별자치도 전주시 덕진구 인후동2가 1529-3",
    "road_address": "",
    "latitude": 35.844016558748,
    "longitude": 127.144878944348,
    "phone": "",
    "url": "http://place.map.kakao.com/901479501",
    "category": "교통,수송 > 교통시설 > 주차장"
  },
  {
    "id": "1008396318",
    "name": "맥도날드 전주평화DT점 주차장",
    "address": "전북특별자치도 전주시 완산구 평화동1가 732-5",
    "road_address": "",
    "latitude": 35.7938161034992,
    "longitude": 127.132613805851,
    "phone": "",
    "url": "http://place.map.kakao.com/1008396318",
    "category": "교통,수송 > 교통시설 > 주차장"
  },
  {
    "id": "78474289",
    "name": "맥도날드 전주중화산점 \\ 주차장",
    "address": "전북특별자치도 전주시 완산구 중화산동2가 648-11",
    "road_address": "",
    "latitude": 35.8141519826409,
    "longitude": 127.123502367263,
    "phone": "",
    "url": "http://place.map.kakao.com/78474289",
    "category": "교통,수송 > 교통시설 > 주차장"
  },
  {
    "id": "2122389574",
    "name": "맥도날드 전주효자DT점 주차장",
    "address": "전북특별자치도 전주시 완산구 효자동1가 411-25",
    "road_address": "",
    "latitude": 35.8061828356342,
    "longitude": 127.11172133409,
    "phone": "",
    "url": "http://place.map.kakao.com/2122389574",
    "category": "교통,수송 > 교통시설 > 주차장"
  },
  {
    "id": "1794824285",
    "name": "맥도날드 전북정읍DT점 주차장",
    "address": "전북특별자치도 정읍시 수성동 524-17",
    "road_address": "",
    "latitude": 35.5697375918563,
    "longitude": 126.851683828389,
    "phone": "",
    "url": "http://place.map.kakao.com/1794824285",
    "category": "교통,수송 > 교통시설 > 주차장"
  },
  {
    "id": "26320362",
    "name": "맥도날드 여수학동DT점",
    "address": "전남 여수시 학동 82-3",
    "road_address": "전남 여수시 망마로 9",
    "latitude": 34.761019247120714,
    "longitude": 127.6643491874859,
    "phone": "061-922-9200",
    "url": "http://place.map.kakao.com/26320362",
    "category": "음식점 > 패스트푸드 > 맥도날드"
  },
  {
    "id": "26318573",
    "name": "맥도날드 목포하당DT점",
    "address": "전남 목포시 상동 1126-2",
    "road_address": "전남 목포시 통일대로 88",
    "latitude": 34.80071238023557,
    "longitude": 126.43394600938173,
    "phone": "061-982-3500",
    "url": "http://place.map.kakao.com/26318573",
    "category": "음식점 > 패스트푸드 > 맥도날드"
  },
  {
    "id": "21960212",
    "name": "맥도날드 순천덕암DT점",
    "address": "전남 순천시 덕암동 146-32",
    "road_address": "전남 순천시 구암원길 1",
    "latitude": 34.94158414805894,
    "longitude": 127.50895195978657,
    "phone": "061-902-9500",
    "url": "http://place.map.kakao.com/21960212",
    "category": "음식점 > 패스트푸드 > 맥도날드"
  },
  {
    "id": "878263703",
    "name": "맥도날드 광양DT점",
    "address": "전남 광양시 중동 1309-3",
    "road_address": "전남 광양시 동광길 5",
    "latitude": 34.9393055717801,
    "longitude": 127.69972831984641,
    "phone": "061-913-3400",
    "url": "http://place.map.kakao.com/878263703",
    "category": "음식점 > 패스트푸드 > 맥도날드"
  },
  {
    "id": "26318577",
    "name": "맥도날드 순천조례DT점",
    "address": "전남 순천시 조례동 382-1",
    "road_address": "전남 순천시 순광로 75",
    "latitude": 34.95739128792131,
    "longitude": 127.528656226279,
    "phone": "061-901-9200",
    "url": "http://place.map.kakao.com/26318577",
    "category": "음식점 > 패스트푸드 > 맥도날드"
  },
  {
    "id": "400428052",
    "name": "맥도날드 목포남악DT점",
    "address": "전남 무안군 삼향읍 남악리 2148",
    "road_address": "전남 무안군 삼향읍 남악3로 58",
    "latitude": 34.81078770467344,
    "longitude": 126.46062923493527,
    "phone": "061-980-3500",
    "url": "http://place.map.kakao.com/400428052",
    "category": "음식점 > 패스트푸드 > 맥도날드"
  },
  {
    "id": "1040364938",
    "name": "맥도날드 여수미평DT점",
    "address": "전남 여수시 미평동 590-2",
    "road_address": "전남 여수시 좌수영로 387",
    "latitude": 34.7637175197284,
    "longitude": 127.705773452139,
    "phone": "070-7673-2675",
    "url": "http://place.map.kakao.com/1040364938",
    "category": "음식점 > 패스트푸드 > 맥도날드"
  },
  {
    "id": "21487719",
    "name": "맥도날드 목포석현DT점",
    "address": "전남 목포시 석현동 816-85",
    "road_address": "전남 목포시 영산로 577",
    "latitude": 34.817094700896455,
    "longitude": 126.4202350409801,
    "phone": "061-981-7100",
    "url": "http://place.map.kakao.com/21487719",
    "category": "음식점 > 패스트푸드 > 맥도날드"
  },
  {
    "id": "1715384483",
    "name": "맥도날드 목포하당DT점 주차장",
    "address": "전남 목포시 상동 1126-1",
    "road_address": "",
    "latitude": 34.8006342304942,
    "longitude": 126.434004460382,
    "phone": "",
    "url": "http://place.map.kakao.com/1715384483",
    "category": "교통,수송 > 교통시설 > 주차장"
  },
  {
    "id": "2031816551",
    "name": "맥도날드 순천조례DT점 주차장",
    "address": "전남 순천시 조례동 382-1",
    "road_address": "",
    "latitude": 34.9574832119911,
    "longitude": 127.52886702778,
    "phone": "",
    "url": "http://place.map.kakao.com/2031816551",
    "category": "교통,수송 > 교통시설 > 주차장"
  },
  {
    "id": "779474712",
    "name": "맥도날드 광양DT점 주차장",
    "address": "전남 광양시 중동 1309-3",
    "road_address": "",
    "latitude": 34.9392780150346,
    "longitude": 127.699817842638,
    "phone": "",
    "url": "http://place.map.kakao.com/779474712",
    "category": "교통,수송 > 교통시설 > 주차장"
  },
  {
    "id": "1874428340",
    "name": "맥도날드 목포남악DT점 주차장",
    "address": "전남 무안군 삼향읍 남악리 2148",
    "road_address": "",
    "latitude": 34.8106735211189,
    "longitude": 126.46069555318,
    "phone": "",
    "url": "http://place.map.kakao.com/1874428340",
    "category": "교통,수송 > 교통시설 > 주차장"
  },
  {
    "id": "767510526",
    "name": "맥도날드 목포석현DT점 주차장",
    "address": "전남 목포시 석현동 816-85",
    "road_address": "",
    "latitude": 34.817038774083,
    "longitude": 126.420415775347,
    "phone": "",
    "url": "http://place.map.kakao.com/767510526",
    "category": "교통,수송 > 교통시설 > 주차장"
  },
  {
    "id": "734055676",
    "name": "맥도날드 여수학동DT점 주차장",
    "address": "전남 여수시 학동 82-3",
    "road_address": "",
    "latitude": 34.7609753859655,
    "longitude": 127.664458060069,
    "phone": "",
    "url": "http://place.map.kakao.com/734055676",
    "category": "교통,수송 > 교통시설 > 주차장"
  },
  {
    "id": "26357906",
    "name": "맥도날드 경주보문DT점",
    "address": "경북 경주시 신평동 436",
    "road_address": "경북 경주시 보문로 445",
    "latitude": 35.8437848493208,
    "longitude": 129.2881935006104,
    "phone": "054-624-4700",
    "url": "http://place.map.kakao.com/26357906",
    "category": "음식점 > 패스트푸드 > 맥도날드"
  },
  {
    "id": "18603628",
    "name": "맥도날드 경주황남DT점",
    "address": "경북 경주시 노서동 169-5",
    "road_address": "경북 경주시 태종로 701",
    "latitude": 35.83888372666109,
    "longitude": 129.20491994951567,
    "phone": "054-624-4900",
    "url": "http://place.map.kakao.com/18603628",
    "category": "음식점 > 패스트푸드 > 맥도날드"
  },
  {
    "id": "15264518",
    "name": "맥도날드 포항남부DT점",
    "address": "경북 포항시 남구 대잠동 915",
    "road_address": "경북 포항시 남구 새천년대로 470",
    "latitude": 36.01730813789854,
    "longitude": 129.34724913292374,
    "phone": "054-614-6100",
    "url": "http://place.map.kakao.com/15264518",
    "category": "음식점 > 패스트푸드 > 맥도날드"
  },
  {
    "id": "17924584",
    "name": "맥도날드 포항북부DT점",
    "address": "경북 포항시 북구 두호동 711",
    "road_address": "경북 포항시 북구 해안로 85",
    "latitude": 36.056403342948705,
    "longitude": 129.37749038492314,
    "phone": "054-614-2600",
    "url": "http://place.map.kakao.com/17924584",
    "category": "음식점 > 패스트푸드 > 맥도날드"
  },
  {
    "id": "189595420",
    "name": "맥도날드 안동DT점",
    "address": "경북 안동시 옥동 985-10",
    "road_address": "경북 안동시 경북대로 335",
    "latitude": 36.560070246563406,
    "longitude": 128.70344355463243,
    "phone": "054-900-5200",
    "url": "http://place.map.kakao.com/189595420",
    "category": "음식점 > 패스트푸드 > 맥도날드"
  },
  {
    "id": "2027404847",
    "name": "맥도날드 경주용강DT점",
    "address": "경북 경주시 용강동 875",
    "road_address": "경북 경주시 산업로 4364",
    "latitude": 35.869008073647,
    "longitude": 129.225059634608,
    "phone": "054-624-5800",
    "url": "http://place.map.kakao.com/2027404847",
    "category": "음식점 > 패스트푸드 > 맥도날드"
  },
  {
    "id": "22248163",
    "name": "맥도날드 김천평화DT점",
    "address": "경북 김천시 평화동 2-2",
    "road_address": "경북 김천시 자산로 199",
    "latitude": 36.1280807386767,
    "longitude": 128.117732109263,
    "phone": "054-910-6700",
    "url": "http://place.map.kakao.com/22248163",
    "category": "음식점 > 패스트푸드 > 맥도날드"
  },
  {
    "id": "17924561",
    "name": "맥도날드 포항장성DT점",
    "address": "경북 포항시 북구 장성동 1576-5",
    "road_address": "경북 포항시 북구 새천년대로 1261",
    "latitude": 36.07468714954422,
    "longitude": 129.38496188566094,
    "phone": "054-610-3500",
    "url": "http://place.map.kakao.com/17924561",
    "category": "음식점 > 패스트푸드 > 맥도날드"
  },
  {
    "id": "322310951",
    "name": "맥도날드 경산정평DT점",
    "address": "경북 경산시 정평동 147-6",
    "road_address": "경북 경산시 대학로 37",
    "latitude": 35.8346436964874,
    "longitude": 128.727002189846,
    "phone": "053-217-9200",
    "url": "http://place.map.kakao.com/322310951",
    "category": "음식점 > 패스트푸드 > 맥도날드"
  },
  {
    "id": "11256226",
    "name": "맥도날드 구미형곡점",
    "address": "경북 구미시 형곡동 146-9",
    "road_address": "경북 구미시 형곡중앙로 31",
    "latitude": 36.1111101933739,
    "longitude": 128.335613022237,
    "phone": "070-7017-0577",
    "url": "http://place.map.kakao.com/11256226",
    "category": "음식점 > 패스트푸드 > 맥도날드"
  },
  {
    "id": "20750722",
    "name": "맥도날드 구미도량DT점",
    "address": "경북 구미시 도량동 524-3",
    "road_address": "경북 구미시 야은로 447",
    "latitude": 36.13622796490966,
    "longitude": 128.33202600730786,
    "phone": "054-602-6200",
    "url": "http://place.map.kakao.com/20750722",
    "category": "음식점 > 패스트푸드 > 맥도날드"
  },
  {
    "id": "27097139",
    "name": "맥도날드 구미인동DT점",
    "address": "경북 구미시 인의동 1004-1",
    "road_address": "경북 구미시 인동북길 155",
    "latitude": 36.095299367773386,
    "longitude": 128.43153895883094,
    "phone": "054-602-6300",
    "url": "http://place.map.kakao.com/27097139",
    "category": "음식점 > 패스트푸드 > 맥도날드"
  },
  {
    "id": "371739518",
    "name": "맥도날드 구미옥계DT점",
    "address": "경북 구미시 옥계동 362-1",
    "road_address": "경북 구미시 옥계2공단로 390",
    "latitude": 36.14039362652168,
    "longitude": 128.41821536049466,
    "phone": "054-602-2300",
    "url": "http://place.map.kakao.com/371739518",
    "category": "음식점 > 패스트푸드 > 맥도날드"
  },
  {
    "id": "1901591277",
    "name": "맥도날드 영천DT점",
    "address": "경북 영천시 망정동 206-9",
    "road_address": "경북 영천시 호국로 141",
    "latitude": 35.97627992115066,
    "longitude": 128.9526445770487,
    "phone": "054-927-2100",
    "url": "http://place.map.kakao.com/1901591277",
    "category": "음식점 > 패스트푸드 > 맥도날드"
  },
  {
    "id": "8357992",
    "name": "맥도날드 포항2점",
    "address": "경북 포항시 북구 상원동 466-1",
    "road_address": "경북 포항시 북구 중앙로 291",
    "latitude": 36.0389492262444,
    "longitude": 129.365800876913,
    "phone": "054-610-3900",
    "url": "http://place.map.kakao.com/8357992",
    "category": "음식점 > 패스트푸드 > 맥도날드"
  },
  {
    "id": "8357993",
    "name": "맥도날드 이마트포항점",
    "address": "경북 포항시 남구 인덕동 161-176",
    "road_address": "경북 포항시 남구 냉천로 10",
    "latitude": 35.9918360696895,
    "longitude": 129.398375807694,
    "phone": "054-610-1600",
    "url": "http://place.map.kakao.com/8357993",
    "category": "음식점 > 패스트푸드 > 맥도날드"
  },
  {
    "id": "1650564328",
    "name": "맥도날드 포항북부DT점 주차장",
    "address": "경북 포항시 북구 두호동 711",
    "road_address": "경북 포항시 북구 해안로 85",
    "latitude": 36.0563024250926,
    "longitude": 129.377536169627,
    "phone": "",
    "url": "http://place.map.kakao.com/1650564328",
    "category": "교통,수송 > 교통시설 > 주차장"
  },
  {
    "id": "1638345296",
    "name": "맥도날드 경주황남DT점 주차장",
    "address": "경북 경주시 노서동 169-4",
    "road_address": "",
    "latitude": 35.8389130820864,
    "longitude": 129.205087856962,
    "phone": "",
    "url": "http://place.map.kakao.com/1638345296",
    "category": "교통,수송 > 교통시설 > 주차장"
  },
  {
    "id": "1017419733",
    "name": "맥도날드 김천평화DT점 주차장",
    "address": "경북 김천시 평화동 2-2",
    "road_address": "",
    "latitude": 36.1279535561806,
    "longitude": 128.117841388484,
    "phone": "",
    "url": "http://place.map.kakao.com/1017419733",
    "category": "교통,수송 > 교통시설 > 주차장"
  },
  {
    "id": "970101768",
    "name": "맥도날드 포항남부DT점 주차장",
    "address": "경북 포항시 남구 대잠동 915",
    "road_address": "경북 포항시 남구 새천년대로 470",
    "latitude": 36.0172866133688,
    "longitude": 129.347244058119,
    "phone": "",
    "url": "http://place.map.kakao.com/970101768",
    "category": "교통,수송 > 교통시설 > 주차장"
  },
  {
    "id": "2074192600",
    "name": "맥도날드 경주보문DT점 주차장",
    "address": "경북 경주시 신평동 436",
    "road_address": "경북 경주시 보문로 445",
    "latitude": 35.84389685183275,
    "longitude": 129.28836824804245,
    "phone": "",
    "url": "http://place.map.kakao.com/2074192600",
    "category": "교통,수송 > 교통시설 > 주차장"
  },
  {
    "id": "231468810",
    "name": "맥도날드 구미도량DT점 주차장",
    "address": "경북 구미시 도량동 524-3",
    "road_address": "",
    "latitude": 36.1362226225264,
    "longitude": 128.33185816875,
    "phone": "",
    "url": "http://place.map.kakao.com/231468810",
    "category": "교통,수송 > 교통시설 > 주차장"
  },
  {
    "id": "971898474",
    "name": "맥도날드 경주용강DT점 주차장",
    "address": "경북 경주시 용강동 875",
    "road_address": "",
    "latitude": 35.86899772085,
    "longitude": 129.224937574847,
    "phone": "",
    "url": "http://place.map.kakao.com/971898474",
    "category": "교통,수송 > 교통시설 > 주차장"
  },
  {
    "id": "696776511",
    "name": "맥도날드 구미인동DT 주차장",
    "address": "경북 구미시 인의동 1004-6",
    "road_address": "",
    "latitude": 36.0952598149394,
    "longitude": 128.43183247717903,
    "phone": "",
    "url": "http://place.map.kakao.com/696776511",
    "category": "교통,수송 > 교통시설 > 주차장"
  },
  {
    "id": "665209046",
    "name": "맥도날드 영천DT점 주차장",
    "address": "경북 영천시 망정동 206-11",
    "road_address": "",
    "latitude": 35.9762853215037,
    "longitude": 128.952810994244,
    "phone": "",
    "url": "http://place.map.kakao.com/665209046",
    "category": "교통,수송 > 교통시설 > 주차장"
  },
  {
    "id": "807199025",
    "name": "맥도날드 포항장성DT점 주차장",
    "address": "경북 포항시 북구 장성동 1576-6",
    "road_address": "",
    "latitude": 36.0747502605777,
    "longitude": 129.385231264977,
    "phone": "",
    "url": "http://place.map.kakao.com/807199025",
    "category": "교통,수송 > 교통시설 > 주차장"
  },
  {
    "id": "1257017502",
    "name": "맥도날드 구미옥계DT점 주차장",
    "address": "경북 구미시 옥계동 362-1",
    "road_address": "",
    "latitude": 36.1401752516112,
    "longitude": 128.418164769228,
    "phone": "",
    "url": "http://place.map.kakao.com/1257017502",
    "category": "교통,수송 > 교통시설 > 주차장"
  },
  {
    "id": "901393489",
    "name": "맥도날드 구미형곡점 주차장",
    "address": "경북 구미시 형곡동 146-9",
    "road_address": "경북 구미시 형곡중앙로 31",
    "latitude": 36.1110436862681,
    "longitude": 128.335839560818,
    "phone": "",
    "url": "http://place.map.kakao.com/901393489",
    "category": "교통,수송 > 교통시설 > 주차장"
  },
  {
    "id": "24811495",
    "name": "맥도날드 창원사파DT점",
    "address": "경남 창원시 성산구 사파동 97-4",
    "road_address": "경남 창원시 성산구 창이대로706번길 2",
    "latitude": 35.2218375008099,
    "longitude": 128.700356307732,
    "phone": "055-601-1800",
    "url": "http://place.map.kakao.com/24811495",
    "category": "음식점 > 패스트푸드 > 맥도날드"
  },
  {
    "id": "7862106",
    "name": "맥도날드 양산DT점",
    "address": "경남 양산시 동면 석산리 1421-9",
    "road_address": "경남 양산시 동면 남양산길 7",
    "latitude": 35.32802590887138,
    "longitude": 129.03343842851467,
    "phone": "055-913-2500",
    "url": "http://place.map.kakao.com/7862106",
    "category": "음식점 > 패스트푸드 > 맥도날드"
  },
  {
    "id": "382433640",
    "name": "맥도날드 김해장유DT점",
    "address": "경남 김해시 대청동 316-1",
    "road_address": "경남 김해시 삼문로 34",
    "latitude": 35.1927831248356,
    "longitude": 128.804396646226,
    "phone": "055-903-2800",
    "url": "http://place.map.kakao.com/382433640",
    "category": "음식점 > 패스트푸드 > 맥도날드"
  },
  {
    "id": "15228665",
    "name": "맥도날드 김해삼정DT점",
    "address": "경남 김해시 삼정동 616-3",
    "road_address": "경남 김해시 김해대로 2471",
    "latitude": 35.22809356637,
    "longitude": 128.896938723093,
    "phone": "055-904-3700",
    "url": "http://place.map.kakao.com/15228665",
    "category": "음식점 > 패스트푸드 > 맥도날드"
  },
  {
    "id": "20110249",
    "name": "맥도날드 창원역DT점",
    "address": "경남 창원시 의창구 팔용동 149-5",
    "road_address": "경남 창원시 의창구 의창대로 50",
    "latitude": 35.25592383558077,
    "longitude": 128.60674928494393,
    "phone": "055-601-3700",
    "url": "http://place.map.kakao.com/20110249",
    "category": "음식점 > 패스트푸드 > 맥도날드"
  },
  {
    "id": "18515035",
    "name": "맥도날드 창원상남점",
    "address": "경남 창원시 성산구 상남동 35-1",
    "road_address": "경남 창원시 성산구 단정로 22",
    "latitude": 35.2199685526843,
    "longitude": 128.682934720316,
    "phone": "055-601-1700",
    "url": "http://place.map.kakao.com/18515035",
    "category": "음식점 > 패스트푸드 > 맥도날드"
  },
  {
    "id": "16024839",
    "name": "맥도날드 마산신포DT점",
    "address": "경남 창원시 마산합포구 신포동1가 25-1",
    "road_address": "경남 창원시 마산합포구 서성로 8",
    "latitude": 35.197984947776,
    "longitude": 128.570601570171,
    "phone": "055-602-7500",
    "url": "http://place.map.kakao.com/16024839",
    "category": "음식점 > 패스트푸드 > 맥도날드"
  },
  {
    "id": "25006239",
    "name": "맥도날드 진해자은DT",
    "address": "경남 창원시 진해구 자은동 808-2",
    "road_address": "경남 창원시 진해구 진해대로 950",
    "latitude": 35.14498620672838,
    "longitude": 128.70680173939388,
    "phone": "055-601-5100",
    "url": "http://place.map.kakao.com/25006239",
    "category": "음식점 > 패스트푸드 > 맥도날드"
  },
  {
    "id": "24999678",
    "name": "맥도날드 진주칠암DT점",
    "address": "경남 진주시 주약동 94-1",
    "road_address": "경남 진주시 진주대로 838",
    "latitude": 35.17546737089349,
    "longitude": 128.09314652937965,
    "phone": "055-920-9700",
    "url": "http://place.map.kakao.com/24999678",
    "category": "음식점 > 패스트푸드 > 맥도날드"
  },
  {
    "id": "18603499",
    "name": "맥도날드 김해삼계DT점",
    "address": "경남 김해시 삼계동 1460-5",
    "road_address": "경남 김해시 가야로 167",
    "latitude": 35.2626901166141,
    "longitude": 128.872051622858,
    "phone": "070-7017-6782",
    "url": "http://place.map.kakao.com/18603499",
    "category": "음식점 > 패스트푸드 > 맥도날드"
  },
  {
    "id": "464362995",
    "name": "맥도날드 마산석전DT점",
    "address": "경남 창원시 마산회원구 석전동 261-14",
    "road_address": "경남 창원시 마산회원구 3.15대로 601",
    "latitude": 35.2276833586861,
    "longitude": 128.573866941525,
    "phone": "055-604-2800",
    "url": "http://place.map.kakao.com/464362995",
    "category": "음식점 > 패스트푸드 > 맥도날드"
  },
  {
    "id": "26994102",
    "name": "맥도날드 양산북정DT점",
    "address": "경남 양산시 신기동 545-7",
    "road_address": "경남 양산시 양산대로 925",
    "latitude": 35.352971996588465,
    "longitude": 129.03757261171472,
    "phone": "055-912-3400",
    "url": "http://place.map.kakao.com/26994102",
    "category": "음식점 > 패스트푸드 > 맥도날드"
  },
  {
    "id": "26319946",
    "name": "맥도날드 김해외동DT점",
    "address": "경남 김해시 외동 238-3",
    "road_address": "경남 김해시 분성로 144",
    "latitude": 35.2295480973758,
    "longitude": 128.862476889055,
    "phone": "055-902-2800",
    "url": "http://place.map.kakao.com/26319946",
    "category": "음식점 > 패스트푸드 > 맥도날드"
  },
  {
    "id": "27600277",
    "name": "맥도날드 밀양DT점",
    "address": "경남 밀양시 삼문동 397",
    "road_address": "경남 밀양시 밀양대로 1872",
    "latitude": 35.4911559971648,
    "longitude": 128.745972006512,
    "phone": "055-927-5000",
    "url": "http://place.map.kakao.com/27600277",
    "category": "음식점 > 패스트푸드 > 맥도날드"
  },
  {
    "id": "617925877",
    "name": "맥도날드 양산물금DT점",
    "address": "경남 양산시 물금읍 범어리 772-12",
    "road_address": "경남 양산시 물금읍 황산로 651",
    "latitude": 35.3294993359727,
    "longitude": 129.004577032269,
    "phone": "055-910-1100",
    "url": "http://place.map.kakao.com/617925877",
    "category": "음식점 > 패스트푸드 > 맥도날드"
  },
  {
    "id": "955399704",
    "name": "맥도날드 진주가좌DT점",
    "address": "경남 진주시 가좌동 644-3",
    "road_address": "경남 진주시 진주대로 612",
    "latitude": 35.1614951178098,
    "longitude": 128.10716808488428,
    "phone": "055-920-4900",
    "url": "http://place.map.kakao.com/955399704",
    "category": "음식점 > 패스트푸드 > 맥도날드"
  },
  {
    "id": "1916039865",
    "name": "맥도날드 진해용원DT점",
    "address": "경남 창원시 진해구 용원동 1213-19",
    "road_address": "경남 창원시 진해구 용원로7번길 10",
    "latitude": 35.1011277406221,
    "longitude": 128.810598517325,
    "phone": "055-601-8400",
    "url": "http://place.map.kakao.com/1916039865",
    "category": "음식점 > 패스트푸드 > 맥도날드"
  },
  {
    "id": "2032776799",
    "name": "맥도날드 진주혁신GSDT점",
    "address": "경남 진주시 충무공동 222-1",
    "road_address": "경남 진주시 동진로 581",
    "latitude": 35.1792737641277,
    "longitude": 128.154510702717,
    "phone": "055-920-7600",
    "url": "http://place.map.kakao.com/2032776799",
    "category": "음식점 > 패스트푸드 > 맥도날드"
  },
  {
    "id": "7862377",
    "name": "맥도날드 진주신안점",
    "address": "경남 진주시 신안동 582-3",
    "road_address": "경남 진주시 진양호로 280",
    "latitude": 35.1783804521138,
    "longitude": 128.064298136144,
    "phone": "055-921-8600",
    "url": "http://place.map.kakao.com/7862377",
    "category": "음식점 > 패스트푸드 > 맥도날드"
  },
  {
    "id": "7861127",
    "name": "맥도날드 신마산점",
    "address": "경남 창원시 마산합포구 해운동 5-119",
    "road_address": "경남 창원시 마산합포구 월영동서로 20",
    "latitude": 35.180047989932454,
    "longitude": 128.56031995364344,
    "phone": "055-601-6900",
    "url": "http://place.map.kakao.com/7861127",
    "category": "음식점 > 패스트푸드 > 맥도날드"
  },
  {
    "id": "18656708",
    "name": "맥도날드 사천DT점",
    "address": "경남 사천시 사천읍 수석리 320-11",
    "road_address": "경남 사천시 사천읍 사천대로 1838",
    "latitude": 35.08078052354274,
    "longitude": 128.08349294645703,
    "phone": "055-957-2500",
    "url": "http://place.map.kakao.com/18656708",
    "category": "음식점 > 패스트푸드 > 맥도날드"
  },
  {
    "id": "21518718",
    "name": "맥도날드 옥포SK DT점",
    "address": "경남 거제시 옥포동 551-1",
    "road_address": "경남 거제시 거제대로 3714",
    "latitude": 34.888730500877,
    "longitude": 128.691704459596,
    "phone": "055-950-1400",
    "url": "http://place.map.kakao.com/21518718",
    "category": "음식점 > 패스트푸드 > 맥도날드"
  },
  {
    "id": "27204361",
    "name": "맥도날드 창원시티세븐점",
    "address": "경남 창원시 성산구 대원동 121",
    "road_address": "경남 창원시 성산구 원이대로 320",
    "latitude": 35.24047402235671,
    "longitude": 128.6536472399686,
    "phone": "055-602-3800",
    "url": "http://place.map.kakao.com/27204361",
    "category": "음식점 > 패스트푸드 > 맥도날드"
  },
  {
    "id": "24999694",
    "name": "맥도날드 웅상DT점",
    "address": "경남 양산시 삼호동 1016-9",
    "road_address": "경남 양산시 웅상대로 1259",
    "latitude": 35.410521795482275,
    "longitude": 129.16476184639168,
    "phone": "055-913-1800",
    "url": "http://place.map.kakao.com/24999694",
    "category": "음식점 > 패스트푸드 > 맥도날드"
  },
  {
    "id": "26318574",
    "name": "맥도날드 창원내서DT점",
    "address": "경남 창원시 마산회원구 내서읍 중리 1043-8",
    "road_address": "경남 창원시 마산회원구 내서읍 광려천서로 77",
    "latitude": 35.248458064447924,
    "longitude": 128.5103391532563,
    "phone": "055-601-1300",
    "url": "http://place.map.kakao.com/26318574",
    "category": "음식점 > 패스트푸드 > 맥도날드"
  },
  {
    "id": "22269420",
    "name": "맥도날드 통영죽림DT점",
    "address": "경남 통영시 광도면 죽림리 1569-1",
    "road_address": "경남 통영시 광도면 죽림4로 36",
    "latitude": 34.88422564890384,
    "longitude": 128.4176302912916,
    "phone": "055-990-9900",
    "url": "http://place.map.kakao.com/22269420",
    "category": "음식점 > 패스트푸드 > 맥도날드"
  },
  {
    "id": "7862272",
    "name": "맥도날드 진해점",
    "address": "경남 창원시 진해구 화천동 48-15",
    "road_address": "경남 창원시 진해구 벚꽃로 68-1",
    "latitude": 35.1514114863965,
    "longitude": 128.663560918871,
    "phone": "055-601-7300",
    "url": "http://place.map.kakao.com/7862272",
    "category": "음식점 > 패스트푸드 > 맥도날드"
  },
  {
    "id": "26558198",
    "name": "맥도날드 양산덕계DT점",
    "address": "경남 양산시 평산동 16-6",
    "road_address": "경남 양산시 웅상대로 910",
    "latitude": 35.3806095329837,
    "longitude": 129.155333668648,
    "phone": "055-912-4200",
    "url": "http://place.map.kakao.com/26558198",
    "category": "음식점 > 패스트푸드 > 맥도날드"
  },
  {
    "id": "13050159",
    "name": "맥도날드 거제점",
    "address": "경남 거제시 장평동 1211",
    "road_address": "경남 거제시 장평로 12",
    "latitude": 34.89080305656224,
    "longitude": 128.61650622262363,
    "phone": "055-950-2300",
    "url": "http://place.map.kakao.com/13050159",
    "category": "음식점 > 패스트푸드 > 맥도날드"
  },
  {
    "id": "1185067825",
    "name": "맥도날드 창원역DT점 주차장",
    "address": "경남 창원시 의창구 팔용동 149-4",
    "road_address": "",
    "latitude": 35.255847689088,
    "longitude": 128.606714820289,
    "phone": "",
    "url": "http://place.map.kakao.com/1185067825",
    "category": "교통,수송 > 교통시설 > 주차장"
  },
  {
    "id": "220018550",
    "name": "맥도날드 김해삼정DT점 주차장",
    "address": "경남 김해시 삼정동 616-3",
    "road_address": "경남 김해시 김해대로 2471",
    "latitude": 35.2281190543388,
    "longitude": 128.896979953134,
    "phone": "",
    "url": "http://place.map.kakao.com/220018550",
    "category": "교통,수송 > 교통시설 > 주차장"
  },
  {
    "id": "1139343918",
    "name": "맥도날드 진주칠암DT점 주차장",
    "address": "경남 진주시 주약동 97-5",
    "road_address": "",
    "latitude": 35.1753369852135,
    "longitude": 128.093112950169,
    "phone": "",
    "url": "http://place.map.kakao.com/1139343918",
    "category": "교통,수송 > 교통시설 > 주차장"
  },
  {
    "id": "1941929439",
    "name": "맥도날드 김해장유DT점 주차장",
    "address": "경남 김해시 대청동 316-1",
    "road_address": "",
    "latitude": 35.1926483990565,
    "longitude": 128.804426601258,
    "phone": "",
    "url": "http://place.map.kakao.com/1941929439",
    "category": "교통,수송 > 교통시설 > 주차장"
  },
  {
    "id": "342028834",
    "name": "맥도날드 양산물금DT점 주차장",
    "address": "경남 양산시 물금읍 범어리 772-12",
    "road_address": "경남 양산시 물금읍 황산로 651",
    "latitude": 35.3293791348525,
    "longitude": 129.004761001114,
    "phone": "",
    "url": "http://place.map.kakao.com/342028834",
    "category": "교통,수송 > 교통시설 > 주차장"
  },
  {
    "id": "1064623270",
    "name": "맥도날드 창원사파DT점 주차장",
    "address": "경남 창원시 성산구 사파동 97-5",
    "road_address": "",
    "latitude": 35.2217471587714,
    "longitude": 128.700371994686,
    "phone": "",
    "url": "http://place.map.kakao.com/1064623270",
    "category": "교통,수송 > 교통시설 > 주차장"
  },
  {
    "id": "696419049",
    "name": "맥도날드 마산신포DT점 주차장",
    "address": "경남 창원시 마산합포구 신포동1가 25-1",
    "road_address": "",
    "latitude": 35.197800937581,
    "longitude": 128.570544228125,
    "phone": "",
    "url": "http://place.map.kakao.com/696419049",
    "category": "교통,수송 > 교통시설 > 주차장"
  },
  {
    "id": "1142629339",
    "name": "맥도날드 양산북정DT점 주차장",
    "address": "경남 양산시 신기동 545-7",
    "road_address": "",
    "latitude": 35.35317442819246,
    "longitude": 129.03732471008846,
    "phone": "",
    "url": "http://place.map.kakao.com/1142629339",
    "category": "교통,수송 > 교통시설 > 주차장"
  },
  {
    "id": "1007369876",
    "name": "맥도날드 진주혁신GS DT점 주차장",
    "address": "경남 진주시 충무공동 222-1",
    "road_address": "경남 진주시 동진로 581",
    "latitude": 35.1794596360035,
    "longitude": 128.154489180563,
    "phone": "",
    "url": "http://place.map.kakao.com/1007369876",
    "category": "교통,수송 > 교통시설 > 주차장"
  },
  {
    "id": "1323435805",
    "name": "맥도날드 양산DT점 주차장",
    "address": "경남 양산시 동면 석산리 1421-9",
    "road_address": "경남 양산시 동면 남양산길 7",
    "latitude": 35.32814208365463,
    "longitude": 129.03349631950948,
    "phone": "",
    "url": "http://place.map.kakao.com/1323435805",
    "category": "교통,수송 > 교통시설 > 주차장"
  },
  {
    "id": "484080071",
    "name": "맥도날드 진주가좌DT점 주차장",
    "address": "경남 진주시 가좌동 644-5",
    "road_address": "",
    "latitude": 35.1614248779147,
    "longitude": 128.106964091288,
    "phone": "",
    "url": "http://place.map.kakao.com/484080071",
    "category": "교통,수송 > 교통시설 > 주차장"
  },
  {
    "id": "1069255334",
    "name": "맥도날드 진해용원DT점 주차장",
    "address": "경남 창원시 진해구 용원동 1213-19",
    "road_address": "",
    "latitude": 35.1011547192104,
    "longitude": 128.810662716645,
    "phone": "",
    "url": "http://place.map.kakao.com/1069255334",
    "category": "교통,수송 > 교통시설 > 주차장"
  },
  {
    "id": "1511211883",
    "name": "맥도날드 웅상DT점 주차장",
    "address": "경남 양산시 삼호동 1016-9",
    "road_address": "",
    "latitude": 35.4107041594671,
    "longitude": 129.164793142211,
    "phone": "",
    "url": "http://place.map.kakao.com/1511211883",
    "category": "교통,수송 > 교통시설 > 주차장"
  },
  {
    "id": "742104377",
    "name": "맥도날드 진해자은DT 주차장",
    "address": "경남 창원시 진해구 자은동 808-2",
    "road_address": "경남 창원시 진해구 진해대로 950",
    "latitude": 35.1446931517902,
    "longitude": 128.70687681239,
    "phone": "",
    "url": "http://place.map.kakao.com/742104377",
    "category": "교통,수송 > 교통시설 > 주차장"
  },
  {
    "id": "1253658018",
    "name": "맥도날드 밀양DT점 주차장",
    "address": "경남 밀양시 삼문동 397",
    "road_address": "",
    "latitude": 35.4910044324282,
    "longitude": 128.746170372228,
    "phone": "",
    "url": "http://place.map.kakao.com/1253658018",
    "category": "교통,수송 > 교통시설 > 주차장"
  },
  {
    "id": "1845613223",
    "name": "맥도날드 사천DT점 주차장",
    "address": "경남 사천시 사천읍 수석리 320-11",
    "road_address": "경남 사천시 사천읍 사천대로 1838",
    "latitude": 35.0808110863078,
    "longitude": 128.083502122142,
    "phone": "",
    "url": "http://place.map.kakao.com/1845613223",
    "category": "교통,수송 > 교통시설 > 주차장"
  },
  {
    "id": "17593004",
    "name": "맥도날드 제주시청DT점",
    "address": "제주특별자치도 제주시 이도이동 1057-2",
    "road_address": "제주특별자치도 제주시 중앙로 277",
    "latitude": 33.49564757301492,
    "longitude": 126.53310748990975,
    "phone": "064-901-3900",
    "url": "http://place.map.kakao.com/17593004",
    "category": "음식점 > 패스트푸드 > 맥도날드"
  },
  {
    "id": "26781633",
    "name": "맥도날드 제주공항DT점",
    "address": "제주특별자치도 제주시 용담이동 1787",
    "road_address": "제주특별자치도 제주시 도령로 159",
    "latitude": 33.49503922565894,
    "longitude": 126.49257450526439,
    "phone": "064-901-2800",
    "url": "http://place.map.kakao.com/26781633",
    "category": "음식점 > 패스트푸드 > 맥도날드"
  },
  {
    "id": "772452159",
    "name": "맥도날드 제주중문DT점",
    "address": "제주특별자치도 서귀포시 색달동 2558-1",
    "road_address": "제주특별자치도 서귀포시 중문관광로 38",
    "latitude": 33.2548296416294,
    "longitude": 126.41376387302635,
    "phone": "064-900-3100",
    "url": "http://place.map.kakao.com/772452159",
    "category": "음식점 > 패스트푸드 > 맥도날드"
  },
  {
    "id": "10347171",
    "name": "맥도날드 탑동점",
    "address": "제주특별자치도 제주시 건입동 1442",
    "road_address": "제주특별자치도 제주시 임항로 17",
    "latitude": 33.51669691341759,
    "longitude": 126.5266611576094,
    "phone": "064-901-1600",
    "url": "http://place.map.kakao.com/10347171",
    "category": "음식점 > 패스트푸드 > 맥도날드"
  },
  {
    "id": "11892780",
    "name": "맥도날드 제주노형DT점",
    "address": "제주특별자치도 제주시 노형동 903-5",
    "road_address": "제주특별자치도 제주시 노연로 7",
    "latitude": 33.4863393944831,
    "longitude": 126.480731372056,
    "phone": "064-901-7200",
    "url": "http://place.map.kakao.com/11892780",
    "category": "음식점 > 패스트푸드 > 맥도날드"
  },
  {
    "id": "868755337",
    "name": "맥도날드 제주외도DT점",
    "address": "제주특별자치도 제주시 외도이동 345-1",
    "road_address": "제주특별자치도 제주시 일주서로 7339",
    "latitude": 33.4933904434179,
    "longitude": 126.431174191634,
    "phone": "064-901-9200",
    "url": "http://place.map.kakao.com/868755337",
    "category": "음식점 > 패스트푸드 > 맥도날드"
  },
  {
    "id": "19762619",
    "name": "맥도날드 제주서귀포DT점",
    "address": "제주특별자치도 서귀포시 서귀동 284-29",
    "road_address": "제주특별자치도 서귀포시 일주동로 8665",
    "latitude": 33.2532713838143,
    "longitude": 126.562683781373,
    "phone": "064-901-2400",
    "url": "http://place.map.kakao.com/19762619",
    "category": "음식점 > 패스트푸드 > 맥도날드"
  },
  {
    "id": "25969934",
    "name": "맥도날드 제주일도DT점",
    "address": "제주특별자치도 제주시 일도이동 369-11",
    "road_address": "제주특별자치도 제주시 동광로 134",
    "latitude": 33.507577402909135,
    "longitude": 126.54105930902068,
    "phone": "064-901-2900",
    "url": "http://place.map.kakao.com/25969934",
    "category": "음식점 > 패스트푸드 > 맥도날드"
  },
  {
    "id": "26785641",
    "name": "맥도날드 제주월드컵스타디움DT점",
    "address": "제주특별자치도 서귀포시 강정동 231-1",
    "road_address": "제주특별자치도 서귀포시 일주서로 7",
    "latitude": 33.2493741309339,
    "longitude": 126.50735001074776,
    "phone": "064-901-2700",
    "url": "http://place.map.kakao.com/26785641",
    "category": "음식점 > 패스트푸드 > 맥도날드"
  },
  {
    "id": "1367658824",
    "name": "맥도날드 제주도남DT점",
    "address": "제주특별자치도 제주시 도남동 419",
    "road_address": "제주특별자치도 제주시 연북로 434",
    "latitude": 33.4802095874374,
    "longitude": 126.527875347874,
    "phone": "064-901-7600",
    "url": "http://place.map.kakao.com/1367658824",
    "category": "음식점 > 패스트푸드 > 맥도날드"
  },
  {
    "id": "652282743",
    "name": "맥도날드 제주서귀포DT점 주차장",
    "address": "제주특별자치도 서귀포시 서귀동 284-29",
    "road_address": "",
    "latitude": 33.2531943050571,
    "longitude": 126.562558610622,
    "phone": "",
    "url": "http://place.map.kakao.com/652282743",
    "category": "교통,수송 > 교통시설 > 주차장"
  },
  {
    "id": "696147475",
    "name": "맥도날드 제주중문DT점 주차장",
    "address": "제주특별자치도 서귀포시 색달동 2558-1",
    "road_address": "제주특별자치도 서귀포시 중문관광로 38",
    "latitude": 33.2547360136011,
    "longitude": 126.413602456266,
    "phone": "",
    "url": "http://place.map.kakao.com/696147475",
    "category": "교통,수송 > 교통시설 > 주차장"
  },
  {
    "id": "1362656376",
    "name": "맥도날드 제주노형DT점 주차장",
    "address": "제주특별자치도 제주시 노형동 903-6",
    "road_address": "",
    "latitude": 33.4863180316009,
    "longitude": 126.48101232992,
    "phone": "",
    "url": "http://place.map.kakao.com/1362656376",
    "category": "교통,수송 > 교통시설 > 주차장"
  },
  {
    "id": "901575617",
    "name": "맥도날드 제주월드컵스타디움DT점 주차장",
    "address": "제주특별자치도 서귀포시 강정동 231-1",
    "road_address": "",
    "latitude": 33.2494380772901,
    "longitude": 126.507104992475,
    "phone": "",
    "url": "http://place.map.kakao.com/901575617",
    "category": "교통,수송 > 교통시설 > 주차장"
  },
  {
    "id": "723038413",
    "name": "맥도날드 제주일도DT점 주차장",
    "address": "제주특별자치도 제주시 일도이동 369-11",
    "road_address": "",
    "latitude": 33.5075194270454,
    "longitude": 126.540985354177,
    "phone": "",
    "url": "http://place.map.kakao.com/723038413",
    "category": "교통,수송 > 교통시설 > 주차장"
  },
  {
    "id": "1363021981",
    "name": "맥도날드 제주시청DT점 주차장",
    "address": "제주특별자치도 제주시 이도이동 1057-4",
    "road_address": "",
    "latitude": 33.4956623895753,
    "longitude": 126.533450685443,
    "phone": "",
    "url": "http://place.map.kakao.com/1363021981",
    "category": "교통,수송 > 교통시설 > 주차장"
  },
  {
    "id": "2143791069",
    "name": "맥도날드 외도DT점 전기차충전소",
    "address": "제주특별자치도 제주시 외도이동 345-1",
    "road_address": "제주특별자치도 제주시 일주서로 7339",
    "latitude": 33.4933904434179,
    "longitude": 126.431174191634,
    "phone": "",
    "url": "http://place.map.kakao.com/2143791069",
    "category": "교통,수송 > 자동차 > 전기차 충전소"
  },
  {
    "id": "476842350",
    "name": "맥도날드 제주공항DT점 전기차충전소",
    "address": "제주특별자치도 제주시 용담이동 1787",
    "road_address": "제주특별자치도 제주시 도령로 159",
    "latitude": 33.495033741257366,
    "longitude": 126.49255624378071,
    "phone": "",
    "url": "http://place.map.kakao.com/476842350",
    "category": "교통,수송 > 자동차 > 전기차 충전소"
  }
]