[
  {
    "id": "7887812",
    "name": "버거킹 신논현역점",
    "address": "서울 강남구 논현동 200-6",
    "road_address": "서울 강남구 봉은사로 105",
    "lat": 37.50490670816603,
    "lng": 127.02507134769647,
    "phone": "070-7438-6564",
    "url": "http://place.map.kakao.com/7887812",
    "category": "음식점 > 패스트푸드 > 버거킹"
  },
  {
    "id": "20373593",
    "name": "버거킹 종로점",
    "address": "서울 종로구 종로2가 56-23",
    "road_address": "서울 종로구 종로 94",
    "lat": 37.569935767942724,
    "lng": 126.9880794053405,
    "phone": "02-2285-4838",
    "url": "http://place.map.kakao.com/20373593",
    "category": "음식점 > 패스트푸드 > 버거킹"
  },
  {
    "id": "12119409",
    "name": "버거킹 강남대로점",
    "address": "서울 강남구 역삼동 820-10",
    "road_address": "서울 강남구 강남대로 406",
    "lat": 37.498878432916044,
    "lng": 127.02752560187551,
    "phone": "02-566-0332",
    "url": "http://place.map.kakao.com/12119409",
    "category": "음식점 > 패스트푸드 > 버거킹"
  },
  {
    "id": "11060950",
    "name": "버거킹 종로구청점",
    "address": "서울 종로구 수송동 68-1",
    "road_address": "서울 종로구 삼봉로 57",
    "lat": 37.57251701390905,
    "lng": 126.9805138925224,
    "phone": "02-722-0238",
    "url": "http://place.map.kakao.com/11060950",
    "category": "음식점 > 패스트푸드 > 버거킹"
  },
  {
    "id": "723372106",
    "name": "버거킹 서교동사거리점",
    "address": "서울 마포구 서교동 372-1",
    "road_address": "서울 마포구 양화로 100",
    "lat": 37.5526578058316,
    "lng": 126.918568020291,
    "phone": "02-322-3199",
    "url": "http://place.map.kakao.com/723372106",
    "category": "음식점 > 패스트푸드 > 버거킹"
  },
  {
    "id": "18474012",
    "name": "버거킹 선릉역점",
    "address": "서울 강남구 역삼동 708-36",
    "road_address": "서울 강남구 선릉로 429",
    "lat": 37.5032078731535,
    "lng": 127.04934989684385,
    "phone": "02-3452-0377",
    "url": "http://place.map.kakao.com/18474012",
    "category": "음식점 > 패스트푸드 > 버거킹"
  },
  {
    "id": "18730961",
    "name": "버거킹 구로점",
    "address": "서울 구로구 구로동 1126-6",
    "road_address": "서울 구로구 시흥대로 551",
    "lat": 37.48243970002496,
    "lng": 126.90061411276082,
    "phone": "070-7462-8527",
    "url": "http://place.map.kakao.com/18730961",
    "category": "음식점 > 패스트푸드 > 버거킹"
  },
  {
    "id": "1665147495",
    "name": "버거킹 길동사거리점",
    "address": "서울 강동구 길동 429",
    "road_address": "서울 강동구 양재대로 1440",
    "lat": 37.5343317065055,
    "lng": 127.139091528292,
    "phone": "02-471-0332",
    "url": "http://place.map.kakao.com/1665147495",
    "category": "음식점 > 패스트푸드 > 버거킹"
  },
  {
    "id": "25807757",
    "name": "버거킹 사당역점",
    "address": "서울 동작구 사당동 1031-27",
    "road_address": "서울 동작구 동작대로 21",
    "lat": 37.4784993779938,
    "lng": 126.981399827455,
    "phone": "02-583-0332",
    "url": "http://place.map.kakao.com/25807757",
    "category": "음식점 > 패스트푸드 > 버거킹"
  },
  {
    "id": "1367642598",
    "name": "버거킹 석관점",
    "address": "서울 성북구 석관동 301-1",
    "road_address": "서울 성북구 돌곶이로 50",
    "lat": 37.6085648902672,
    "lng": 127.059594143753,
    "phone": "070-5138-3074",
    "url": "http://place.map.kakao.com/1367642598",
    "category": "음식점 > 패스트푸드 > 버거킹"
  },
  {
    "id": "1922012169",
    "name": "버거킹 노원역점",
    "address": "서울 노원구 상계동 734-5",
    "road_address": "서울 노원구 노해로 456",
    "lat": 37.653556978668036,
    "lng": 127.0586883751854,
    "phone": "070-7462-6806",
    "url": "http://place.map.kakao.com/1922012169",
    "category": "음식점 > 패스트푸드 > 버거킹"
  },
  {
    "id": "7900896",
    "name": "버거킹 양재점",
    "address": "서울 서초구 양재동 23",
    "road_address": "서울 서초구 강남대로 221",
    "lat": 37.48346933037269,
    "lng": 127.03465206901265,
    "phone": "02-577-0407",
    "url": "http://place.map.kakao.com/7900896",
    "category": "음식점 > 패스트푸드 > 버거킹"
  },
  {
    "id": "1940556013",
    "name": "버거킹 공덕역점",
    "address": "서울 마포구 공덕동 252-5",
    "road_address": "서울 마포구 마포대로 144",
    "lat": 37.5471086538147,
    "lng": 126.953739886302,
    "phone": "02-701-8355",
    "url": "http://place.map.kakao.com/1940556013",
    "category": "음식점 > 패스트푸드 > 버거킹"
  },
  {
    "id": "7884797",
    "name": "버거킹 청담점",
    "address": "서울 강남구 청담동 85-5",
    "road_address": "서울 강남구 선릉로 812",
    "lat": 37.5242292245094,
    "lng": 127.039716340014,
    "phone": "02-3446-7816",
    "url": "http://place.map.kakao.com/7884797",
    "category": "음식점 > 패스트푸드 > 버거킹"
  },
  {
    "id": "8312894",
    "name": "버거킹 쌍문점",
    "address": "서울 도봉구 쌍문동 20-4",
    "road_address": "서울 도봉구 도당로 6",
    "lat": 37.658604593544624,
    "lng": 127.03528238786008,
    "phone": "02-997-0233",
    "url": "http://place.map.kakao.com/8312894",
    "category": "음식점 > 패스트푸드 > 버거킹"
  },
  {
    "id": "1817825482",
    "name": "버거킹 장안SK점",
    "address": "서울 동대문구 장안동 164-2",
    "road_address": "서울 동대문구 한천로 100",
    "lat": 37.5701761821224,
    "lng": 127.064960711091,
    "phone": "070-7438-8236",
    "url": "http://place.map.kakao.com/1817825482",
    "category": "음식점 > 패스트푸드 > 버거킹"
  },
  {
    "id": "8375653",
    "name": "버거킹 신촌1점",
    "address": "서울 서대문구 창천동 20-41",
    "road_address": "서울 서대문구 신촌로 121",
    "lat": 37.556133703722296,
    "lng": 126.93927062155718,
    "phone": "070-7438-6531",
    "url": "http://place.map.kakao.com/8375653",
    "category": "음식점 > 패스트푸드 > 버거킹"
  },
  {
    "id": "2147364653",
    "name": "버거킹 마곡점",
    "address": "서울 강서구 마곡동 797-6",
    "road_address": "서울 강서구 마곡동로 56",
    "lat": 37.56006704843297,
    "lng": 126.8338275445054,
    "phone": "070-7462-6739",
    "url": "http://place.map.kakao.com/2147364653",
    "category": "음식점 > 패스트푸드 > 버거킹"
  },
  {
    "id": "1472163077",
    "name": "버거킹 약수역점",
    "address": "서울 중구 신당동 370-64",
    "road_address": "서울 중구 다산로 142",
    "lat": 37.55626316600117,
    "lng": 127.01172601953111,
    "phone": "070-7438-8605",
    "url": "http://place.map.kakao.com/1472163077",
    "category": "음식점 > 패스트푸드 > 버거킹"
  },
  {
    "id": "2008007216",
    "name": "버거킹 구로구청점",
    "address": "서울 구로구 구로동 83-4",
    "road_address": "서울 구로구 가마산로 250",
    "lat": 37.494842312439076,
    "lng": 126.88875914683985,
    "phone": "02-856-0332",
    "url": "http://place.map.kakao.com/2008007216",
    "category": "음식점 > 패스트푸드 > 버거킹"
  },
  {
    "id": "152052814",
    "name": "버거킹 서울대입구역점",
    "address": "서울 관악구 봉천동 875-8",
    "road_address": "서울 관악구 남부순환로 1796",
    "lat": 37.48136165103376,
    "lng": 126.9496989291752,
    "phone": "070-7462-6868",
    "url": "http://place.map.kakao.com/152052814",
    "category": "음식점 > 패스트푸드 > 버거킹"
  },
  {
    "id": "1127981980",
    "name": "버거킹 신림역점",
    "address": "서울 관악구 신림동 1641-17",
    "road_address": "서울 관악구 신림로 318",
    "lat": 37.48272123408076,
    "lng": 126.930132369156,
    "phone": "070-7462-8763",
    "url": "http://place.map.kakao.com/1127981980",
    "category": "음식점 > 패스트푸드 > 버거킹"
  },
  {
    "id": "1801694269",
    "name": "버거킹 건대입구역점",
    "address": "서울 광진구 화양동 7-3",
    "road_address": "서울 광진구 아차산로 229",
    "lat": 37.54065076451486,
    "lng": 127.0692416126555,
    "phone": "070-7462-6823",
    "url": "http://place.map.kakao.com/1801694269",
    "category": "음식점 > 패스트푸드 > 버거킹"
  },
  {
    "id": "2100102769",
    "name": "버거킹 삼성중앙역점",
    "address": "서울 강남구 삼성동 145",
    "road_address": "서울 강남구 봉은사로 502",
    "lat": 37.51289175580878,
    "lng": 127.05374716592515,
    "phone": "070-7438-6574",
    "url": "http://place.map.kakao.com/2100102769",
    "category": "음식점 > 패스트푸드 > 버거킹"
  },
  {
    "id": "475974891",
    "name": "버거킹 신대방삼거리역점",
    "address": "서울 동작구 대방동 335-16",
    "road_address": "서울 동작구 상도로 83",
    "lat": 37.499864507144515,
    "lng": 126.92980766521401,
    "phone": "070-7462-6791",
    "url": "http://place.map.kakao.com/475974891",
    "category": "음식점 > 패스트푸드 > 버거킹"
  },
  {
    "id": "26820828",
    "name": "버거킹 반포고속터미널점",
    "address": "서울 서초구 반포동 19-4",
    "road_address": "서울 서초구 신반포로 194",
    "lat": 37.5059705708362,
    "lng": 127.006559720374,
    "phone": "02-534-0332",
    "url": "http://place.map.kakao.com/26820828",
    "category": "음식점 > 패스트푸드 > 버거킹"
  },
  {
    "id": "7884791",
    "name": "버거킹 불광점",
    "address": "서울 은평구 불광동 267-1",
    "road_address": "서울 은평구 통일로 750",
    "lat": 37.61247757528458,
    "lng": 126.92849234319962,
    "phone": "070-7462-8633",
    "url": "http://place.map.kakao.com/7884791",
    "category": "음식점 > 패스트푸드 > 버거킹"
  },
  {
    "id": "10391055",
    "name": "버거킹 서울역점",
    "address": "서울 중구 봉래동2가 122-11",
    "road_address": "서울 중구 한강대로 405",
    "lat": 37.55428414162611,
    "lng": 126.97036601691367,
    "phone": "02-392-2895",
    "url": "http://place.map.kakao.com/10391055",
    "category": "음식점 > 패스트푸드 > 버거킹"
  },
  {
    "id": "116844708",
    "name": "버거킹 가재울뉴타운점",
    "address": "서울 서대문구 북가좌동 487",
    "road_address": "서울 서대문구 수색로 56",
    "lat": 37.57061771554708,
    "lng": 126.91274829326468,
    "phone": "02-303-0392",
    "url": "http://place.map.kakao.com/116844708",
    "category": "음식점 > 패스트푸드 > 버거킹"
  },
  {
    "id": "43644083",
    "name": "버거킹 회현역점",
    "address": "서울 중구 회현동1가 194-15",
    "road_address": "서울 중구 퇴계로 52",
    "lat": 37.55862154103367,
    "lng": 126.9787111882994,
    "phone": "070-7462-6807",
    "url": "http://place.map.kakao.com/43644083",
    "category": "음식점 > 패스트푸드 > 버거킹"
  },
  {
    "id": "139044107",
    "name": "버거킹 개봉점",
    "address": "서울 구로구 개봉동 403-56",
    "road_address": "서울 구로구 개봉로 55",
    "lat": 37.49050070458292,
    "lng": 126.85574648936633,
    "phone": "070-7438-8623",
    "url": "http://place.map.kakao.com/139044107",
    "category": "음식점 > 패스트푸드 > 버거킹"
  },
  {
    "id": "743293314",
    "name": "버거킹 군자능동점",
    "address": "서울 광진구 군자동 235",
    "road_address": "서울 광진구 능동로 245",
    "lat": 37.55217093083441,
    "lng": 127.07654710284775,
    "phone": "070-7462-6703",
    "url": "http://place.map.kakao.com/743293314",
    "category": "음식점 > 패스트푸드 > 버거킹"
  },
  {
    "id": "169965564",
    "name": "버거킹 영등포KT점",
    "address": "서울 영등포구 영등포동8가 35-1",
    "road_address": "서울 영등포구 영중로 119",
    "lat": 37.52711541982242,
    "lng": 126.90534934257846,
    "phone": "02-2675-0332",
    "url": "http://place.map.kakao.com/169965564",
    "category": "음식점 > 패스트푸드 > 버거킹"
  },
  {
    "id": "630873835",
    "name": "버거킹 공릉역점",
    "address": "서울 노원구 공릉동 379-20",
    "road_address": "서울 노원구 동일로 1085",
    "lat": 37.6267289895292,
    "lng": 127.072178339149,
    "phone": "070-7438-8217",
    "url": "http://place.map.kakao.com/630873835",
    "category": "음식점 > 패스트푸드 > 버거킹"
  },
  {
    "id": "2043192187",
    "name": "버거킹 서대문역점",
    "address": "서울 중구 순화동 215",
    "road_address": "서울 중구 통일로 86",
    "lat": 37.56295061601007,
    "lng": 126.96951369921733,
    "phone": "070-7462-6847",
    "url": "http://place.map.kakao.com/2043192187",
    "category": "음식점 > 패스트푸드 > 버거킹"
  },
  {
    "id": "1729014537",
    "name": "버거킹 금천구청입구삼거리점",
    "address": "서울 금천구 시흥동 108-76",
    "road_address": "서울 금천구 시흥대로 265",
    "lat": 37.4573200806734,
    "lng": 126.899136216278,
    "phone": "070-7459-7529",
    "url": "http://place.map.kakao.com/1729014537",
    "category": "음식점 > 패스트푸드 > 버거킹"
  },
  {
    "id": "777589397",
    "name": "버거킹 방배점",
    "address": "서울 서초구 방배동 925-3",
    "road_address": "서울 서초구 방배로 127",
    "lat": 37.48531235869854,
    "lng": 126.99488934997765,
    "phone": "070-7462-6795",
    "url": "http://place.map.kakao.com/777589397",
    "category": "음식점 > 패스트푸드 > 버거킹"
  },
  {
    "id": "20908465",
    "name": "버거킹 차병원사거리점",
    "address": "서울 강남구 논현동 192-19",
    "road_address": "서울 강남구 봉은사로 179",
    "lat": 37.50747248019138,
    "lng": 127.03351066310148,
    "phone": "02-540-0332",
    "url": "http://place.map.kakao.com/20908465",
    "category": "음식점 > 패스트푸드 > 버거킹"
  },
  {
    "id": "8421068",
    "name": "버거킹 석촌점",
    "address": "서울 송파구 송파동 15-8",
    "road_address": "서울 송파구 송파대로 448",
    "lat": 37.50658238629044,
    "lng": 127.10638142093951,
    "phone": "02-424-6313",
    "url": "http://place.map.kakao.com/8421068",
    "category": "음식점 > 패스트푸드 > 버거킹"
  },
  {
    "id": "7900894",
    "name": "버거킹 수서점",
    "address": "서울 강남구 수서동 724",
    "road_address": "서울 강남구 광평로 280",
    "lat": 37.4874155687391,
    "lng": 127.103007345983,
    "phone": "02-3412-1557",
    "url": "http://place.map.kakao.com/7900894",
    "category": "음식점 > 패스트푸드 > 버거킹"
  },
  {
    "id": "304539164",
    "name": "버거킹 종합운동장사거리점",
    "address": "서울 송파구 잠실동 175-6",
    "road_address": "서울 송파구 올림픽로 76",
    "lat": 37.51158643619488,
    "lng": 127.0789860748957,
    "phone": "070-7462-6856",
    "url": "http://place.map.kakao.com/304539164",
    "category": "음식점 > 패스트푸드 > 버거킹"
  },
  {
    "id": "742804447",
    "name": "버거킹 교대역점",
    "address": "서울 서초구 서초동 1715-10",
    "road_address": "서울 서초구 서초대로 283",
    "lat": 37.49365511250191,
    "lng": 127.01275316845236,
    "phone": "02-596-0332",
    "url": "http://place.map.kakao.com/742804447",
    "category": "음식점 > 패스트푸드 > 버거킹"
  },
  {
    "id": "7897089",
    "name": "버거킹 대치점",
    "address": "서울 강남구 대치동 941-24",
    "road_address": "서울 강남구 도곡로 447",
    "lat": 37.49864058277916,
    "lng": 127.05934156937369,
    "phone": "02-556-8595",
    "url": "http://place.map.kakao.com/7897089",
    "category": "음식점 > 패스트푸드 > 버거킹"
  },
  {
    "id": "21556767",
    "name": "버거킹 연세로점",
    "address": "서울 서대문구 창천동 33-38",
    "road_address": "서울 서대문구 연세로 25",
    "lat": 37.5578622877725,
    "lng": 126.9367363175803,
    "phone": "02-322-3669",
    "url": "http://place.map.kakao.com/21556767",
    "category": "음식점 > 패스트푸드 > 버거킹"
  },
  {
    "id": "1796430644",
    "name": "버거킹 왕십리센트라스점",
    "address": "서울 성동구 하왕십리동 1070",
    "road_address": "서울 성동구 왕십리로 410",
    "lat": 37.56466458869931,
    "lng": 127.02939134619812,
    "phone": "070-7438-8625",
    "url": "http://place.map.kakao.com/1796430644",
    "category": "음식점 > 패스트푸드 > 버거킹"
  },
  {
    "id": "851816792",
    "name": "버거킹 부산연산RFS점",
    "address": "부산 연제구 연산동 1287-4",
    "road_address": "부산 연제구 중앙대로 1087",
    "lat": 35.18499481662175,
    "lng": 129.08042420737317,
    "phone": "051-868-0332",
    "url": "http://place.map.kakao.com/851816792",
    "category": "음식점 > 패스트푸드 > 버거킹"
  },
  {
    "id": "59888404",
    "name": "버거킹 부산서면일번가점",
    "address": "부산 부산진구 부전동 242-3",
    "road_address": "부산 부산진구 서면로 48",
    "lat": 35.1549506790708,
    "lng": 129.058036111474,
    "phone": "070-7462-6812",
    "url": "http://place.map.kakao.com/59888404",
    "category": "음식점 > 패스트푸드 > 버거킹"
  },
  {
    "id": "969658704",
    "name": "버거킹 해운대우동점",
    "address": "부산 해운대구 우동 1005-17",
    "road_address": "부산 해운대구 해운대로452번길 16",
    "lat": 35.1633787329892,
    "lng": 129.141376319948,
    "phone": "051-741-5200",
    "url": "http://place.map.kakao.com/969658704",
    "category": "음식점 > 패스트푸드 > 버거킹"
  },
  {
    "id": "1920547120",
    "name": "버거킹 해운대신도시1점",
    "address": "부산 해운대구 좌동 1327-6",
    "road_address": "부산 해운대구 좌동순환로 310",
    "lat": 35.1684280100406,
    "lng": 129.182600578612,
    "phone": "051-701-0331",
    "url": "http://place.map.kakao.com/1920547120",
    "category": "음식점 > 패스트푸드 > 버거킹"
  },
  {
    "id": "1389681946",
    "name": "버거킹 부산양정점",
    "address": "부산 부산진구 양정동 353-12",
    "road_address": "부산 부산진구 중앙대로 900",
    "lat": 35.17051631799706,
    "lng": 129.06967531729796,
    "phone": "070-7462-6737",
    "url": "http://place.map.kakao.com/1389681946",
    "category": "음식점 > 패스트푸드 > 버거킹"
  },
  {
    "id": "39368597",
    "name": "버거킹 부산서부터미널점",
    "address": "부산 사상구 괘법동 534-1",
    "road_address": "부산 사상구 사상로 201",
    "lat": 35.16379676958741,
    "lng": 128.98360343434518,
    "phone": "051-311-9713",
    "url": "http://place.map.kakao.com/39368597",
    "category": "음식점 > 패스트푸드 > 버거킹"
  },
  {
    "id": "1324562101",
    "name": "버거킹 부산대점",
    "address": "부산 금정구 장전동 311-3",
    "road_address": "부산 금정구 금정로 66",
    "lat": 35.23048103825084,
    "lng": 129.0866175495212,
    "phone": "070-7462-6769",
    "url": "http://place.map.kakao.com/1324562101",
    "category": "음식점 > 패스트푸드 > 버거킹"
  },
  {
    "id": "1677564364",
    "name": "버거킹 부산경성대점",
    "address": "부산 남구 대연동 406-1",
    "road_address": "부산 남구 수영로 295",
    "lat": 35.1368200493789,
    "lng": 129.098331497517,
    "phone": "070-7459-7355",
    "url": "http://place.map.kakao.com/1677564364",
    "category": "음식점 > 패스트푸드 > 버거킹"
  },
  {
    "id": "2081807441",
    "name": "버거킹 부산센텀오일뱅크점",
    "address": "부산 해운대구 재송동 367-1",
    "road_address": "부산 해운대구 해운대로 179",
    "lat": 35.181768449757385,
    "lng": 129.1234661579423,
    "phone": "070-7438-8229",
    "url": "http://place.map.kakao.com/2081807441",
    "category": "음식점 > 패스트푸드 > 버거킹"
  },
  {
    "id": "77371954",
    "name": "버거킹 김해공항DT점",
    "address": "부산 강서구 대저2동 1982-15",
    "road_address": "부산 강서구 공항로 779",
    "lat": 35.17639163744148,
    "lng": 128.9583557606953,
    "phone": "070-7438-8150",
    "url": "http://place.map.kakao.com/77371954",
    "category": "음식점 > 패스트푸드 > 버거킹"
  },
  {
    "id": "1657057353",
    "name": "버거킹 부산안락DT점",
    "address": "부산 동래구 안락동 1044-2",
    "road_address": "부산 동래구 충렬대로 311",
    "lat": 35.19984231962405,
    "lng": 129.09317251890303,
    "phone": "051-556-3800",
    "url": "http://place.map.kakao.com/1657057353",
    "category": "음식점 > 패스트푸드 > 버거킹"
  },
  {
    "id": "1305079430",
    "name": "버거킹 부산백양대로DT점",
    "address": "부산 사상구 덕포동 110",
    "road_address": "부산 사상구 백양대로 682",
    "lat": 35.167768792036824,
    "lng": 128.98895453054155,
    "phone": "070-4114-7088",
    "url": "http://place.map.kakao.com/1305079430",
    "category": "음식점 > 패스트푸드 > 버거킹"
  },
  {
    "id": "487188838",
    "name": "버거킹 부산사직점",
    "address": "부산 동래구 사직동 89-10",
    "road_address": "부산 동래구 사직로 58",
    "lat": 35.19566778851124,
    "lng": 129.05936156160408,
    "phone": "070-7462-8664",
    "url": "http://place.map.kakao.com/487188838",
    "category": "음식점 > 패스트푸드 > 버거킹"
  },
  {
    "id": "1230607056",
    "name": "버거킹 부산대신FS점",
    "address": "부산 서구 서대신동3가 513-1",
    "road_address": "부산 서구 망양로33번길 3",
    "lat": 35.11343101599426,
    "lng": 129.01347690776677,
    "phone": "051-255-5988",
    "url": "http://place.map.kakao.com/1230607056",
    "category": "음식점 > 패스트푸드 > 버거킹"
  },
  {
    "id": "2102393054",
    "name": "버거킹 부산센텀시티점",
    "address": "부산 해운대구 우동 1488",
    "road_address": "부산 해운대구 센텀동로 25",
    "lat": 35.17149967269329,
    "lng": 129.13091533738654,
    "phone": "070-7462-8510",
    "url": "http://place.map.kakao.com/2102393054",
    "category": "음식점 > 패스트푸드 > 버거킹"
  },
  {
    "id": "1914260855",
    "name": "버거킹 부산신평DT점",
    "address": "부산 사하구 신평동 370-43",
    "road_address": "부산 사하구 을숙도대로 564",
    "lat": 35.08507846061069,
    "lng": 128.96757746241886,
    "phone": "070-7438-8224",
    "url": "http://place.map.kakao.com/1914260855",
    "category": "음식점 > 패스트푸드 > 버거킹"
  },
  {
    "id": "1973047999",
    "name": "버거킹 부산영도DT점",
    "address": "부산 영도구 봉래동4가 10-1",
    "road_address": "부산 영도구 태종로 173",
    "lat": 35.09447627391768,
    "lng": 129.04711601344871,
    "phone": "070-7462-8568",
    "url": "http://place.map.kakao.com/1973047999",
    "category": "음식점 > 패스트푸드 > 버거킹"
  },
  {
    "id": "1332481121",
    "name": "버거킹 부산연산DT점",
    "address": "부산 연제구 연산동 104-15",
    "road_address": "부산 연제구 과정로 352",
    "lat": 35.1913092552276,
    "lng": 129.090203693145,
    "phone": "070-7459-7376",
    "url": "http://place.map.kakao.com/1332481121",
    "category": "음식점 > 패스트푸드 > 버거킹"
  },
  {
    "id": "1937742746",
    "name": "버거킹 부산용호분포SK점",
    "address": "부산 남구 용호동 369-25",
    "road_address": "부산 남구 용호로 116",
    "lat": 35.1217660985332,
    "lng": 129.112080861411,
    "phone": "051-624-0332",
    "url": "http://place.map.kakao.com/1937742746",
    "category": "음식점 > 패스트푸드 > 버거킹"
  },
  {
    "id": "752393336",
    "name": "버거킹 부산명지DT점",
    "address": "부산 강서구 명지동 3459",
    "road_address": "부산 강서구 명지국제6로 218",
    "lat": 35.09481793420878,
    "lng": 128.9229160013314,
    "phone": "070-7462-8627",
    "url": "http://place.map.kakao.com/752393336",
    "category": "음식점 > 패스트푸드 > 버거킹"
  },
  {
    "id": "166861136",
    "name": "버거킹 부산괴정역점",
    "address": "부산 사하구 괴정동 966-1",
    "road_address": "부산 사하구 사하로 200",
    "lat": 35.099458484192596,
    "lng": 128.99367520775922,
    "phone": "051-292-2931",
    "url": "http://place.map.kakao.com/166861136",
    "category": "음식점 > 패스트푸드 > 버거킹"
  },
  {
    "id": "1782433717",
    "name": "버거킹 부산수안역점",
    "address": "부산 동래구 명륜동 506-13",
    "road_address": "부산 동래구 충렬대로 194",
    "lat": 35.2028700672411,
    "lng": 129.081107429682,
    "phone": "070-7462-9963",
    "url": "http://place.map.kakao.com/1782433717",
    "category": "음식점 > 패스트푸드 > 버거킹"
  },
  {
    "id": "800236019",
    "name": "버거킹 부산화명점",
    "address": "부산 북구 화명동 2277-3",
    "road_address": "부산 북구 화명대로 44",
    "lat": 35.234360639813,
    "lng": 129.012991089786,
    "phone": "070-7462-6865",
    "url": "http://place.map.kakao.com/800236019",
    "category": "음식점 > 패스트푸드 > 버거킹"
  },
  {
    "id": "1586698634",
    "name": "버거킹 부산정관DT점",
    "address": "부산 기장군 정관읍 용수리 708-1",
    "road_address": "부산 기장군 정관읍 용수로 48",
    "lat": 35.327152292555304,
    "lng": 129.17626182968726,
    "phone": "070-7438-8624",
    "url": "http://place.map.kakao.com/1586698634",
    "category": "음식점 > 패스트푸드 > 버거킹"
  },
  {
    "id": "107723543",
    "name": "버거킹 부산개금점",
    "address": "부산 부산진구 개금동 171-12",
    "road_address": "부산 부산진구 가야대로 484-1",
    "lat": 35.152837968857,
    "lng": 129.025019601413,
    "phone": "051-7461-4998",
    "url": "http://place.map.kakao.com/107723543",
    "category": "음식점 > 패스트푸드 > 버거킹"
  },
  {
    "id": "1309927060",
    "name": "버거킹 부산외대점",
    "address": "부산 금정구 남산동 990-1",
    "road_address": "부산 금정구 금샘로 478",
    "lat": 35.26594601830048,
    "lng": 129.08554904543928,
    "phone": "070-7438-6552",
    "url": "http://place.map.kakao.com/1309927060",
    "category": "음식점 > 패스트푸드 > 버거킹"
  },
  {
    "id": "1841739133",
    "name": "버거킹 부산덕천점",
    "address": "부산 북구 덕천동 398-6",
    "road_address": "부산 북구 만덕대로 17",
    "lat": 35.2106878648967,
    "lng": 129.006921727179,
    "phone": "070-7459-7567",
    "url": "http://place.map.kakao.com/1841739133",
    "category": "음식점 > 패스트푸드 > 버거킹"
  },
  {
    "id": "279378770",
    "name": "버거킹 부산구서점",
    "address": "부산 금정구 구서동 87-26",
    "road_address": "부산 금정구 구서로 20",
    "lat": 35.2468616401642,
    "lng": 129.0889926429941,
    "phone": "070-7459-7219",
    "url": "http://place.map.kakao.com/279378770",
    "category": "음식점 > 패스트푸드 > 버거킹"
  },
  {
    "id": "1426235660",
    "name": "버거킹 연산토곡SKDT점",
    "address": "부산 연제구 연산동 489-14",
    "road_address": "부산 연제구 과정로 120",
    "lat": 35.1822670677753,
    "lng": 129.107462680491,
    "phone": "051-755-1579",
    "url": "http://place.map.kakao.com/1426235660",
    "category": "음식점 > 패스트푸드 > 버거킹"
  },
  {
    "id": "1300435219",
    "name": "버거킹 부산서동점",
    "address": "부산 금정구 서동 202-2",
    "road_address": "부산 금정구 서동로 168",
    "lat": 35.2144415597401,
    "lng": 129.104774997686,
    "phone": "070-7459-7224",
    "url": "http://place.map.kakao.com/1300435219",
    "category": "음식점 > 패스트푸드 > 버거킹"
  },
  {
    "id": "711353425",
    "name": "버거킹 부산구평DT점",
    "address": "부산 사하구 구평동 24-33",
    "road_address": "부산 사하구 을숙도대로 767",
    "lat": 35.086242163801,
    "lng": 128.988711454382,
    "phone": "070-7438-8226",
    "url": "http://place.map.kakao.com/711353425",
    "category": "음식점 > 패스트푸드 > 버거킹"
  },
  {
    "id": "147985319",
    "name": "버거킹 부산하단역점",
    "address": "부산 사하구 하단동 528-11",
    "road_address": "부산 사하구 낙동남로 1427",
    "lat": 35.10659567623714,
    "lng": 128.967771134839,
    "phone": "070-7462-8578",
    "url": "http://place.map.kakao.com/147985319",
    "category": "음식점 > 패스트푸드 > 버거킹"
  },
  {
    "id": "1779537355",
    "name": "버거킹 부산주례점",
    "address": "부산 사상구 주례동 1163-31",
    "road_address": "부산 사상구 가야대로 298",
    "lat": 35.1503928710079,
    "lng": 129.005154298382,
    "phone": "070-7438-6507",
    "url": "http://place.map.kakao.com/1779537355",
    "category": "음식점 > 패스트푸드 > 버거킹"
  },
  {
    "id": "1995217475",
    "name": "버거킹 부산기장DT점",
    "address": "부산 기장군 기장읍 청강리 16-5",
    "road_address": "부산 기장군 기장읍 기장대로 531",
    "lat": 35.24249359775354,
    "lng": 129.22024740398538,
    "phone": "070-7462-8630",
    "url": "http://place.map.kakao.com/1995217475",
    "category": "음식점 > 패스트푸드 > 버거킹"
  },
  {
    "id": "2087668169",
    "name": "버거킹 명지DT점 주차장",
    "address": "부산 강서구 명지동 3459",
    "road_address": "",
    "lat": 35.0948596271968,
    "lng": 128.922730577505,
    "phone": "",
    "url": "http://place.map.kakao.com/2087668169",
    "category": "교통,수송 > 교통시설 > 주차장"
  },
  {
    "id": "2088680641",
    "name": "버거킹 부산정관DT점 주차장",
    "address": "부산 기장군 정관읍 용수리 708-1",
    "road_address": "",
    "lat": 35.3271433060039,
    "lng": 129.176460609535,
    "phone": "",
    "url": "http://place.map.kakao.com/2088680641",
    "category": "교통,수송 > 교통시설 > 주차장"
  },
  {
    "id": "903548907",
    "name": "투루카 버거킹 부산대신점",
    "address": "부산 서구 서대신동3가 513-1",
    "road_address": "부산 서구 망양로33번길 3",
    "lat": 35.1134310159472,
    "lng": 129.013476907755,
    "phone": "1600-6038",
    "url": "http://place.map.kakao.com/903548907",
    "category": "교통,수송 > 교통시설 > 카셰어링 > 투루카"
  },
  {
    "id": "676348440",
    "name": "워터 버거킹 부산명지DT 전기차충전소",
    "address": "부산 강서구 명지동 3459",
    "road_address": "부산 강서구 명지국제6로 218",
    "lat": 35.09482219501577,
    "lng": 128.92293145221825,
    "phone": "",
    "url": "http://place.map.kakao.com/676348440",
    "category": "교통,수송 > 자동차 > 전기차 충전소"
  },
  {
    "id": "145453968",
    "name": "버거킹 부산구평DT점 전기차충전소",
    "address": "부산 사하구 구평동 24-33",
    "road_address": "부산 사하구 을숙도대로 767",
    "lat": 35.086240362101556,
    "lng": 128.9887114106224,
    "phone": "1661-9408",
    "url": "http://place.map.kakao.com/145453968",
    "category": "교통,수송 > 자동차 > 전기차 충전소"
  },
  {
    "id": "948455026",
    "name": "버거킹 대구산격DT점",
    "address": "대구 북구 산격동 489-19",
    "road_address": "대구 북구 검단로 29",
    "lat": 35.900556210040236,
    "lng": 128.61521006265127,
    "phone": "070-7462-6745",
    "url": "http://place.map.kakao.com/948455026",
    "category": "음식점 > 패스트푸드 > 버거킹"
  },
  {
    "id": "26926028",
    "name": "버거킹 대구죽전네거리DT점",
    "address": "대구 달서구 감삼동 450-1",
    "road_address": "대구 달서구 달구벌대로 1536",
    "lat": 35.849500169674016,
    "lng": 128.5350154328531,
    "phone": "010-9515-5353",
    "url": "http://place.map.kakao.com/26926028",
    "category": "음식점 > 패스트푸드 > 버거킹"
  },
  {
    "id": "778591273",
    "name": "버거킹 대구중앙로점",
    "address": "대구 중구 남일동 110-1",
    "road_address": "대구 중구 중앙대로 398",
    "lat": 35.868560868240124,
    "lng": 128.5938593730376,
    "phone": "070-7462-6757",
    "url": "http://place.map.kakao.com/778591273",
    "category": "음식점 > 패스트푸드 > 버거킹"
  },
  {
    "id": "7897087",
    "name": "버거킹 대구만촌점",
    "address": "대구 수성구 만촌동 849-29",
    "road_address": "대구 수성구 달구벌대로 2622",
    "lat": 35.85703101467894,
    "lng": 128.6487196205301,
    "phone": "053-741-0208",
    "url": "http://place.map.kakao.com/7897087",
    "category": "음식점 > 패스트푸드 > 버거킹"
  },
  {
    "id": "26641220",
    "name": "버거킹 대구시지점",
    "address": "대구 수성구 신매동 567-58",
    "road_address": "대구 수성구 신매로19길 46",
    "lat": 35.8395750244841,
    "lng": 128.707179666904,
    "phone": "053-791-0331",
    "url": "http://place.map.kakao.com/26641220",
    "category": "음식점 > 패스트푸드 > 버거킹"
  },
  {
    "id": "1180444998",
    "name": "버거킹 대구칠곡3지구점",
    "address": "대구 북구 동천동 892-2",
    "road_address": "대구 북구 팔거천동로 224",
    "lat": 35.9438527702036,
    "lng": 128.558594333053,
    "phone": "010-4417-1199",
    "url": "http://place.map.kakao.com/1180444998",
    "category": "음식점 > 패스트푸드 > 버거킹"
  },
  {
    "id": "26835458",
    "name": "버거킹 경대병원역SK점",
    "address": "대구 중구 대봉동 21-7",
    "road_address": "대구 중구 달구벌대로 2194",
    "lat": 35.862675842548285,
    "lng": 128.60317793175832,
    "phone": "053-253-0332",
    "url": "http://place.map.kakao.com/26835458",
    "category": "음식점 > 패스트푸드 > 버거킹"
  },
  {
    "id": "1997228877",
    "name": "버거킹 대구평리DT점",
    "address": "대구 서구 평리동 1099-3",
    "road_address": "대구 서구 국채보상로 298",
    "lat": 35.871597759537515,
    "lng": 128.5634852418602,
    "phone": "053-566-0332",
    "url": "http://place.map.kakao.com/1997228877",
    "category": "음식점 > 패스트푸드 > 버거킹"
  },
  {
    "id": "1184571142",
    "name": "버거킹 대구서재FS점",
    "address": "대구 달성군 다사읍 서재리 175",
    "road_address": "대구 달성군 다사읍 서재로 66",
    "lat": 35.86946836960395,
    "lng": 128.4966348120621,
    "phone": "070-7462-6867",
    "url": "http://place.map.kakao.com/1184571142",
    "category": "음식점 > 패스트푸드 > 버거킹"
  },
  {
    "id": "33564315",
    "name": "버거킹 대구월촌역FS점",
    "address": "대구 달서구 송현동 1944-1",
    "road_address": "대구 달서구 월배로 320",
    "lat": 35.8239330490097,
    "lng": 128.546225364525,
    "phone": "070-7462-6880",
    "url": "http://place.map.kakao.com/33564315",
    "category": "음식점 > 패스트푸드 > 버거킹"
  },
  {
    "id": "1412826335",
    "name": "버거킹 대구효신네거리점",
    "address": "대구 수성구 만촌동 1325-38",
    "road_address": "대구 수성구 화랑로 76",
    "lat": 35.87170198001719,
    "lng": 128.63517302036936,
    "phone": "070-7459-7544",
    "url": "http://place.map.kakao.com/1412826335",
    "category": "음식점 > 패스트푸드 > 버거킹"
  },
  {
    "id": "1050639245",
    "name": "버거킹 대구삼성창조캠퍼스점",
    "address": "대구 북구 침산동 1757",
    "road_address": "대구 북구 호암로 51",
    "lat": 35.884172423189725,
    "lng": 128.5947291901997,
    "phone": "053-354-0332",
    "url": "http://place.map.kakao.com/1050639245",
    "category": "음식점 > 패스트푸드 > 버거킹"
  },
  {
    "id": "27282515",
    "name": "버거킹 대구율하점",
    "address": "대구 동구 율하동 1225",
    "road_address": "대구 동구 안심로22길 10",
    "lat": 35.866378807324146,
    "lng": 128.69626197212122,
    "phone": "053-959-1126",
    "url": "http://place.map.kakao.com/27282515",
    "category": "음식점 > 패스트푸드 > 버거킹"
  },
  {
    "id": "35323264",
    "name": "버거킹 대구대현점",
    "address": "대구 북구 대현동 270-7",
    "road_address": "대구 북구 대현로 102",
    "lat": 35.8820182086464,
    "lng": 128.609961336611,
    "phone": "053-958-5558",
    "url": "http://place.map.kakao.com/35323264",
    "category": "음식점 > 패스트푸드 > 버거킹"
  },
  {
    "id": "1425913760",
    "name": "버거킹 대구수성점",
    "address": "대구 수성구 수성동2가 1-3",
    "road_address": "대구 수성구 들안로 325",
    "lat": 35.8589866386784,
    "lng": 128.617222151224,
    "phone": "070-7459-7552",
    "url": "http://place.map.kakao.com/1425913760",
    "category": "음식점 > 패스트푸드 > 버거킹"
  },
  {
    "id": "1181418875",
    "name": "버거킹 대구월성점",
    "address": "대구 달서구 월성동 1846",
    "road_address": "대구 달서구 조암로 29",
    "lat": 35.8246078849182,
    "lng": 128.526996033583,
    "phone": "070-7459-7099",
    "url": "http://place.map.kakao.com/1181418875",
    "category": "음식점 > 패스트푸드 > 버거킹"
  },
  {
    "id": "1753729140",
    "name": "버거킹 대구대명FS점",
    "address": "대구 남구 대명동 1623-20",
    "road_address": "대구 남구 대명로 89",
    "lat": 35.839734891810615,
    "lng": 128.56749901432818,
    "phone": "010-9637-0233",
    "url": "http://place.map.kakao.com/1753729140",
    "category": "음식점 > 패스트푸드 > 버거킹"
  },
  {
    "id": "1702787178",
    "name": "버거킹 대구지산점",
    "address": "대구 수성구 지산동 1276-7",
    "road_address": "대구 수성구 지범로 159",
    "lat": 35.82276791309848,
    "lng": 128.63764620292798,
    "phone": "053-783-1557",
    "url": "http://place.map.kakao.com/1702787178",
    "category": "음식점 > 패스트푸드 > 버거킹"
  },
  {
    "id": "1864501928",
    "name": "버거킹 대구남산역점",
    "address": "대구 남구 대명동 1890-28",
    "road_address": "대구 남구 명덕로 122",
    "lat": 35.8561844572365,
    "lng": 128.583578127088,
    "phone": "053-215-3573",
    "url": "http://place.map.kakao.com/1864501928",
    "category": "음식점 > 패스트푸드 > 버거킹"
  },
  {
    "id": "157856193",
    "name": "버거킹 대구테크노폴리스점",
    "address": "대구 달성군 현풍읍 중리 491-2",
    "road_address": "대구 달성군 현풍읍 테크노중앙대로 243",
    "lat": 35.692357467262845,
    "lng": 128.45754795019195,
    "phone": "053-617-6777",
    "url": "http://place.map.kakao.com/157856193",
    "category": "음식점 > 패스트푸드 > 버거킹"
  },
  {
    "id": "1220861010",
    "name": "버거킹 대구화원점",
    "address": "대구 달성군 화원읍 성산리 488",
    "road_address": "대구 달성군 화원읍 성화로 2",
    "lat": 35.8011054130256,
    "lng": 128.492574609416,
    "phone": "010-2664-6056",
    "url": "http://place.map.kakao.com/1220861010",
    "category": "음식점 > 패스트푸드 > 버거킹"
  },
  {
    "id": "1642524520",
    "name": "버거킹 대구태전점",
    "address": "대구 북구 태전동 940",
    "road_address": "대구 북구 칠곡중앙대로 411",
    "lat": 35.9325128450408,
    "lng": 128.548010544421,
    "phone": "070-7459-7564",
    "url": "http://place.map.kakao.com/1642524520",
    "category": "음식점 > 패스트푸드 > 버거킹"
  },
  {
    "id": "710231493",
    "name": "버거킹 대구이시아폴리스점",
    "address": "대구 동구 봉무동 1548-12",
    "road_address": "대구 동구 팔공로49길 51",
    "lat": 35.92046022645922,
    "lng": 128.6356578457911,
    "phone": "053-986-7733",
    "url": "http://place.map.kakao.com/710231493",
    "category": "음식점 > 패스트푸드 > 버거킹"
  },
  {
    "id": "1752085177",
    "name": "버거킹 대구신서혁신도시DT점",
    "address": "대구 동구 신서동 1138-1",
    "road_address": "대구 동구 이노밸리로 277",
    "lat": 35.8785791440478,
    "lng": 128.72742969037,
    "phone": "070-7462-8651",
    "url": "http://place.map.kakao.com/1752085177",
    "category": "음식점 > 패스트푸드 > 버거킹"
  },
  {
    "id": "109242217",
    "name": "버거킹 대구성서이마트점",
    "address": "대구 달서구 이곡동 1254-2",
    "road_address": "대구 달서구 이곡동로 24",
    "lat": 35.85341868971605,
    "lng": 128.51024936348915,
    "phone": "053-583-1332",
    "url": "http://place.map.kakao.com/109242217",
    "category": "음식점 > 패스트푸드 > 버거킹"
  },
  {
    "id": "901009213",
    "name": "버거킹 대구두류점",
    "address": "대구 서구 내당동 3333",
    "road_address": "대구 서구 달구벌대로 1769-7",
    "lat": 35.8593777656683,
    "lng": 128.55748324003,
    "phone": "070-7459-6915",
    "url": "http://place.map.kakao.com/901009213",
    "category": "음식점 > 패스트푸드 > 버거킹"
  },
  {
    "id": "221117230",
    "name": "버거킹 대구연경점",
    "address": "대구 북구 연경동 962-1",
    "road_address": "대구 북구 동화천로 229",
    "lat": 35.94230277670512,
    "lng": 128.61596293241652,
    "phone": "053-262-5000",
    "url": "http://place.map.kakao.com/221117230",
    "category": "음식점 > 패스트푸드 > 버거킹"
  },
  {
    "id": "642581872",
    "name": "버거킹 대구도원점",
    "address": "대구 달서구 도원동 1431",
    "road_address": "대구 달서구 도원로 12",
    "lat": 35.8087134749474,
    "lng": 128.535606225265,
    "phone": "070-7459-6887",
    "url": "http://place.map.kakao.com/642581872",
    "category": "음식점 > 패스트푸드 > 버거킹"
  },
  {
    "id": "384303442",
    "name": "버거킹 대구산격DT점 주차장",
    "address": "대구 북구 산격동 489-19",
    "road_address": "대구 북구 검단로 29",
    "lat": 35.9005561504556,
    "lng": 128.615214491705,
    "phone": "",
    "url": "http://place.map.kakao.com/384303442",
    "category": "교통,수송 > 교통시설 > 주차장"
  },
  {
    "id": "1687519042",
    "name": "버거킹 대구죽전네거리DT점 주차장",
    "address": "대구 달서구 감삼동 450-1",
    "road_address": "",
    "lat": 35.8494765269739,
    "lng": 128.535384671086,
    "phone": "",
    "url": "http://place.map.kakao.com/1687519042",
    "category": "교통,수송 > 교통시설 > 주차장"
  },
  {
    "id": "878613422",
    "name": "나이스파크 버거킹 대구산격DT점 주차장",
    "address": "대구 북구 산격동 489-19",
    "road_address": "대구 북구 검단로 29",
    "lat": 35.9003374499042,
    "lng": 128.615260995032,
    "phone": "",
    "url": "http://place.map.kakao.com/878613422",
    "category": "교통,수송 > 교통시설 > 주차장"
  },
  {
    "id": "223517546",
    "name": "버거킹 인천주안점",
    "address": "인천 미추홀구 주안동 231-11",
    "road_address": "인천 미추홀구 주안로 86",
    "lat": 37.46390135261731,
    "lng": 126.67913864180711,
    "phone": "070-7462-6870",
    "url": "http://place.map.kakao.com/223517546",
    "category": "음식점 > 패스트푸드 > 버거킹"
  },
  {
    "id": "258548675",
    "name": "버거킹 인천청라점",
    "address": "인천 서구 청라동 162-2",
    "road_address": "인천 서구 중봉대로 610",
    "lat": 37.53399643482038,
    "lng": 126.65018802533244,
    "phone": "032-561-1332",
    "url": "http://place.map.kakao.com/258548675",
    "category": "음식점 > 패스트푸드 > 버거킹"
  },
  {
    "id": "195808255",
    "name": "버거킹 부평시장역점",
    "address": "인천 부평구 부평동 440-5",
    "road_address": "인천 부평구 부평대로 90",
    "lat": 37.49941606820829,
    "lng": 126.72245676538996,
    "phone": "070-7462-6765",
    "url": "http://place.map.kakao.com/195808255",
    "category": "음식점 > 패스트푸드 > 버거킹"
  },
  {
    "id": "26473913",
    "name": "버거킹 인천송도DT점",
    "address": "인천 연수구 송도동 158-4",
    "road_address": "인천 연수구 송도과학로 13",
    "lat": 37.383895331789105,
    "lng": 126.66025616419135,
    "phone": "032-818-0332",
    "url": "http://place.map.kakao.com/26473913",
    "category": "음식점 > 패스트푸드 > 버거킹"
  },
  {
    "id": "24074772",
    "name": "버거킹 인천작전점",
    "address": "인천 계양구 작전동 442-1",
    "road_address": "인천 계양구 계양대로 37",
    "lat": 37.527164163227795,
    "lng": 126.72205532910606,
    "phone": "032-555-0332",
    "url": "http://place.map.kakao.com/24074772",
    "category": "음식점 > 패스트푸드 > 버거킹"
  },
  {
    "id": "23737285",
    "name": "버거킹 인천송도센트럴파크점",
    "address": "인천 연수구 송도동 23-4",
    "road_address": "인천 연수구 센트럴로 194",
    "lat": 37.3941289182578,
    "lng": 126.640981421359,
    "phone": "032-832-8531",
    "url": "http://place.map.kakao.com/23737285",
    "category": "음식점 > 패스트푸드 > 버거킹"
  },
  {
    "id": "21127044",
    "name": "버거킹 삼산SK점",
    "address": "인천 부평구 삼산동 270-4",
    "road_address": "인천 부평구 장제로 347",
    "lat": 37.51639998512558,
    "lng": 126.7318287190307,
    "phone": "032-506-3643",
    "url": "http://place.map.kakao.com/21127044",
    "category": "음식점 > 패스트푸드 > 버거킹"
  },
  {
    "id": "1493578433",
    "name": "버거킹 부평역점",
    "address": "인천 부평구 부평동 549-38",
    "road_address": "인천 부평구 부평대로 5",
    "lat": 37.49193770581871,
    "lng": 126.72282819373002,
    "phone": "070-7459-7074",
    "url": "http://place.map.kakao.com/1493578433",
    "category": "음식점 > 패스트푸드 > 버거킹"
  },
  {
    "id": "721351936",
    "name": "버거킹 인천구월아시아드SK점",
    "address": "인천 남동구 구월동 1506",
    "road_address": "",
    "lat": 37.44682663367908,
    "lng": 126.71812852929212,
    "phone": "032-469-0332",
    "url": "http://place.map.kakao.com/721351936",
    "category": "음식점 > 패스트푸드 > 버거킹"
  },
  {
    "id": "1531248592",
    "name": "버거킹 인천계양구청점",
    "address": "인천 계양구 계산동 1063-12",
    "road_address": "인천 계양구 장제로 804",
    "lat": 37.5395148191153,
    "lng": 126.734886971662,
    "phone": "032-552-0332",
    "url": "http://place.map.kakao.com/1531248592",
    "category": "음식점 > 패스트푸드 > 버거킹"
  },
  {
    "id": "27420290",
    "name": "버거킹 인천연수점",
    "address": "인천 연수구 연수동 596-6",
    "road_address": "인천 연수구 용담로 111",
    "lat": 37.415317297830086,
    "lng": 126.67726073775552,
    "phone": "010-3982-8128",
    "url": "http://place.map.kakao.com/27420290",
    "category": "음식점 > 패스트푸드 > 버거킹"
  },
  {
    "id": "27585314",
    "name": "버거킹 영종하늘도시DT점",
    "address": "인천 중구 중산동 1878-4",
    "road_address": "인천 중구 자연대로 55",
    "lat": 37.4892085702763,
    "lng": 126.558436141102,
    "phone": "032-747-0340",
    "url": "http://place.map.kakao.com/27585314",
    "category": "음식점 > 패스트푸드 > 버거킹"
  },
  {
    "id": "1643396580",
    "name": "버거킹 인하대역점",
    "address": "인천 미추홀구 용현동 665-15",
    "road_address": "인천 미추홀구 독배로 309",
    "lat": 37.4479048712324,
    "lng": 126.649338260555,
    "phone": "070-7438-6573",
    "url": "http://place.map.kakao.com/1643396580",
    "category": "음식점 > 패스트푸드 > 버거킹"
  },
  {
    "id": "1832705620",
    "name": "버거킹 인천구월점",
    "address": "인천 남동구 구월동 1470-1",
    "road_address": "인천 남동구 인하로 501",
    "lat": 37.44342827847281,
    "lng": 126.70242919606162,
    "phone": "070-7459-7060",
    "url": "http://place.map.kakao.com/1832705620",
    "category": "음식점 > 패스트푸드 > 버거킹"
  },
  {
    "id": "718923538",
    "name": "버거킹 인천간석사거리점",
    "address": "인천 남동구 구월동 1249",
    "road_address": "인천 남동구 호구포로 878",
    "lat": 37.4606284645666,
    "lng": 126.720469574138,
    "phone": "070-7459-7535",
    "url": "http://place.map.kakao.com/718923538",
    "category": "음식점 > 패스트푸드 > 버거킹"
  },
  {
    "id": "1327142396",
    "name": "버거킹 인천신현점",
    "address": "인천 서구 신현동 303",
    "road_address": "인천 서구 가정로 375",
    "lat": 37.5182909760216,
    "lng": 126.67276366038,
    "phone": "070-7459-7031",
    "url": "http://place.map.kakao.com/1327142396",
    "category": "음식점 > 패스트푸드 > 버거킹"
  },
  {
    "id": "1100003244",
    "name": "버거킹 인천검암점",
    "address": "인천 서구 검암동 610-5",
    "road_address": "인천 서구 승학로 504",
    "lat": 37.56512410046014,
    "lng": 126.6757960700291,
    "phone": "070-7459-7352",
    "url": "http://place.map.kakao.com/1100003244",
    "category": "음식점 > 패스트푸드 > 버거킹"
  },
  {
    "id": "736482685",
    "name": "버거킹 인천완정역점",
    "address": "인천 서구 마전동 1015-5",
    "road_address": "인천 서구 원당대로 651",
    "lat": 37.59391197251538,
    "lng": 126.67362853117388,
    "phone": "070-7462-6858",
    "url": "http://place.map.kakao.com/736482685",
    "category": "음식점 > 패스트푸드 > 버거킹"
  },
  {
    "id": "100106519",
    "name": "버거킹 인천숭의역점",
    "address": "인천 미추홀구 숭의동",
    "road_address": "인천 미추홀구 인주대로 5",
    "lat": 37.460973218306535,
    "lng": 126.63920059648163,
    "phone": "070-7459-7523",
    "url": "http://place.map.kakao.com/100106519",
    "category": "음식점 > 패스트푸드 > 버거킹"
  },
  {
    "id": "218601001",
    "name": "버거킹 인천청라호수공원점",
    "address": "인천 서구 청라동 152-23",
    "road_address": "인천 서구 크리스탈로74번길 31",
    "lat": 37.5320582856716,
    "lng": 126.640255690517,
    "phone": "070-7459-7236",
    "url": "http://place.map.kakao.com/218601001",
    "category": "음식점 > 패스트푸드 > 버거킹"
  },
  {
    "id": "27331467",
    "name": "버거킹 인천논현점",
    "address": "인천 남동구 논현동 747-1",
    "road_address": "인천 남동구 논고개로 61",
    "lat": 37.39783376894806,
    "lng": 126.72727807211633,
    "phone": "032-431-0332",
    "url": "http://place.map.kakao.com/27331467",
    "category": "음식점 > 패스트푸드 > 버거킹"
  },
  {
    "id": "1263230193",
    "name": "버거킹 인천공항T1교통센터점",
    "address": "인천 중구 운서동 2851",
    "road_address": "",
    "lat": 37.447926732561506,
    "lng": 126.4516007190301,
    "phone": "070-7459-7367",
    "url": "http://place.map.kakao.com/1263230193",
    "category": "음식점 > 패스트푸드 > 버거킹"
  },
  {
    "id": "1140058645",
    "name": "버거킹 송도타임스페이스점",
    "address": "인천 연수구 송도동 8-21",
    "road_address": "인천 연수구 하모니로 158",
    "lat": 37.383001899828265,
    "lng": 126.6423555604727,
    "phone": "070-7462-8679",
    "url": "http://place.map.kakao.com/1140058645",
    "category": "음식점 > 패스트푸드 > 버거킹"
  },
  {
    "id": "1222223953",
    "name": "버거킹 인천학익점",
    "address": "인천 미추홀구 학익동 255-13",
    "road_address": "인천 미추홀구 소성로 150",
    "lat": 37.4423208534116,
    "lng": 126.665023039108,
    "phone": "070-7459-6856",
    "url": "http://place.map.kakao.com/1222223953",
    "category": "음식점 > 패스트푸드 > 버거킹"
  },
  {
    "id": "1031913864",
    "name": "버거킹 인천검단점",
    "address": "인천 서구 왕길동 659-2",
    "road_address": "인천 서구 검단로 470",
    "lat": 37.60157406739384,
    "lng": 126.65682834832522,
    "phone": "070-7462-6724",
    "url": "http://place.map.kakao.com/1031913864",
    "category": "음식점 > 패스트푸드 > 버거킹"
  },
  {
    "id": "1035805981",
    "name": "버거킹 인천도화점",
    "address": "인천 미추홀구 도화동 1011",
    "road_address": "인천 미추홀구 숙골로88번길 12",
    "lat": 37.46991833260532,
    "lng": 126.6639232296288,
    "phone": "070-7462-8537",
    "url": "http://place.map.kakao.com/1035805981",
    "category": "음식점 > 패스트푸드 > 버거킹"
  },
  {
    "id": "1496780572",
    "name": "버거킹 인천운서역점",
    "address": "인천 중구 운서동 2803-1",
    "road_address": "인천 중구 신도시남로142번길 6",
    "lat": 37.4934340393852,
    "lng": 126.492228562058,
    "phone": "070-7459-7029",
    "url": "http://place.map.kakao.com/1496780572",
    "category": "음식점 > 패스트푸드 > 버거킹"
  },
  {
    "id": "1071078063",
    "name": "버거킹 인천만수역점",
    "address": "인천 남동구 만수동 956",
    "road_address": "인천 남동구 구월로 376",
    "lat": 37.45468962139041,
    "lng": 126.73241200557445,
    "phone": "070-7462-6746",
    "url": "http://place.map.kakao.com/1071078063",
    "category": "음식점 > 패스트푸드 > 버거킹"
  },
  {
    "id": "34559207",
    "name": "버거킹 검단신도시점",
    "address": "인천 서구 원당동 1041-10",
    "road_address": "인천 서구 원당대로 983",
    "lat": 37.5923750820881,
    "lng": 126.710665600535,
    "phone": "070-7459-7591",
    "url": "http://place.map.kakao.com/34559207",
    "category": "음식점 > 패스트푸드 > 버거킹"
  },
  {
    "id": "1360455517",
    "name": "버거킹 송도현대아울렛점",
    "address": "인천 연수구 송도동 168-1",
    "road_address": "인천 연수구 송도국제대로 123",
    "lat": 37.38108511092992,
    "lng": 126.65808854491853,
    "phone": "070-7462-9975",
    "url": "http://place.map.kakao.com/1360455517",
    "category": "음식점 > 패스트푸드 > 버거킹"
  },
  {
    "id": "99575115",
    "name": "버거킹 인천연수HP점",
    "address": "인천 연수구 동춘동 926",
    "road_address": "인천 연수구 청능대로 210",
    "lat": 37.4062921852443,
    "lng": 126.683730722614,
    "phone": "032-815-2176",
    "url": "http://place.map.kakao.com/99575115",
    "category": "음식점 > 패스트푸드 > 버거킹"
  },
  {
    "id": "82613403",
    "name": "버거킹 인천서창SK점",
    "address": "인천 남동구 서창동 728",
    "road_address": "인천 남동구 서창방산로 112",
    "lat": 37.424906357586366,
    "lng": 126.756889279197,
    "phone": "070-7438-6520",
    "url": "http://place.map.kakao.com/82613403",
    "category": "음식점 > 패스트푸드 > 버거킹"
  },
  {
    "id": "455349515",
    "name": "버거킹 인천공항T2교통센터점",
    "address": "인천 중구 운서동 2868-8",
    "road_address": "",
    "lat": 37.46858922747418,
    "lng": 126.43398499375009,
    "phone": "070-7459-7300",
    "url": "http://place.map.kakao.com/455349515",
    "category": "음식점 > 패스트푸드 > 버거킹"
  },
  {
    "id": "194954871",
    "name": "버거킹 인천계산점",
    "address": "인천 계양구 계산동 945-3",
    "road_address": "인천 계양구 경명대로 1074",
    "lat": 37.5430972253167,
    "lng": 126.726217977992,
    "phone": "032-7459-7576",
    "url": "http://place.map.kakao.com/194954871",
    "category": "음식점 > 패스트푸드 > 버거킹"
  },
  {
    "id": "1074315504",
    "name": "버거킹 부평역남부점",
    "address": "인천 부평구 부평동 645-33",
    "road_address": "인천 부평구 경인로 956",
    "lat": 37.4872688285438,
    "lng": 126.725974093687,
    "phone": "070-7459-6890",
    "url": "http://place.map.kakao.com/1074315504",
    "category": "음식점 > 패스트푸드 > 버거킹"
  },
  {
    "id": "1992451764",
    "name": "버거킹 삼산SK점 주차장",
    "address": "인천 부평구 삼산동 270-4",
    "road_address": "인천 부평구 장제로 347",
    "lat": 37.5162685042412,
    "lng": 126.731857467986,
    "phone": "",
    "url": "http://place.map.kakao.com/1992451764",
    "category": "교통,수송 > 교통시설 > 주차장"
  },
  {
    "id": "950241073",
    "name": "버거킹 영종하늘도시DT점 주차장",
    "address": "인천 중구 중산동 1878-4",
    "road_address": "인천 중구 자연대로 55",
    "lat": 37.4891181002469,
    "lng": 126.558337169991,
    "phone": "",
    "url": "http://place.map.kakao.com/950241073",
    "category": "교통,수송 > 교통시설 > 주차장"
  },
  {
    "id": "106498964",
    "name": "버거킹 인천구월아시아드SK점 주차장",
    "address": "인천 남동구 구월동 1506",
    "road_address": "",
    "lat": 37.4469301331671,
    "lng": 126.718079546971,
    "phone": "",
    "url": "http://place.map.kakao.com/106498964",
    "category": "교통,수송 > 교통시설 > 주차장"
  },
  {
    "id": "27398519",
    "name": "버거킹 전남대후문점",
    "address": "광주 북구 중흥동 279-60",
    "road_address": "광주 북구 우치로 76",
    "lat": 35.17411452875004,
    "lng": 126.91290352521224,
    "phone": "062-251-0332",
    "url": "http://place.map.kakao.com/27398519",
    "category": "음식점 > 패스트푸드 > 버거킹"
  },
  {
    "id": "771844993",
    "name": "버거킹 광주주월에스오일점",
    "address": "광주 남구 주월동 496-1",
    "road_address": "광주 남구 회재로 1190-1",
    "lat": 35.131837033693984,
    "lng": 126.89156205435592,
    "phone": "070-7438-8609",
    "url": "http://place.map.kakao.com/771844993",
    "category": "음식점 > 패스트푸드 > 버거킹"
  },
  {
    "id": "26313006",
    "name": "버거킹 광주수완점",
    "address": "광주 광산구 수완동 1429",
    "road_address": "광주 광산구 장신로 142",
    "lat": 35.19048363740639,
    "lng": 126.82566568514822,
    "phone": "062-953-0233",
    "url": "http://place.map.kakao.com/26313006",
    "category": "음식점 > 패스트푸드 > 버거킹"
  },
  {
    "id": "1992612755",
    "name": "버거킹 광주수완DT점",
    "address": "광주 광산구 수완동 669-5",
    "road_address": "광주 광산구 임방울대로 499",
    "lat": 35.20408012088208,
    "lng": 126.81923104267509,
    "phone": "070-7462-6758",
    "url": "http://place.map.kakao.com/1992612755",
    "category": "음식점 > 패스트푸드 > 버거킹"
  },
  {
    "id": "1497385992",
    "name": "버거킹 광주충장점",
    "address": "광주 동구 충장로1가 8-7",
    "road_address": "광주 동구 충장로 101-4",
    "lat": 35.1471224526157,
    "lng": 126.918112019218,
    "phone": "070-7462-8548",
    "url": "http://place.map.kakao.com/1497385992",
    "category": "음식점 > 패스트푸드 > 버거킹"
  },
  {
    "id": "1575472160",
    "name": "버거킹 광주상무점",
    "address": "광주 서구 치평동 1185",
    "road_address": "광주 서구 치평로 106",
    "lat": 35.1568615446041,
    "lng": 126.84797009405405,
    "phone": "070-7459-7329",
    "url": "http://place.map.kakao.com/1575472160",
    "category": "음식점 > 패스트푸드 > 버거킹"
  },
  {
    "id": "1131105642",
    "name": "버거킹 광주첨단2지구점",
    "address": "광주 북구 신용동 731",
    "road_address": "광주 북구 첨단연신로91번길 10",
    "lat": 35.20641544212503,
    "lng": 126.86315369619433,
    "phone": "062-574-2457",
    "url": "http://place.map.kakao.com/1131105642",
    "category": "음식점 > 패스트푸드 > 버거킹"
  },
  {
    "id": "1020706511",
    "name": "버거킹 광주운암점",
    "address": "광주 북구 운암동 352-11",
    "road_address": "광주 북구 북문대로 101",
    "lat": 35.1785982713237,
    "lng": 126.876099740672,
    "phone": "070-7462-8654",
    "url": "http://place.map.kakao.com/1020706511",
    "category": "음식점 > 패스트푸드 > 버거킹"
  },
  {
    "id": "117956425",
    "name": "버거킹 광주하남점",
    "address": "광주 광산구 우산동 1587-1",
    "road_address": "광주 광산구 풍영철길로 15",
    "lat": 35.162837483368456,
    "lng": 126.81079940796235,
    "phone": "062-611-7324",
    "url": "http://place.map.kakao.com/117956425",
    "category": "음식점 > 패스트푸드 > 버거킹"
  },
  {
    "id": "19615882",
    "name": "버거킹 광주봉선점",
    "address": "광주 남구 봉선동 107-17",
    "road_address": "광주 남구 봉선로 180",
    "lat": 35.1228916396225,
    "lng": 126.91495476082,
    "phone": "062-671-0331",
    "url": "http://place.map.kakao.com/19615882",
    "category": "음식점 > 패스트푸드 > 버거킹"
  },
  {
    "id": "926421298",
    "name": "버거킹 광주효천2지구점",
    "address": "광주 남구 행암동 588",
    "road_address": "광주 남구 효우2로 34",
    "lat": 35.1017420068248,
    "lng": 126.888324711839,
    "phone": "062-675-0577",
    "url": "http://place.map.kakao.com/926421298",
    "category": "음식점 > 패스트푸드 > 버거킹"
  },
  {
    "id": "24789179",
    "name": "버거킹 광주월계점",
    "address": "광주 광산구 월계동 889-1",
    "road_address": "광주 광산구 첨단중앙로 104",
    "lat": 35.214559267142285,
    "lng": 126.84318271942978,
    "phone": "062-973-5599",
    "url": "http://place.map.kakao.com/24789179",
    "category": "음식점 > 패스트푸드 > 버거킹"
  },
  {
    "id": "423158860",
    "name": "버거킹 광주신창점",
    "address": "광주 광산구 신창동 1224-3",
    "road_address": "광주 광산구 신창로 82",
    "lat": 35.1924811892119,
    "lng": 126.837439750024,
    "phone": "062-953-8996",
    "url": "http://place.map.kakao.com/423158860",
    "category": "음식점 > 패스트푸드 > 버거킹"
  },
  {
    "id": "1967211079",
    "name": "버거킹 광주두암점",
    "address": "광주 북구 두암동 566-7",
    "road_address": "광주 북구 동문대로 181",
    "lat": 35.1785416649288,
    "lng": 126.92897091402034,
    "phone": "070-7459-7276",
    "url": "http://place.map.kakao.com/1967211079",
    "category": "음식점 > 패스트푸드 > 버거킹"
  },
  {
    "id": "1931331609",
    "name": "버거킹 광주진월점",
    "address": "광주 남구 진월동 259",
    "road_address": "광주 남구 서문대로 683",
    "lat": 35.1202200793411,
    "lng": 126.898653349307,
    "phone": "",
    "url": "http://place.map.kakao.com/1931331609",
    "category": "음식점 > 패스트푸드 > 버거킹"
  },
  {
    "id": "27418942",
    "name": "버거킹 광주일곡점",
    "address": "광주 북구 일곡동 841-6",
    "road_address": "광주 북구 설죽로 495",
    "lat": 35.2033412183603,
    "lng": 126.898205370795,
    "phone": "062-573-0305",
    "url": "http://place.map.kakao.com/27418942",
    "category": "음식점 > 패스트푸드 > 버거킹"
  },
  {
    "id": "26537335",
    "name": "버거킹 호남대점",
    "address": "광주 광산구 선암동 764",
    "road_address": "광주 광산구 어등대로 418-1",
    "lat": 35.148823814541,
    "lng": 126.76953701884,
    "phone": "062-946-7700",
    "url": "http://place.map.kakao.com/26537335",
    "category": "음식점 > 패스트푸드 > 버거킹"
  },
  {
    "id": "378751591",
    "name": "버거킹 광주농성점",
    "address": "광주 서구 화정동 177-1",
    "road_address": "광주 서구 죽봉대로 37",
    "lat": 35.1566298407094,
    "lng": 126.882806021115,
    "phone": "",
    "url": "http://place.map.kakao.com/378751591",
    "category": "음식점 > 패스트푸드 > 버거킹"
  },
  {
    "id": "205142726",
    "name": "버거킹 광주수완DT점 주차장",
    "address": "광주 광산구 수완동 669-5",
    "road_address": "광주 광산구 임방울대로 499",
    "lat": 35.2040386539295,
    "lng": 126.819227840075,
    "phone": "",
    "url": "http://place.map.kakao.com/205142726",
    "category": "교통,수송 > 교통시설 > 주차장"
  },
  {
    "id": "18474016",
    "name": "버거킹 대전둔산1점",
    "address": "대전 서구 둔산동 1044",
    "road_address": "대전 서구 대덕대로 193",
    "lat": 36.350491934487465,
    "lng": 127.3775220770047,
    "phone": "070-7462-6805",
    "url": "http://place.map.kakao.com/18474016",
    "category": "음식점 > 패스트푸드 > 버거킹"
  },
  {
    "id": "1293159573",
    "name": "버거킹 대전용두DT점",
    "address": "대전 중구 용두동 29-5",
    "road_address": "대전 중구 계룡로 853",
    "lat": 36.3250489268481,
    "lng": 127.40983284846027,
    "phone": "042-221-0332",
    "url": "http://place.map.kakao.com/1293159573",
    "category": "음식점 > 패스트푸드 > 버거킹"
  },
  {
    "id": "27290279",
    "name": "버거킹 대전터미널DT점",
    "address": "대전 동구 성남동 502-7",
    "road_address": "대전 동구 동서대로 1664",
    "lat": 36.34813923114212,
    "lng": 127.43496762174128,
    "phone": "042-624-0332",
    "url": "http://place.map.kakao.com/27290279",
    "category": "음식점 > 패스트푸드 > 버거킹"
  },
  {
    "id": "17419366",
    "name": "버거킹 대전시청점",
    "address": "대전 서구 둔산동 1497",
    "road_address": "대전 서구 문예로 35",
    "lat": 36.34984189577665,
    "lng": 127.38996039888387,
    "phone": "042-489-0331",
    "url": "http://place.map.kakao.com/17419366",
    "category": "음식점 > 패스트푸드 > 버거킹"
  },
  {
    "id": "212440706",
    "name": "버거킹 대전유성온천역점",
    "address": "대전 유성구 봉명동 551-14",
    "road_address": "대전 유성구 대학로 8",
    "lat": 36.35420430622536,
    "lng": 127.34206178497934,
    "phone": "070-7462-6759",
    "url": "http://place.map.kakao.com/212440706",
    "category": "음식점 > 패스트푸드 > 버거킹"
  },
  {
    "id": "16121385",
    "name": "버거킹 대전월평점",
    "address": "대전 서구 월평동 235",
    "road_address": "대전 서구 월평북로 81",
    "lat": 36.362393330872386,
    "lng": 127.37736674053596,
    "phone": "070-7462-6717",
    "url": "http://place.map.kakao.com/16121385",
    "category": "음식점 > 패스트푸드 > 버거킹"
  },
  {
    "id": "25130610",
    "name": "버거킹 대전반석DT점",
    "address": "대전 유성구 하기동 511-1",
    "road_address": "대전 유성구 북유성대로 288",
    "lat": 36.390786653636326,
    "lng": 127.31617346380919,
    "phone": "042-825-0410",
    "url": "http://place.map.kakao.com/25130610",
    "category": "음식점 > 패스트푸드 > 버거킹"
  },
  {
    "id": "1843474910",
    "name": "버거킹 대전관저점",
    "address": "대전 서구 관저동 1341",
    "road_address": "대전 서구 구봉로147번길 68-12",
    "lat": 36.29920843380435,
    "lng": 127.33906717333826,
    "phone": "070-7462-6766",
    "url": "http://place.map.kakao.com/1843474910",
    "category": "음식점 > 패스트푸드 > 버거킹"
  },
  {
    "id": "26431781",
    "name": "버거킹 대전도안점",
    "address": "대전 서구 도안동 849",
    "road_address": "대전 서구 동서대로 682",
    "lat": 36.33184922450896,
    "lng": 127.33874968436781,
    "phone": "042-825-0282",
    "url": "http://place.map.kakao.com/26431781",
    "category": "음식점 > 패스트푸드 > 버거킹"
  },
  {
    "id": "1353092817",
    "name": "버거킹 대전도마점",
    "address": "대전 서구 도마동 173-1",
    "road_address": "대전 서구 계백로 1426",
    "lat": 36.3125803860103,
    "lng": 127.37948158007887,
    "phone": "070-7772-1107",
    "url": "http://place.map.kakao.com/1353092817",
    "category": "음식점 > 패스트푸드 > 버거킹"
  },
  {
    "id": "2046561447",
    "name": "버거킹 대전노은역점",
    "address": "대전 유성구 지족동 902-6",
    "road_address": "대전 유성구 은구비남로33번길 61",
    "lat": 36.37519021886151,
    "lng": 127.31916822167219,
    "phone": "070-7462-6875",
    "url": "http://place.map.kakao.com/2046561447",
    "category": "음식점 > 패스트푸드 > 버거킹"
  },
  {
    "id": "189715116",
    "name": "버거킹 대전대동DT점",
    "address": "대전 동구 대동 200-14",
    "road_address": "대전 동구 계족로 120",
    "lat": 36.32493151656934,
    "lng": 127.44590515359657,
    "phone": "070-7462-8639",
    "url": "http://place.map.kakao.com/189715116",
    "category": "음식점 > 패스트푸드 > 버거킹"
  },
  {
    "id": "21686089",
    "name": "버거킹 대전관평점",
    "address": "대전 유성구 관평동 937",
    "road_address": "대전 유성구 테크노4로 105",
    "lat": 36.42547309857785,
    "lng": 127.38977960717813,
    "phone": "042-934-0113",
    "url": "http://place.map.kakao.com/21686089",
    "category": "음식점 > 패스트푸드 > 버거킹"
  },
  {
    "id": "939003338",
    "name": "버거킹 대전문지점",
    "address": "대전 유성구 문지동 632-7",
    "road_address": "대전 유성구 문지로 311-32",
    "lat": 36.39481636309,
    "lng": 127.405208437148,
    "phone": "042-861-9934",
    "url": "http://place.map.kakao.com/939003338",
    "category": "음식점 > 패스트푸드 > 버거킹"
  },
  {
    "id": "1762789792",
    "name": "버거킹 대전가오점",
    "address": "대전 동구 가오동 606",
    "road_address": "대전 동구 은어송로 63",
    "lat": 36.3066697252557,
    "lng": 127.456024492293,
    "phone": "070-4759-7285",
    "url": "http://place.map.kakao.com/1762789792",
    "category": "음식점 > 패스트푸드 > 버거킹"
  },
  {
    "id": "163926238",
    "name": "버거킹 대전용문역점",
    "address": "대전 서구 용문동 589-12",
    "road_address": "대전 서구 계룡로 630",
    "lat": 36.3390023804103,
    "lng": 127.391942516747,
    "phone": "070-7462-6864",
    "url": "http://place.map.kakao.com/163926238",
    "category": "음식점 > 패스트푸드 > 버거킹"
  },
  {
    "id": "1990119712",
    "name": "버거킹 대전현대아울렛점",
    "address": "대전 유성구 용산동 579",
    "road_address": "대전 유성구 테크노중앙로 123",
    "lat": 36.42333276793311,
    "lng": 127.39907533466223,
    "phone": "042-332-2811",
    "url": "http://place.map.kakao.com/1990119712",
    "category": "음식점 > 패스트푸드 > 버거킹"
  },
  {
    "id": "148529845",
    "name": "버거킹 대전신탄진D점",
    "address": "대전 대덕구 석봉동 309-11",
    "road_address": "대전 대덕구 대덕대로 1554",
    "lat": 36.4491675587241,
    "lng": 127.420770293814,
    "phone": "",
    "url": "http://place.map.kakao.com/148529845",
    "category": "음식점 > 패스트푸드 > 버거킹"
  },
  {
    "id": "1130291145",
    "name": "버거킹 대전용두DT점 주차장",
    "address": "대전 중구 용두동 29-22",
    "road_address": "",
    "lat": 36.3250580604516,
    "lng": 127.410060085712,
    "phone": "",
    "url": "http://place.map.kakao.com/1130291145",
    "category": "교통,수송 > 교통시설 > 주차장"
  },
  {
    "id": "972042319",
    "name": "버거킹 대전터미널DT점 주차장",
    "address": "대전 동구 성남동 502-7",
    "road_address": "",
    "lat": 36.3481496921973,
    "lng": 127.435064598046,
    "phone": "",
    "url": "http://place.map.kakao.com/972042319",
    "category": "교통,수송 > 교통시설 > 주차장"
  },
  {
    "id": "1226553156",
    "name": "워터 버거킹 대전용두DT 전기차충전소",
    "address": "대전 중구 용두동 29-2",
    "road_address": "대전 중구 동서대로1322번길 106",
    "lat": 36.325219922224946,
    "lng": 127.40989945073508,
    "phone": "",
    "url": "http://place.map.kakao.com/1226553156",
    "category": "교통,수송 > 자동차 > 전기차 충전소"
  },
  {
    "id": "499433648",
    "name": "버거킹 신정FS점",
    "address": "울산 남구 신정동 1336-10",
    "road_address": "울산 남구 봉월로 97",
    "lat": 35.541241833360466,
    "lng": 129.3053898960991,
    "phone": "052-268-5888",
    "url": "http://place.map.kakao.com/499433648",
    "category": "음식점 > 패스트푸드 > 버거킹"
  },
  {
    "id": "1223296661",
    "name": "버거킹 울산삼산점",
    "address": "울산 남구 삼산동 1523-7",
    "road_address": "울산 남구 삼산로277번길 8",
    "lat": 35.540107027916875,
    "lng": 129.33736318907452,
    "phone": "070-7462-8589",
    "url": "http://place.map.kakao.com/1223296661",
    "category": "음식점 > 패스트푸드 > 버거킹"
  },
  {
    "id": "153048885",
    "name": "버거킹 울산북구청DT점",
    "address": "울산 북구 화봉동 982-8",
    "road_address": "울산 북구 안기번득길 23",
    "lat": 35.585892720471534,
    "lng": 129.3586082995948,
    "phone": "070-7462-6874",
    "url": "http://place.map.kakao.com/153048885",
    "category": "음식점 > 패스트푸드 > 버거킹"
  },
  {
    "id": "1330026302",
    "name": "버거킹 울산동구오일뱅크점",
    "address": "울산 동구 서부동 279-4",
    "road_address": "울산 동구 방어진순환도로 1023",
    "lat": 35.53235608669982,
    "lng": 129.432454854787,
    "phone": "052-232-0331",
    "url": "http://place.map.kakao.com/1330026302",
    "category": "음식점 > 패스트푸드 > 버거킹"
  },
  {
    "id": "27327613",
    "name": "버거킹 울산우정SK점",
    "address": "울산 중구 유곡동 480-8",
    "road_address": "울산 중구 북부순환도로 323",
    "lat": 35.55947190429433,
    "lng": 129.29662514081735,
    "phone": "052-246-0332",
    "url": "http://place.map.kakao.com/27327613",
    "category": "음식점 > 패스트푸드 > 버거킹"
  },
  {
    "id": "418612051",
    "name": "버거킹 울산무거점",
    "address": "울산 남구 무거동 859-6",
    "road_address": "울산 남구 대학로 157",
    "lat": 35.5486584719529,
    "lng": 129.26250219616333,
    "phone": "052-249-0332",
    "url": "http://place.map.kakao.com/418612051",
    "category": "음식점 > 패스트푸드 > 버거킹"
  },
  {
    "id": "299586563",
    "name": "버거킹 울산옥동점",
    "address": "울산 남구 옥동 252-6",
    "road_address": "울산 남구 문수로 326",
    "lat": 35.5350042418602,
    "lng": 129.28900542454,
    "phone": "070-7438-6558",
    "url": "http://place.map.kakao.com/299586563",
    "category": "음식점 > 패스트푸드 > 버거킹"
  },
  {
    "id": "1533488680",
    "name": "버거킹 울산일산점",
    "address": "울산 동구 일산동 952-1",
    "road_address": "울산 동구 방어진순환도로 626",
    "lat": 35.4977172111116,
    "lng": 129.428216500328,
    "phone": "070-7459-7555",
    "url": "http://place.map.kakao.com/1533488680",
    "category": "음식점 > 패스트푸드 > 버거킹"
  },
  {
    "id": "509234185",
    "name": "버거킹 울산구영DT점",
    "address": "울산 울주군 범서읍 구영리 378-8",
    "road_address": "울산 울주군 범서읍 구영로 159",
    "lat": 35.5686472614217,
    "lng": 129.244029274941,
    "phone": "052-245-5400",
    "url": "http://place.map.kakao.com/509234185",
    "category": "음식점 > 패스트푸드 > 버거킹"
  },
  {
    "id": "692554797",
    "name": "버거킹 울산국가정원점",
    "address": "울산 중구 태화동 121-2",
    "road_address": "울산 중구 태화로 240",
    "lat": 35.552020296972614,
    "lng": 129.30148004434741,
    "phone": "070-4103-2500",
    "url": "http://place.map.kakao.com/692554797",
    "category": "음식점 > 패스트푸드 > 버거킹"
  },
  {
    "id": "95740514",
    "name": "버거킹 울산호계DT점",
    "address": "울산 북구 신천동 386-30",
    "road_address": "울산 북구 산업로 1426",
    "lat": 35.63335469748726,
    "lng": 129.34558377527324,
    "phone": "070-7462-8544",
    "url": "http://place.map.kakao.com/95740514",
    "category": "음식점 > 패스트푸드 > 버거킹"
  },
  {
    "id": "1723924626",
    "name": "버거킹 울산성남점",
    "address": "울산 중구 성남동 251-2",
    "road_address": "울산 중구 만남의거리 15",
    "lat": 35.55421834284073,
    "lng": 129.32067899991273,
    "phone": "070-7438-6529",
    "url": "http://place.map.kakao.com/1723924626",
    "category": "음식점 > 패스트푸드 > 버거킹"
  },
  {
    "id": "484966147",
    "name": "버거킹 울산북구청DT점 주차장",
    "address": "울산 북구 화봉동 982-8",
    "road_address": "울산 북구 안기번득길 23",
    "lat": 35.5858820340394,
    "lng": 129.358509814563,
    "phone": "",
    "url": "http://place.map.kakao.com/484966147",
    "category": "교통,수송 > 교통시설 > 주차장"
  },
  {
    "id": "1153925575",
    "name": "버거킹 울산신정FS점 주차장",
    "address": "울산 남구 신정동 1336-10",
    "road_address": "",
    "lat": 35.5412096583459,
    "lng": 129.305611669853,
    "phone": "",
    "url": "http://place.map.kakao.com/1153925575",
    "category": "교통,수송 > 교통시설 > 주차장"
  },
  {
    "id": "847734048",
    "name": "버거킹 울산호계DT점 주차장",
    "address": "울산 북구 신천동 386-9",
    "road_address": "울산 북구 산업로 1426",
    "lat": 35.633328410152,
    "lng": 129.345591836512,
    "phone": "",
    "url": "http://place.map.kakao.com/847734048",
    "category": "교통,수송 > 교통시설 > 주차장"
  },
  {
    "id": "1249324332",
    "name": "버거킹 충남대병원DT점",
    "address": "세종특별자치시 도담동 631",
    "road_address": "세종특별자치시 보듬5로 6",
    "lat": 36.516387785587156,
    "lng": 127.25816014785441,
    "phone": "044-862-7676",
    "url": "http://place.map.kakao.com/1249324332",
    "category": "음식점 > 패스트푸드 > 버거킹"
  },
  {
    "id": "26777372",
    "name": "버거킹 세종행복새롬점",
    "address": "세종특별자치시 새롬동 609",
    "road_address": "세종특별자치시 어울로 77",
    "lat": 36.481908273863,
    "lng": 127.25372152929748,
    "phone": "044-864-0894",
    "url": "http://place.map.kakao.com/26777372",
    "category": "음식점 > 패스트푸드 > 버거킹"
  },
  {
    "id": "1162919527",
    "name": "버거킹 세종반곡점",
    "address": "세종특별자치시 반곡동 771-68",
    "road_address": "세종특별자치시 한누리대로 1948",
    "lat": 36.49066081390742,
    "lng": 127.30295646897258,
    "phone": "070-8848-3955",
    "url": "http://place.map.kakao.com/1162919527",
    "category": "음식점 > 패스트푸드 > 버거킹"
  },
  {
    "id": "1504544162",
    "name": "버거킹 세종조치원DT점",
    "address": "세종특별자치시 조치원읍 침산리 45-6",
    "road_address": "세종특별자치시 조치원읍 세종로 2425",
    "lat": 36.6035363018078,
    "lng": 127.28935377962806,
    "phone": "070-7462-8557",
    "url": "http://place.map.kakao.com/1504544162",
    "category": "음식점 > 패스트푸드 > 버거킹"
  },
  {
    "id": "1454696215",
    "name": "버거킹 세종고운점",
    "address": "세종특별자치시 아름동 1316",
    "road_address": "세종특별자치시 보듬3로 154",
    "lat": 36.51214905047692,
    "lng": 127.24256400661096,
    "phone": "070-7438-6515",
    "url": "http://place.map.kakao.com/1454696215",
    "category": "음식점 > 패스트푸드 > 버거킹"
  },
  {
    "id": "2037010635",
    "name": "버거킹 세종조치원DT점 주차장",
    "address": "세종특별자치시 조치원읍 침산리 45-6",
    "road_address": "세종특별자치시 조치원읍 세종로 2425",
    "lat": 36.6036039246281,
    "lng": 127.289338384827,
    "phone": "",
    "url": "http://place.map.kakao.com/2037010635",
    "category": "교통,수송 > 교통시설 > 주차장"
  },
  {
    "id": "24666130",
    "name": "버거킹 평촌금성GS점",
    "address": "경기 안양시 동안구 관양동 1746-4",
    "road_address": "경기 안양시 동안구 시민대로 325",
    "lat": 37.39606387455273,
    "lng": 126.96616067425335,
    "phone": "031-423-0332",
    "url": "http://place.map.kakao.com/24666130",
    "category": "음식점 > 패스트푸드 > 버거킹"
  },
  {
    "id": "743841624",
    "name": "버거킹 안양관양점",
    "address": "경기 안양시 동안구 관양동 1443-2",
    "road_address": "경기 안양시 동안구 관악대로 312",
    "lat": 37.40276202780592,
    "lng": 126.95764625389522,
    "phone": "070-7462-6734",
    "url": "http://place.map.kakao.com/743841624",
    "category": "음식점 > 패스트푸드 > 버거킹"
  },
  {
    "id": "178504902",
    "name": "버거킹 하남미사점",
    "address": "경기 하남시 풍산동 522-1",
    "road_address": "경기 하남시 미사강변대로 48",
    "lat": 37.55431961003908,
    "lng": 127.18609259179576,
    "phone": "070-7462-6877",
    "url": "http://place.map.kakao.com/178504902",
    "category": "음식점 > 패스트푸드 > 버거킹"
  },
  {
    "id": "27504467",
    "name": "버거킹 구리SK점",
    "address": "경기 구리시 수택동 370-3",
    "road_address": "경기 구리시 경춘로 196",
    "lat": 37.60031304135345,
    "lng": 127.13707287924653,
    "phone": "070-7462-8798",
    "url": "http://place.map.kakao.com/27504467",
    "category": "음식점 > 패스트푸드 > 버거킹"
  },
  {
    "id": "904788487",
    "name": "버거킹 수원영통점",
    "address": "경기 수원시 영통구 영통동 958-1",
    "road_address": "경기 수원시 영통구 봉영로 1623",
    "lat": 37.25597756606002,
    "lng": 127.07509660176008,
    "phone": "031-205-0335",
    "url": "http://place.map.kakao.com/904788487",
    "category": "음식점 > 패스트푸드 > 버거킹"
  },
  {
    "id": "26598191",
    "name": "버거킹 부천원종점",
    "address": "경기 부천시 오정구 원종동 375-1",
    "road_address": "경기 부천시 오정구 소사로 713",
    "lat": 37.519735074054,
    "lng": 126.804620272359,
    "phone": "032-672-0302",
    "url": "http://place.map.kakao.com/26598191",
    "category": "음식점 > 패스트푸드 > 버거킹"
  },
  {
    "id": "21555409",
    "name": "버거킹 수원시청역점",
    "address": "경기 수원시 팔달구 인계동 1046-1",
    "road_address": "경기 수원시 팔달구 권광로 173",
    "lat": 37.2630459090969,
    "lng": 127.03201993747949,
    "phone": "070-7459-7030",
    "url": "http://place.map.kakao.com/21555409",
    "category": "음식점 > 패스트푸드 > 버거킹"
  },
  {
    "id": "2059958137",
    "name": "버거킹 의정부DT점",
    "address": "경기 의정부시 의정부동 15-4",
    "road_address": "경기 의정부시 호국로1336번길 1",
    "lat": 37.74407900621275,
    "lng": 127.05273618956542,
    "phone": "031-821-0332",
    "url": "http://place.map.kakao.com/2059958137",
    "category": "음식점 > 패스트푸드 > 버거킹"
  },
  {
    "id": "773472746",
    "name": "버거킹 남양주별내오일뱅크점",
    "address": "경기 남양주시 별내동 969",
    "road_address": "경기 남양주시 송산로 149",
    "lat": 37.6557711314167,
    "lng": 127.129354180547,
    "phone": "070-7462-6871",
    "url": "http://place.map.kakao.com/773472746",
    "category": "음식점 > 패스트푸드 > 버거킹"
  },
  {
    "id": "892865006",
    "name": "버거킹 시흥정왕점",
    "address": "경기 시흥시 정왕동 1738-2",
    "road_address": "경기 시흥시 중심상가로 201-11",
    "lat": 37.3447044907062,
    "lng": 126.737839543077,
    "phone": "070-7462-6849",
    "url": "http://place.map.kakao.com/892865006",
    "category": "음식점 > 패스트푸드 > 버거킹"
  },
  {
    "id": "26923804",
    "name": "버거킹 부천중동점",
    "address": "경기 부천시 원미구 중동 1131-4",
    "road_address": "경기 부천시 원미구 신흥로 163",
    "lat": 37.49816684238181,
    "lng": 126.77712856950212,
    "phone": "032-328-0332",
    "url": "http://place.map.kakao.com/26923804",
    "category": "음식점 > 패스트푸드 > 버거킹"
  },
  {
    "id": "27348670",
    "name": "버거킹 용인신갈점",
    "address": "경기 용인시 기흥구 신갈동 63",
    "road_address": "경기 용인시 기흥구 중부대로 375",
    "lat": 37.272251689614706,
    "lng": 127.10928782008425,
    "phone": "031-275-0332",
    "url": "http://place.map.kakao.com/27348670",
    "category": "음식점 > 패스트푸드 > 버거킹"
  },
  {
    "id": "841390103",
    "name": "버거킹 김포한강GS점",
    "address": "경기 김포시 마산동 622-1",
    "road_address": "경기 김포시 김포한강3로 400",
    "lat": 37.64176739932895,
    "lng": 126.64751239932535,
    "phone": "070-7438-8604",
    "url": "http://place.map.kakao.com/841390103",
    "category": "음식점 > 패스트푸드 > 버거킹"
  },
  {
    "id": "1636370233",
    "name": "버거킹 화성능동FS점",
    "address": "경기 화성시 능동 460-2",
    "road_address": "경기 화성시 동탄지성로 190",
    "lat": 37.21194876710854,
    "lng": 127.05560812770206,
    "phone": "031-267-0332",
    "url": "http://place.map.kakao.com/1636370233",
    "category": "음식점 > 패스트푸드 > 버거킹"
  },
  {
    "id": "25108876",
    "name": "버거킹 산본점",
    "address": "경기 군포시 산본동 1097",
    "road_address": "경기 군포시 산본로 382",
    "lat": 37.3644221991097,
    "lng": 126.930259134792,
    "phone": "031-395-0332",
    "url": "http://place.map.kakao.com/25108876",
    "category": "음식점 > 패스트푸드 > 버거킹"
  },
  {
    "id": "10398232",
    "name": "버거킹 일산마두점",
    "address": "경기 고양시 일산동구 장항동 893-1",
    "road_address": "경기 고양시 일산동구 장백로 194",
    "lat": 37.6518861814473,
    "lng": 126.776674504166,
    "phone": "031-908-5833",
    "url": "http://place.map.kakao.com/10398232",
    "category": "음식점 > 패스트푸드 > 버거킹"
  },
  {
    "id": "12119395",
    "name": "버거킹 분당서현점",
    "address": "경기 성남시 분당구 서현동 269-2",
    "road_address": "경기 성남시 분당구 분당로53번길 19",
    "lat": 37.38445702355256,
    "lng": 127.1223420560386,
    "phone": "031-704-8199",
    "url": "http://place.map.kakao.com/12119395",
    "category": "음식점 > 패스트푸드 > 버거킹"
  },
  {
    "id": "2110662278",
    "name": "버거킹 남양주진접FS점",
    "address": "경기 남양주시 진접읍 연평리 114-1",
    "road_address": "경기 남양주시 진접읍 해밀예당1로 11",
    "lat": 37.710343843851874,
    "lng": 127.18448721305596,
    "phone": "070-7462-6768",
    "url": "http://place.map.kakao.com/2110662278",
    "category": "음식점 > 패스트푸드 > 버거킹"
  },
  {
    "id": "819882345",
    "name": "버거킹 파주야당역점",
    "address": "경기 파주시 야당동 1064",
    "road_address": "경기 파주시 소리천로8번길 36",
    "lat": 37.71271207074032,
    "lng": 126.76019365349363,
    "phone": "070-7462-6894",
    "url": "http://place.map.kakao.com/819882345",
    "category": "음식점 > 패스트푸드 > 버거킹"
  },
  {
    "id": "412529866",
    "name": "버거킹 경기양평점",
    "address": "경기 양평군 양평읍 양근리 409-7",
    "road_address": "경기 양평군 양평읍 양평시장길18번길 1",
    "lat": 37.49066298854448,
    "lng": 127.49169724242192,
    "phone": "031-771-0092",
    "url": "http://place.map.kakao.com/412529866",
    "category": "음식점 > 패스트푸드 > 버거킹"
  },
  {
    "id": "22674838",
    "name": "버거킹 용인동백점",
    "address": "경기 용인시 기흥구 중동 831-3",
    "road_address": "경기 용인시 기흥구 동백5로 23",
    "lat": 37.27647978889513,
    "lng": 127.15215522518133,
    "phone": "031-287-8815",
    "url": "http://place.map.kakao.com/22674838",
    "category": "음식점 > 패스트푸드 > 버거킹"
  },
  {
    "id": "279990469",
    "name": "버거킹 고양덕이DT점",
    "address": "경기 고양시 일산서구 덕이동 274-14",
    "road_address": "경기 고양시 일산서구 경의로 850",
    "lat": 37.6934061226735,
    "lng": 126.759801178545,
    "phone": "070-7462-6885",
    "url": "http://place.map.kakao.com/279990469",
    "category": "음식점 > 패스트푸드 > 버거킹"
  },
  {
    "id": "1599805416",
    "name": "버거킹 평촌학원가점",
    "address": "경기 안양시 동안구 평촌동 922-8",
    "road_address": "경기 안양시 동안구 평촌대로 112",
    "lat": 37.3823883912546,
    "lng": 126.961094779331,
    "phone": "031-386-0332",
    "url": "http://place.map.kakao.com/1599805416",
    "category": "음식점 > 패스트푸드 > 버거킹"
  },
  {
    "id": "1416088256",
    "name": "버거킹 배곧아브뉴프랑점",
    "address": "경기 시흥시 배곧동 218",
    "road_address": "경기 시흥시 서울대학로264번길 35",
    "lat": 37.36742664651494,
    "lng": 126.72869092128053,
    "phone": "070-7462-6841",
    "url": "http://place.map.kakao.com/1416088256",
    "category": "음식점 > 패스트푸드 > 버거킹"
  },
  {
    "id": "8374841",
    "name": "버거킹 광명철산점",
    "address": "경기 광명시 철산동 259",
    "road_address": "경기 광명시 오리로 870",
    "lat": 37.47597234490714,
    "lng": 126.86602948501191,
    "phone": "070-7459-7017",
    "url": "http://place.map.kakao.com/8374841",
    "category": "음식점 > 패스트푸드 > 버거킹"
  },
  {
    "id": "141199173",
    "name": "버거킹 오산원동FS점",
    "address": "경기 오산시 원동 766-6",
    "road_address": "경기 오산시 경기대로 238",
    "lat": 37.145886091991805,
    "lng": 127.07380686104729,
    "phone": "031-373-0332",
    "url": "http://place.map.kakao.com/141199173",
    "category": "음식점 > 패스트푸드 > 버거킹"
  },
  {
    "id": "24164383",
    "name": "버거킹 판교유스페이스점",
    "address": "경기 성남시 분당구 삼평동 670",
    "road_address": "경기 성남시 분당구 대왕판교로 660",
    "lat": 37.40051318032284,
    "lng": 127.10657576809477,
    "phone": "070-7462-8657",
    "url": "http://place.map.kakao.com/24164383",
    "category": "음식점 > 패스트푸드 > 버거킹"
  },
  {
    "id": "13326386",
    "name": "버거킹 분당야탑점",
    "address": "경기 성남시 분당구 야탑동 366-4",
    "road_address": "경기 성남시 분당구 성남대로916번길 11",
    "lat": 37.41091395610245,
    "lng": 127.12971813955878,
    "phone": "031-706-0334",
    "url": "http://place.map.kakao.com/13326386",
    "category": "음식점 > 패스트푸드 > 버거킹"
  },
  {
    "id": "1494636726",
    "name": "버거킹 안양호계점",
    "address": "경기 안양시 동안구 호계동 996-7",
    "road_address": "경기 안양시 동안구 경수대로 548",
    "lat": 37.3715678929917,
    "lng": 126.95818876631468,
    "phone": "070-7438-8155",
    "url": "http://place.map.kakao.com/1494636726",
    "category": "음식점 > 패스트푸드 > 버거킹"
  },
  {
    "id": "631402918",
    "name": "버거킹 파주동패점",
    "address": "경기 파주시 동패동 2125-3",
    "road_address": "경기 파주시 양지로 131",
    "lat": 37.7097402228493,
    "lng": 126.723376478798,
    "phone": "070-7459-7233",
    "url": "http://place.map.kakao.com/631402918",
    "category": "음식점 > 패스트푸드 > 버거킹"
  },
  {
    "id": "1889890322",
    "name": "버거킹 경기광주쌍령점",
    "address": "경기 광주시 쌍령동 418-2",
    "road_address": "경기 광주시 경충대로 1438",
    "lat": 37.39867961865395,
    "lng": 127.27436935357399,
    "phone": "070-7459-7514",
    "url": "http://place.map.kakao.com/1889890322",
    "category": "음식점 > 패스트푸드 > 버거킹"
  },
  {
    "id": "1150788466",
    "name": "버거킹 광명소하DT점",
    "address": "경기 광명시 소하동 1077-4",
    "road_address": "경기 광명시 오리로 361",
    "lat": 37.4345958381737,
    "lng": 126.879203453084,
    "phone": "070-7462-6721",
    "url": "http://place.map.kakao.com/1150788466",
    "category": "음식점 > 패스트푸드 > 버거킹"
  },
  {
    "id": "665020570",
    "name": "버거킹 인덕원역점",
    "address": "경기 안양시 동안구 관양동 1502-9",
    "road_address": "경기 안양시 동안구 흥안대로 525",
    "lat": 37.4008849925072,
    "lng": 126.976237317175,
    "phone": "070-7459-7582",
    "url": "http://place.map.kakao.com/665020570",
    "category": "음식점 > 패스트푸드 > 버거킹"
  },
  {
    "id": "963123961",
    "name": "버거킹 주엽역점",
    "address": "경기 고양시 일산서구 주엽동 110-2",
    "road_address": "경기 고양시 일산서구 중앙로 1443",
    "lat": 37.67050141914734,
    "lng": 126.75975940763166,
    "phone": "070-7462-6736",
    "url": "http://place.map.kakao.com/963123961",
    "category": "음식점 > 패스트푸드 > 버거킹"
  },
  {
    "id": "26832404",
    "name": "버거킹 수원망포점",
    "address": "경기 수원시 영통구 망포동 535-18",
    "road_address": "경기 수원시 영통구 영통로 108",
    "lat": 37.238062728549494,
    "lng": 127.05792970644927,
    "phone": "031-206-0332",
    "url": "http://place.map.kakao.com/26832404",
    "category": "음식점 > 패스트푸드 > 버거킹"
  },
  {
    "id": "18996088",
    "name": "버거킹 죽전DT점",
    "address": "경기 용인시 수지구 죽전동 889",
    "road_address": "경기 용인시 수지구 용구대로 2751",
    "lat": 37.33132981535253,
    "lng": 127.10841648816115,
    "phone": "031-272-0331",
    "url": "http://place.map.kakao.com/18996088",
    "category": "음식점 > 패스트푸드 > 버거킹"
  },
  {
    "id": "8375652",
    "name": "버거킹 수원역사점",
    "address": "경기 수원시 팔달구 매산로1가 18",
    "road_address": "경기 수원시 팔달구 덕영대로 924",
    "lat": 37.2662408287557,
    "lng": 127.00020743997,
    "phone": "070-7462-8612",
    "url": "http://place.map.kakao.com/8375652",
    "category": "음식점 > 패스트푸드 > 버거킹"
  },
  {
    "id": "1989601848",
    "name": "버거킹 수원호매실SK점",
    "address": "경기 수원시 권선구 호매실동 1374-1",
    "road_address": "경기 수원시 권선구 서수원로 453",
    "lat": 37.26676540207688,
    "lng": 126.96186911303656,
    "phone": "070-7462-6863",
    "url": "http://place.map.kakao.com/1989601848",
    "category": "음식점 > 패스트푸드 > 버거킹"
  },
  {
    "id": "1453666716",
    "name": "버거킹 동탄2신도시SK점",
    "address": "경기 화성시 영천동 679-1",
    "road_address": "경기 화성시 동탄순환대로 731",
    "lat": 37.20860941473938,
    "lng": 127.10791397923113,
    "phone": "070-7438-8618",
    "url": "http://place.map.kakao.com/1453666716",
    "category": "음식점 > 패스트푸드 > 버거킹"
  },
  {
    "id": "696360627",
    "name": "버거킹 안성공도DT점",
    "address": "경기 안성시 공도읍 만정리 295-3",
    "road_address": "경기 안성시 공도읍 서동대로 4294",
    "lat": 37.0042451472247,
    "lng": 127.179886329197,
    "phone": "070-7462-6857",
    "url": "http://place.map.kakao.com/696360627",
    "category": "음식점 > 패스트푸드 > 버거킹"
  },
  {
    "id": "225665773",
    "name": "버거킹 수지구청역점",
    "address": "경기 용인시 수지구 풍덕천동 714-5",
    "road_address": "경기 용인시 수지구 풍덕천로 145",
    "lat": 37.324242030191854,
    "lng": 127.09732344056415,
    "phone": "031-264-7332",
    "url": "http://place.map.kakao.com/225665773",
    "category": "음식점 > 패스트푸드 > 버거킹"
  },
  {
    "id": "579184766",
    "name": "버거킹 안산중앙역점",
    "address": "경기 안산시 단원구 고잔동 541-2",
    "road_address": "경기 안산시 단원구 중앙대로 927",
    "lat": 37.316927074686,
    "lng": 126.83948268795734,
    "phone": "070-7438-8237",
    "url": "http://place.map.kakao.com/579184766",
    "category": "음식점 > 패스트푸드 > 버거킹"
  },
  {
    "id": "1099555842",
    "name": "버거킹 송내역점",
    "address": "경기 부천시 원미구 상동 413",
    "road_address": "경기 부천시 원미구 부일로 203",
    "lat": 37.4889393791038,
    "lng": 126.75255023790743,
    "phone": "070-7462-6825",
    "url": "http://place.map.kakao.com/1099555842",
    "category": "음식점 > 패스트푸드 > 버거킹"
  },
  {
    "id": "26431776",
    "name": "버거킹 광주경안점",
    "address": "경기 광주시 경안동 23",
    "road_address": "경기 광주시 경안로 10",
    "lat": 37.41013623150507,
    "lng": 127.25952943217422,
    "phone": "031-797-5010",
    "url": "http://place.map.kakao.com/26431776",
    "category": "음식점 > 패스트푸드 > 버거킹"
  },
  {
    "id": "1937716215",
    "name": "버거킹 남양주화도DT점",
    "address": "경기 남양주시 화도읍 묵현리 372-25",
    "road_address": "경기 남양주시 화도읍 경춘로 1718",
    "lat": 37.655720152090545,
    "lng": 127.28206997541811,
    "phone": "070-7462-6727",
    "url": "http://place.map.kakao.com/1937716215",
    "category": "음식점 > 패스트푸드 > 버거킹"
  },
  {
    "id": "1011193831",
    "name": "버거킹 춘천거두GS점",
    "address": "강원특별자치도 춘천시 동내면 거두리 910",
    "road_address": "강원특별자치도 춘천시 동내면 춘천순환로 59",
    "lat": 37.85576074749604,
    "lng": 127.75033939565999,
    "phone": "033-264-0332",
    "url": "http://place.map.kakao.com/1011193831",
    "category": "음식점 > 패스트푸드 > 버거킹"
  },
  {
    "id": "1262391780",
    "name": "버거킹 춘천온의점",
    "address": "강원특별자치도 춘천시 온의동 588-9",
    "road_address": "강원특별자치도 춘천시 방송길 98-1",
    "lat": 37.8677688662107,
    "lng": 127.720400378582,
    "phone": "070-7462-6848",
    "url": "http://place.map.kakao.com/1262391780",
    "category": "음식점 > 패스트푸드 > 버거킹"
  },
  {
    "id": "25813096",
    "name": "버거킹 원주무실점",
    "address": "강원특별자치도 원주시 무실동 1857-6",
    "road_address": "강원특별자치도 원주시 능라동길 61",
    "lat": 37.334147077941026,
    "lng": 127.93145027460409,
    "phone": "033-733-0282",
    "url": "http://place.map.kakao.com/25813096",
    "category": "음식점 > 패스트푸드 > 버거킹"
  },
  {
    "id": "1306335260",
    "name": "버거킹 원주명륜오일뱅크점",
    "address": "강원특별자치도 원주시 명륜동 822-1",
    "road_address": "강원특별자치도 원주시 남원로 505",
    "lat": 37.32950753941722,
    "lng": 127.94523266190059,
    "phone": "070-7462-6816",
    "url": "http://place.map.kakao.com/1306335260",
    "category": "음식점 > 패스트푸드 > 버거킹"
  },
  {
    "id": "27342684",
    "name": "버거킹 강릉교동SK점",
    "address": "강원특별자치도 강릉시 교동 1893",
    "road_address": "강원특별자치도 강릉시 하슬라로 159",
    "lat": 37.76424010153341,
    "lng": 128.87441291414152,
    "phone": "033-641-0332",
    "url": "http://place.map.kakao.com/27342684",
    "category": "음식점 > 패스트푸드 > 버거킹"
  },
  {
    "id": "1719638791",
    "name": "버거킹 속초DT점",
    "address": "강원특별자치도 속초시 조양동 1521-3",
    "road_address": "강원특별자치도 속초시 동해대로 4059",
    "lat": 38.1892766030571,
    "lng": 128.590710348377,
    "phone": "033-638-0334",
    "url": "http://place.map.kakao.com/1719638791",
    "category": "음식점 > 패스트푸드 > 버거킹"
  },
  {
    "id": "30696035",
    "name": "버거킹 춘천후평점",
    "address": "강원특별자치도 춘천시 후평동 701-3",
    "road_address": "강원특별자치도 춘천시 후석로 322",
    "lat": 37.8798539395799,
    "lng": 127.750259819185,
    "phone": "070-7459-7227",
    "url": "http://place.map.kakao.com/30696035",
    "category": "음식점 > 패스트푸드 > 버거킹"
  },
  {
    "id": "1654006876",
    "name": "버거킹 강릉임당점",
    "address": "강원특별자치도 강릉시 임당동 112-1",
    "road_address": "강원특별자치도 강릉시 경강로 2109",
    "lat": 37.7556743475042,
    "lng": 128.897183003519,
    "phone": "070-7459-7573",
    "url": "http://place.map.kakao.com/1654006876",
    "category": "음식점 > 패스트푸드 > 버거킹"
  },
  {
    "id": "1879319641",
    "name": "버거킹 원주기업도시점",
    "address": "강원특별자치도 원주시 지정면 가곡리 1350-1",
    "road_address": "강원특별자치도 원주시 지정면 신지정로 211",
    "lat": 37.3741910789902,
    "lng": 127.872732020155,
    "phone": "033-732-0332",
    "url": "http://place.map.kakao.com/1879319641",
    "category": "음식점 > 패스트푸드 > 버거킹"
  },
  {
    "id": "21294959",
    "name": "버거킹 비발디파크점",
    "address": "강원특별자치도 홍천군 서면 팔봉리 1290-2",
    "road_address": "강원특별자치도 홍천군 서면 한치골길 262",
    "lat": 37.65210297251196,
    "lng": 127.68710634832637,
    "phone": "033-435-1025",
    "url": "http://place.map.kakao.com/21294959",
    "category": "음식점 > 패스트푸드 > 버거킹"
  },
  {
    "id": "7903911",
    "name": "버거킹 오션월드점",
    "address": "강원특별자치도 홍천군 서면 팔봉리 1279-3",
    "road_address": "강원특별자치도 홍천군 서면 한치골길 264",
    "lat": 37.64835792206534,
    "lng": 127.68566677378946,
    "phone": "033-435-0787",
    "url": "http://place.map.kakao.com/7903911",
    "category": "음식점 > 패스트푸드 > 버거킹"
  },
  {
    "id": "1130241729",
    "name": "버거킹 속초DT점 주차장",
    "address": "강원특별자치도 속초시 조양동 1521-3",
    "road_address": "강원특별자치도 속초시 동해대로 4059",
    "lat": 38.1893018803696,
    "lng": 128.590706332794,
    "phone": "",
    "url": "http://place.map.kakao.com/1130241729",
    "category": "교통,수송 > 교통시설 > 주차장"
  },
  {
    "id": "676711977",
    "name": "버거킹 원주명륜오일뱅크점 주차장",
    "address": "강원특별자치도 원주시 명륜동 822-1",
    "road_address": "",
    "lat": 37.3294918728652,
    "lng": 127.945163639656,
    "phone": "",
    "url": "http://place.map.kakao.com/676711977",
    "category": "교통,수송 > 교통시설 > 주차장"
  },
  {
    "id": "26619372",
    "name": "버거킹 충주연수점",
    "address": "충북 충주시 연수동 1354",
    "road_address": "충북 충주시 연수동산로 47",
    "lat": 36.9868406537244,
    "lng": 127.941823704505,
    "phone": "043-853-0700",
    "url": "http://place.map.kakao.com/26619372",
    "category": "음식점 > 패스트푸드 > 버거킹"
  },
  {
    "id": "26846429",
    "name": "버거킹 청주터미널점",
    "address": "충북 청주시 흥덕구 가경동 1416-2",
    "road_address": "충북 청주시 흥덕구 풍산로 15",
    "lat": 36.6263594469413,
    "lng": 127.432441814748,
    "phone": "043-238-0332",
    "url": "http://place.map.kakao.com/26846429",
    "category": "음식점 > 패스트푸드 > 버거킹"
  },
  {
    "id": "26341156",
    "name": "버거킹 청주산남점",
    "address": "충북 청주시 서원구 산남동 650",
    "road_address": "충북 청주시 서원구 산남로 48",
    "lat": 36.6114063427092,
    "lng": 127.469052647154,
    "phone": "043-297-0009",
    "url": "http://place.map.kakao.com/26341156",
    "category": "음식점 > 패스트푸드 > 버거킹"
  },
  {
    "id": "19662631",
    "name": "버거킹 충북대점",
    "address": "충북 청주시 서원구 사창동 257-14",
    "road_address": "충북 청주시 서원구 1순환로 665-1",
    "lat": 36.6341690532252,
    "lng": 127.460701937346,
    "phone": "043-271-0332",
    "url": "http://place.map.kakao.com/19662631",
    "category": "음식점 > 패스트푸드 > 버거킹"
  },
  {
    "id": "636699962",
    "name": "버거킹 청주예술의전당오일뱅크점",
    "address": "충북 청주시 흥덕구 봉명동 753",
    "road_address": "충북 청주시 흥덕구 직지대로 677",
    "lat": 36.64308837522985,
    "lng": 127.46811190118777,
    "phone": "070-7462-6866",
    "url": "http://place.map.kakao.com/636699962",
    "category": "음식점 > 패스트푸드 > 버거킹"
  },
  {
    "id": "356122723",
    "name": "버거킹 청주분평DT점",
    "address": "충북 청주시 서원구 미평동 22-2",
    "road_address": "충북 청주시 서원구 청남로 1918",
    "lat": 36.6045274320311,
    "lng": 127.479832325951,
    "phone": "070-7459-7085",
    "url": "http://place.map.kakao.com/356122723",
    "category": "음식점 > 패스트푸드 > 버거킹"
  },
  {
    "id": "26431724",
    "name": "버거킹 청주율량점",
    "address": "충북 청주시 청원구 주성동 342",
    "road_address": "충북 청주시 청원구 충청대로 176",
    "lat": 36.67190070444669,
    "lng": 127.49643716241832,
    "phone": "043-211-8595",
    "url": "http://place.map.kakao.com/26431724",
    "category": "음식점 > 패스트푸드 > 버거킹"
  },
  {
    "id": "24405934",
    "name": "버거킹 오창호수공원점",
    "address": "충북 청주시 청원구 오창읍 양청리 788-1",
    "road_address": "충북 청주시 청원구 오창읍 중심상업로 31-18",
    "lat": 36.71385550380214,
    "lng": 127.42783792746191,
    "phone": "043-215-9393",
    "url": "http://place.map.kakao.com/24405934",
    "category": "음식점 > 패스트푸드 > 버거킹"
  },
  {
    "id": "364863390",
    "name": "버거킹 충주호암FS점",
    "address": "충북 충주시 호암동 1248",
    "road_address": "충북 충주시 사천개6길 4",
    "lat": 36.9529888202057,
    "lng": 127.934661420008,
    "phone": "010-3413-6100",
    "url": "http://place.map.kakao.com/364863390",
    "category": "음식점 > 패스트푸드 > 버거킹"
  },
  {
    "id": "242455700",
    "name": "버거킹 청주동남점",
    "address": "충북 청주시 상당구 용암동 3075",
    "road_address": "충북 청주시 상당구 중고개로141번길 11-9",
    "lat": 36.6171648699791,
    "lng": 127.517316338113,
    "phone": "043-288-8245",
    "url": "http://place.map.kakao.com/242455700",
    "category": "음식점 > 패스트푸드 > 버거킹"
  },
  {
    "id": "1655262108",
    "name": "버거킹 충북혁신도시점",
    "address": "충북 음성군 맹동면 두성리 1397",
    "road_address": "충북 음성군 맹동면 대하2가길 11",
    "lat": 36.9080480130295,
    "lng": 127.542745499591,
    "phone": "043-750-8050",
    "url": "http://place.map.kakao.com/1655262108",
    "category": "음식점 > 패스트푸드 > 버거킹"
  },
  {
    "id": "1941031669",
    "name": "버거킹 청주오송점",
    "address": "충북 청주시 흥덕구 오송읍 연제리 713",
    "road_address": "충북 청주시 흥덕구 오송읍 오송생명로 178",
    "lat": 36.63135671992961,
    "lng": 127.32908547738776,
    "phone": "043-235-0411",
    "url": "http://place.map.kakao.com/1941031669",
    "category": "음식점 > 패스트푸드 > 버거킹"
  },
  {
    "id": "1809516360",
    "name": "버거킹 제천CGV점",
    "address": "충북 제천시 강제동 304-21",
    "road_address": "충북 제천시 장평천로 27-13",
    "lat": 37.12364724849386,
    "lng": 128.22166089922757,
    "phone": "043-645-0332",
    "url": "http://place.map.kakao.com/1809516360",
    "category": "음식점 > 패스트푸드 > 버거킹"
  },
  {
    "id": "343559973",
    "name": "버거킹 충북진천점",
    "address": "충북 진천군 진천읍 읍내리 395",
    "road_address": "충북 진천군 진천읍 상산로 73",
    "lat": 36.8546770577449,
    "lng": 127.4421209121181,
    "phone": "043-533-8989",
    "url": "http://place.map.kakao.com/343559973",
    "category": "음식점 > 패스트푸드 > 버거킹"
  },
  {
    "id": "1992538101",
    "name": "버거킹 청주예술의전당오일뱅크점 주차장",
    "address": "충북 청주시 흥덕구 봉명동 753",
    "road_address": "충북 청주시 흥덕구 직지대로 677",
    "lat": 36.643095781776,
    "lng": 127.468520100885,
    "phone": "",
    "url": "http://place.map.kakao.com/1992538101",
    "category": "교통,수송 > 교통시설 > 주차장"
  },
  {
    "id": "1775560200",
    "name": "워터 버거킹 청주분평DT 전기차충전소",
    "address": "충북 청주시 서원구 미평동 22-2",
    "road_address": "충북 청주시 서원구 청남로 1918",
    "lat": 36.60423916967822,
    "lng": 127.47958353525317,
    "phone": "",
    "url": "http://place.map.kakao.com/1775560200",
    "category": "교통,수송 > 자동차 > 전기차 충전소"
  },
  {
    "id": "747038091",
    "name": "버거킹 천안불당점",
    "address": "충남 천안시 서북구 불당동 1534",
    "road_address": "충남 천안시 서북구 불당25로 176",
    "lat": 36.81613089929749,
    "lng": 127.10942492517725,
    "phone": "070-7462-6790",
    "url": "http://place.map.kakao.com/747038091",
    "category": "음식점 > 패스트푸드 > 버거킹"
  },
  {
    "id": "19148741",
    "name": "버거킹 천안두정점",
    "address": "충남 천안시 서북구 두정동 1985",
    "road_address": "충남 천안시 서북구 두정로 147",
    "lat": 36.834046822927654,
    "lng": 127.13318907115755,
    "phone": "041-566-0332",
    "url": "http://place.map.kakao.com/19148741",
    "category": "음식점 > 패스트푸드 > 버거킹"
  },
  {
    "id": "2035432398",
    "name": "버거킹 천안원성DT점",
    "address": "충남 천안시 동남구 원성동 115-1",
    "road_address": "충남 천안시 동남구 충절로 170",
    "lat": 36.80374660539532,
    "lng": 127.15851421363058,
    "phone": "070-7438-6563",
    "url": "http://place.map.kakao.com/2035432398",
    "category": "음식점 > 패스트푸드 > 버거킹"
  },
  {
    "id": "26882502",
    "name": "버거킹 천안쌍용대로DT점",
    "address": "충남 천안시 동남구 봉명동 212-1",
    "road_address": "충남 천안시 동남구 쌍용대로 94",
    "lat": 36.80572275178056,
    "lng": 127.13275003072432,
    "phone": "041-573-8721",
    "url": "http://place.map.kakao.com/26882502",
    "category": "음식점 > 패스트푸드 > 버거킹"
  },
  {
    "id": "811414102",
    "name": "버거킹 천안신방DT점",
    "address": "충남 천안시 동남구 신방동 113-2",
    "road_address": "충남 천안시 동남구 남부대로 92-1",
    "lat": 36.78578214338351,
    "lng": 127.1277055896274,
    "phone": "070-8869-2319",
    "url": "http://place.map.kakao.com/811414102",
    "category": "음식점 > 패스트푸드 > 버거킹"
  },
  {
    "id": "341621574",
    "name": "버거킹 공주신관DT점",
    "address": "충남 공주시 신관동 24-80",
    "road_address": "충남 공주시 일신역길 10-8",
    "lat": 36.47458331837741,
    "lng": 127.14117879518153,
    "phone": "070-7459-7364",
    "url": "http://place.map.kakao.com/341621574",
    "category": "음식점 > 패스트푸드 > 버거킹"
  },
  {
    "id": "815077984",
    "name": "버거킹 아산배방DT점",
    "address": "충남 아산시 배방읍 북수리 955",
    "road_address": "충남 아산시 배방읍 배방로 183",
    "lat": 36.770570909886274,
    "lng": 127.06631391261283,
    "phone": "070-7459-7019",
    "url": "http://place.map.kakao.com/815077984",
    "category": "음식점 > 패스트푸드 > 버거킹"
  },
  {
    "id": "1610238130",
    "name": "버거킹 서산호수공원점",
    "address": "충남 서산시 예천동 1281-2",
    "road_address": "충남 서산시 호수공원6로 72",
    "lat": 36.7725783430015,
    "lng": 126.45118341794,
    "phone": "041-663-5544",
    "url": "http://place.map.kakao.com/1610238130",
    "category": "음식점 > 패스트푸드 > 버거킹"
  },
  {
    "id": "26428387",
    "name": "버거킹 당진읍내점",
    "address": "충남 당진시 읍내동 513-2",
    "road_address": "충남 당진시 당진중앙1로 95",
    "lat": 36.894374787819025,
    "lng": 126.62957349010655,
    "phone": "010-8414-4018",
    "url": "http://place.map.kakao.com/26428387",
    "category": "음식점 > 패스트푸드 > 버거킹"
  },
  {
    "id": "447497297",
    "name": "버거킹 논산건양대점",
    "address": "충남 논산시 내동 40-22",
    "road_address": "충남 논산시 대학로 104",
    "lat": 36.17971940193442,
    "lng": 127.10957252237144,
    "phone": "041-732-9900",
    "url": "http://place.map.kakao.com/447497297",
    "category": "음식점 > 패스트푸드 > 버거킹"
  },
  {
    "id": "885286788",
    "name": "버거킹 충남도청점",
    "address": "충남 홍성군 홍북읍 신경리 555",
    "road_address": "충남 홍성군 홍북읍 청사로174번길 2",
    "lat": 36.65939705751053,
    "lng": 126.67876881094726,
    "phone": "041-635-0799",
    "url": "http://place.map.kakao.com/885286788",
    "category": "음식점 > 패스트푸드 > 버거킹"
  },
  {
    "id": "2099758203",
    "name": "버거킹 보령동대점",
    "address": "충남 보령시 동대동 1732",
    "road_address": "충남 보령시 한내로 16",
    "lat": 36.347641237844044,
    "lng": 126.60537624829662,
    "phone": "041-936-6900",
    "url": "http://place.map.kakao.com/2099758203",
    "category": "음식점 > 패스트푸드 > 버거킹"
  },
  {
    "id": "1553975359",
    "name": "버거킹 천안성성점",
    "address": "충남 천안시 서북구 성성동 731",
    "road_address": "충남 천안시 서북구 성성8로 2-11",
    "lat": 36.839667144113974,
    "lng": 127.12982206981631,
    "phone": "041-555-7474",
    "url": "http://place.map.kakao.com/1553975359",
    "category": "음식점 > 패스트푸드 > 버거킹"
  },
  {
    "id": "1858109793",
    "name": "버거킹 탕정역점",
    "address": "충남 아산시 탕정면 매곡리 1212",
    "road_address": "충남 아산시 탕정면 한들물빛5로 25",
    "lat": 36.787535094813045,
    "lng": 127.0863220875211,
    "phone": "041-534-1468",
    "url": "http://place.map.kakao.com/1858109793",
    "category": "음식점 > 패스트푸드 > 버거킹"
  },
  {
    "id": "423427437",
    "name": "버거킹 아산둔포점",
    "address": "충남 아산시 둔포면 석곡리 1716",
    "road_address": "충남 아산시 둔포면 중앙공원로 52",
    "lat": 36.9189534271227,
    "lng": 127.057425948236,
    "phone": "041-545-1425",
    "url": "http://place.map.kakao.com/423427437",
    "category": "음식점 > 패스트푸드 > 버거킹"
  },
  {
    "id": "1987616070",
    "name": "버거킹 아산용화점(2025년 12월 예정)",
    "address": "충남 아산시 용화동 3-5",
    "road_address": "충남 아산시 남부로 278",
    "lat": 36.7709141255193,
    "lng": 127.011634445698,
    "phone": "",
    "url": "http://place.map.kakao.com/1987616070",
    "category": "음식점 > 패스트푸드 > 버거킹"
  },
  {
    "id": "1409076821",
    "name": "버거킹 태안터미널점",
    "address": "충남 태안군 태안읍 동문리 878-6",
    "road_address": "충남 태안군 태안읍 동백로 291-3",
    "lat": 36.7489907951977,
    "lng": 126.302483970367,
    "phone": "041-673-2660",
    "url": "http://place.map.kakao.com/1409076821",
    "category": "음식점 > 패스트푸드 > 버거킹"
  },
  {
    "id": "287147165",
    "name": "버거킹 계룡엄사점",
    "address": "충남 계룡시 엄사면 엄사리 149-1",
    "road_address": "충남 계룡시 엄사면 계룡대로 524",
    "lat": 36.2900425424201,
    "lng": 127.244499603375,
    "phone": "042-710-8272",
    "url": "http://place.map.kakao.com/287147165",
    "category": "음식점 > 패스트푸드 > 버거킹"
  },
  {
    "id": "2018044486",
    "name": "버거킹 아산용화DT점",
    "address": "충남 아산시 용화동 3-27",
    "road_address": "충남 아산시 남부로 274",
    "lat": 36.7708321707133,
    "lng": 127.011144951526,
    "phone": "070-7459-6850",
    "url": "http://place.map.kakao.com/2018044486",
    "category": "음식점 > 패스트푸드 > 버거킹"
  },
  {
    "id": "78789208",
    "name": "버거킹 천안두정점 주차장",
    "address": "충남 천안시 서북구 두정동 902",
    "road_address": "",
    "lat": 36.833582414066,
    "lng": 127.134291338856,
    "phone": "",
    "url": "http://place.map.kakao.com/78789208",
    "category": "교통,수송 > 교통시설 > 주차장"
  },
  {
    "id": "951617069",
    "name": "버거킹 천안원성DT점 주차장",
    "address": "충남 천안시 동남구 원성동 115-1",
    "road_address": "",
    "lat": 36.8037464530032,
    "lng": 127.158628511822,
    "phone": "",
    "url": "http://place.map.kakao.com/951617069",
    "category": "교통,수송 > 교통시설 > 주차장"
  },
  {
    "id": "971347920",
    "name": "버거킹 천안쌍용대로DT점 주차장",
    "address": "충남 천안시 동남구 봉명동 212-1",
    "road_address": "충남 천안시 동남구 쌍용대로 94",
    "lat": 36.805674786449,
    "lng": 127.132934847265,
    "phone": "",
    "url": "http://place.map.kakao.com/971347920",
    "category": "교통,수송 > 교통시설 > 주차장"
  },
  {
    "id": "327627923",
    "name": "버거킹 전주중앙점",
    "address": "전북특별자치도 전주시 완산구 고사동 2-6",
    "road_address": "전북특별자치도 전주시 완산구 팔달로 225",
    "lat": 35.822219993328424,
    "lng": 127.14532845004815,
    "phone": "063-278-1505",
    "url": "http://place.map.kakao.com/327627923",
    "category": "음식점 > 패스트푸드 > 버거킹"
  },
  {
    "id": "446771385",
    "name": "버거킹 전북대점",
    "address": "전북특별자치도 전주시 덕진구 금암동 664-23",
    "road_address": "전북특별자치도 전주시 덕진구 권삼득로 295",
    "lat": 35.842755721041804,
    "lng": 127.12904577175769,
    "phone": "063-223-4300",
    "url": "http://place.map.kakao.com/446771385",
    "category": "음식점 > 패스트푸드 > 버거킹"
  },
  {
    "id": "207713417",
    "name": "버거킹 전주만성SK점",
    "address": "전북특별자치도 전주시 덕진구 만성동 1344-1",
    "road_address": "전북특별자치도 전주시 덕진구 온고을로 441",
    "lat": 35.85045044322055,
    "lng": 127.08075619933358,
    "phone": "070-7462-6770",
    "url": "http://place.map.kakao.com/207713417",
    "category": "음식점 > 패스트푸드 > 버거킹"
  },
  {
    "id": "218726531",
    "name": "버거킹 군산조촌DT점",
    "address": "전북특별자치도 군산시 조촌동 893-25",
    "road_address": "전북특별자치도 군산시 번영로 143",
    "lat": 35.96645012763976,
    "lng": 126.73527405315376,
    "phone": "070-7438-8612",
    "url": "http://place.map.kakao.com/218726531",
    "category": "음식점 > 패스트푸드 > 버거킹"
  },
  {
    "id": "2091853305",
    "name": "버거킹 익산모현FS점",
    "address": "전북특별자치도 익산시 모현동1가 608-18",
    "road_address": "전북특별자치도 익산시 배산로16길 2",
    "lat": 35.9475333728335,
    "lng": 126.93993131145,
    "phone": "063-843-9990",
    "url": "http://place.map.kakao.com/2091853305",
    "category": "음식점 > 패스트푸드 > 버거킹"
  },
  {
    "id": "26428391",
    "name": "버거킹 전주서신대광SK점",
    "address": "전북특별자치도 전주시 완산구 서신동 813",
    "road_address": "전북특별자치도 전주시 완산구 서신로 56",
    "lat": 35.830490222154545,
    "lng": 127.11606610736906,
    "phone": "063-272-0332",
    "url": "http://place.map.kakao.com/26428391",
    "category": "음식점 > 패스트푸드 > 버거킹"
  },
  {
    "id": "24164263",
    "name": "버거킹 전북도청점",
    "address": "전북특별자치도 전주시 완산구 효자동3가 1525-1",
    "road_address": "전북특별자치도 전주시 완산구 효자로 194",
    "lat": 35.8187492074896,
    "lng": 127.106668649096,
    "phone": "063-224-0332",
    "url": "http://place.map.kakao.com/24164263",
    "category": "음식점 > 패스트푸드 > 버거킹"
  },
  {
    "id": "278218176",
    "name": "버거킹 전주송천DT점",
    "address": "전북특별자치도 전주시 덕진구 송천동2가 54-89",
    "road_address": "전북특별자치도 전주시 덕진구 동부대로 1030",
    "lat": 35.86978302293852,
    "lng": 127.13436574721986,
    "phone": "070-7462-6794",
    "url": "http://place.map.kakao.com/278218176",
    "category": "음식점 > 패스트푸드 > 버거킹"
  },
  {
    "id": "105658779",
    "name": "버거킹 군산수송점",
    "address": "전북특별자치도 군산시 수송동 852-5",
    "road_address": "전북특별자치도 군산시 월명로 216",
    "lat": 35.9631922400912,
    "lng": 126.715993504331,
    "phone": "063-910-8234",
    "url": "http://place.map.kakao.com/105658779",
    "category": "음식점 > 패스트푸드 > 버거킹"
  },
  {
    "id": "1485753306",
    "name": "버거킹 군산대점",
    "address": "전북특별자치도 군산시 미룡동 868-1",
    "road_address": "전북특별자치도 군산시 대학로 543",
    "lat": 35.94700834064289,
    "lng": 126.68547543017168,
    "phone": "063-465-7774",
    "url": "http://place.map.kakao.com/1485753306",
    "category": "음식점 > 패스트푸드 > 버거킹"
  },
  {
    "id": "1278963747",
    "name": "버거킹 전주삼천DT점",
    "address": "전북특별자치도 전주시 완산구 삼천동1가 305-2",
    "road_address": "전북특별자치도 전주시 완산구 장승배기로 4",
    "lat": 35.792142101146965,
    "lng": 127.11359327591799,
    "phone": "070-7459-7034",
    "url": "http://place.map.kakao.com/1278963747",
    "category": "음식점 > 패스트푸드 > 버거킹"
  },
  {
    "id": "436173276",
    "name": "버거킹 정읍중앙점",
    "address": "전북특별자치도 정읍시 연지동 55-3",
    "road_address": "전북특별자치도 정읍시 남북로 28",
    "lat": 35.56780539891132,
    "lng": 126.85037800327326,
    "phone": "010-8370-3246",
    "url": "http://place.map.kakao.com/436173276",
    "category": "음식점 > 패스트푸드 > 버거킹"
  },
  {
    "id": "2111592453",
    "name": "버거킹 원광대점",
    "address": "전북특별자치도 익산시 신동 272",
    "road_address": "전북특별자치도 익산시 무왕로 893",
    "lat": 35.9642653637354,
    "lng": 126.957975418997,
    "phone": "063-851-0111",
    "url": "http://place.map.kakao.com/2111592453",
    "category": "음식점 > 패스트푸드 > 버거킹"
  },
  {
    "id": "1642272856",
    "name": "버거킹 전주인후DT점",
    "address": "전북특별자치도 전주시 덕진구 인후동1가 503",
    "road_address": "전북특별자치도 전주시 덕진구 안덕원로 307",
    "lat": 35.83783226111817,
    "lng": 127.16039100511196,
    "phone": "070-7462-8556",
    "url": "http://place.map.kakao.com/1642272856",
    "category": "음식점 > 패스트푸드 > 버거킹"
  },
  {
    "id": "155823746",
    "name": "버거킹 익산부송점",
    "address": "전북특별자치도 익산시 부송동 1102",
    "road_address": "전북특별자치도 익산시 무왕로 1195",
    "lat": 35.95996526267806,
    "lng": 126.98977377456947,
    "phone": "063-838-1100",
    "url": "http://place.map.kakao.com/155823746",
    "category": "음식점 > 패스트푸드 > 버거킹"
  },
  {
    "id": "843812091",
    "name": "버거킹 전북부안점",
    "address": "전북특별자치도 부안군 부안읍 봉덕리 799-3",
    "road_address": "전북특별자치도 부안군 부안읍 오리정로 142",
    "lat": 35.72304985214213,
    "lng": 126.7375659973754,
    "phone": "063-581-7900",
    "url": "http://place.map.kakao.com/843812091",
    "category": "음식점 > 패스트푸드 > 버거킹"
  },
  {
    "id": "237433284",
    "name": "버거킹 전주만성SK점 주차장",
    "address": "전북특별자치도 전주시 덕진구 만성동 1344-1",
    "road_address": "전북특별자치도 전주시 덕진구 온고을로 441",
    "lat": 35.8505090991664,
    "lng": 127.080645557996,
    "phone": "",
    "url": "http://place.map.kakao.com/237433284",
    "category": "교통,수송 > 교통시설 > 주차장"
  },
  {
    "id": "1749100209",
    "name": "버거킹 군산조촌DT점 주차장",
    "address": "전북특별자치도 군산시 조촌동 893-22",
    "road_address": "",
    "lat": 35.966361194455,
    "lng": 126.735405167129,
    "phone": "",
    "url": "http://place.map.kakao.com/1749100209",
    "category": "교통,수송 > 교통시설 > 주차장"
  },
  {
    "id": "1978684766",
    "name": "버거킹 전주서신대광SK점 주차장",
    "address": "전북특별자치도 전주시 완산구 서신동 813",
    "road_address": "전북특별자치도 전주시 완산구 서신로 56",
    "lat": 35.8305035677443,
    "lng": 127.116245417033,
    "phone": "",
    "url": "http://place.map.kakao.com/1978684766",
    "category": "교통,수송 > 교통시설 > 주차장"
  },
  {
    "id": "1867799065",
    "name": "버거킹 전주송천DT점 주차장",
    "address": "전북특별자치도 전주시 덕진구 송천동2가 54-89",
    "road_address": "",
    "lat": 35.8698108043537,
    "lng": 127.134506418161,
    "phone": "",
    "url": "http://place.map.kakao.com/1867799065",
    "category": "교통,수송 > 교통시설 > 주차장"
  },
  {
    "id": "1793963899",
    "name": "버거킹 전주인후DT점 주차장",
    "address": "전북특별자치도 전주시 덕진구 인후동1가 503",
    "road_address": "",
    "lat": 35.8378456469519,
    "lng": 127.160490646857,
    "phone": "",
    "url": "http://place.map.kakao.com/1793963899",
    "category": "교통,수송 > 교통시설 > 주차장"
  },
  {
    "id": "1222748540",
    "name": "워터 버거킹 전주삼천DT 전기차충전소",
    "address": "전북특별자치도 전주시 완산구 삼천동1가 305-2",
    "road_address": "전북특별자치도 전주시 완산구 장승배기로 4",
    "lat": 35.79212765268244,
    "lng": 127.11362312268716,
    "phone": "",
    "url": "http://place.map.kakao.com/1222748540",
    "category": "교통,수송 > 자동차 > 전기차 충전소"
  },
  {
    "id": "26412182",
    "name": "버거킹 순천법원점",
    "address": "전남 순천시 왕지동 863-9",
    "road_address": "전남 순천시 왕지로 8-1",
    "lat": 34.9697013031559,
    "lng": 127.522843036248,
    "phone": "061-727-6006",
    "url": "http://place.map.kakao.com/26412182",
    "category": "음식점 > 패스트푸드 > 버거킹"
  },
  {
    "id": "26777380",
    "name": "버거킹 목포하당점",
    "address": "전남 목포시 상동 1000-6",
    "road_address": "전남 목포시 비파로 50",
    "lat": 34.80316112677655,
    "lng": 126.42693751776157,
    "phone": "061-287-6356",
    "url": "http://place.map.kakao.com/26777380",
    "category": "음식점 > 패스트푸드 > 버거킹"
  },
  {
    "id": "26322751",
    "name": "버거킹 여수웅천점",
    "address": "전남 여수시 웅천동 1696-2",
    "road_address": "전남 여수시 예울마루로 37-15",
    "lat": 34.7466126324616,
    "lng": 127.67100998822,
    "phone": "010-7368-0162",
    "url": "http://place.map.kakao.com/26322751",
    "category": "음식점 > 패스트푸드 > 버거킹"
  },
  {
    "id": "26825953",
    "name": "버거킹 나주빛가람점",
    "address": "전남 나주시 빛가람동 189-2",
    "road_address": "전남 나주시 전력로 2",
    "lat": 35.021391446671274,
    "lng": 126.7854773274922,
    "phone": "061-333-5597",
    "url": "http://place.map.kakao.com/26825953",
    "category": "음식점 > 패스트푸드 > 버거킹"
  },
  {
    "id": "22577631",
    "name": "버거킹 전남도청점",
    "address": "전남 무안군 삼향읍 남악리 2104",
    "road_address": "전남 무안군 삼향읍 남악3로 71",
    "lat": 34.811476739203144,
    "lng": 126.45989904996637,
    "phone": "061-285-6356",
    "url": "http://place.map.kakao.com/22577631",
    "category": "음식점 > 패스트푸드 > 버거킹"
  },
  {
    "id": "194695750",
    "name": "버거킹 순천신대점",
    "address": "전남 순천시 해룡면 신대리 1978-2",
    "road_address": "전남 순천시 해룡면 향매로 71",
    "lat": 34.9341831968241,
    "lng": 127.547450478595,
    "phone": "061-723-5162",
    "url": "http://place.map.kakao.com/194695750",
    "category": "음식점 > 패스트푸드 > 버거킹"
  },
  {
    "id": "617443956",
    "name": "버거킹 광양중동점",
    "address": "전남 광양시 중동 1638-4",
    "road_address": "전남 광양시 중마중앙로 65",
    "lat": 34.9360951508076,
    "lng": 127.697803096635,
    "phone": "061-794-0031",
    "url": "http://place.map.kakao.com/617443956",
    "category": "음식점 > 패스트푸드 > 버거킹"
  },
  {
    "id": "1603758033",
    "name": "버거킹 광양LF스퀘어점",
    "address": "전남 광양시 광양읍 덕례리 1834",
    "road_address": "전남 광양시 광양읍 순광로 466",
    "lat": 34.9630212105113,
    "lng": 127.566071944199,
    "phone": "061-815-4902",
    "url": "http://place.map.kakao.com/1603758033",
    "category": "음식점 > 패스트푸드 > 버거킹"
  },
  {
    "id": "391031782",
    "name": "G car zone 버거킹 목포하당점 옆",
    "address": "전남 목포시 상동 1000-5",
    "road_address": "전남 목포시 장미로 61",
    "lat": 34.8032550480221,
    "lng": 126.427166356501,
    "phone": "",
    "url": "http://place.map.kakao.com/391031782",
    "category": "교통,수송 > 교통시설 > 카셰어링 > G car zone"
  },
  {
    "id": "866795193",
    "name": "투루카 버거킹 목포하당점 옆(목원주차장)",
    "address": "전남 목포시 상동 1000-6",
    "road_address": "전남 목포시 비파로 50",
    "lat": 34.8031811935064,
    "lng": 126.426987647806,
    "phone": "1600-6038",
    "url": "http://place.map.kakao.com/866795193",
    "category": "교통,수송 > 교통시설 > 카셰어링 > 투루카"
  },
  {
    "id": "814818721",
    "name": "버거킹 경주터미널FS점",
    "address": "경북 경주시 사정동 488-1",
    "road_address": "경북 경주시 강변로 158-3",
    "lat": 35.8379471342559,
    "lng": 129.203075918149,
    "phone": "070-7438-6505",
    "url": "http://place.map.kakao.com/814818721",
    "category": "음식점 > 패스트푸드 > 버거킹"
  },
  {
    "id": "1079304017",
    "name": "버거킹 포항버스터미널점",
    "address": "경북 포항시 남구 상도동 609-1",
    "road_address": "경북 포항시 남구 중흥로 96",
    "lat": 36.01356910328779,
    "lng": 129.35101414232273,
    "phone": "054-274-0332",
    "url": "http://place.map.kakao.com/1079304017",
    "category": "음식점 > 패스트푸드 > 버거킹"
  },
  {
    "id": "23301450",
    "name": "버거킹 안동중앙점",
    "address": "경북 안동시 남부동 100-5",
    "road_address": "경북 안동시 문화광장길 40-6",
    "lat": 36.5647202534903,
    "lng": 128.731286636394,
    "phone": "054-842-1177",
    "url": "http://place.map.kakao.com/23301450",
    "category": "음식점 > 패스트푸드 > 버거킹"
  },
  {
    "id": "1240938309",
    "name": "버거킹 구미시청FS점",
    "address": "경북 구미시 송정동 460",
    "road_address": "경북 구미시 송정대로 40",
    "lat": 36.1174282912883,
    "lng": 128.343090300602,
    "phone": "070-7438-8218",
    "url": "http://place.map.kakao.com/1240938309",
    "category": "음식점 > 패스트푸드 > 버거킹"
  },
  {
    "id": "27184598",
    "name": "버거킹 경주보문점",
    "address": "경북 경주시 천군동 157-3",
    "road_address": "경북 경주시 엑스포로 80",
    "lat": 35.83451672280709,
    "lng": 129.28976069731715,
    "phone": "070-8801-5704",
    "url": "http://place.map.kakao.com/27184598",
    "category": "음식점 > 패스트푸드 > 버거킹"
  },
  {
    "id": "1940351936",
    "name": "버거킹 경북도청점",
    "address": "경북 안동시 풍천면 갈전리 1276",
    "road_address": "경북 안동시 풍천면 검무로 4-8",
    "lat": 36.57607469656149,
    "lng": 128.49318799432342,
    "phone": "054-900-5655",
    "url": "http://place.map.kakao.com/1940351936",
    "category": "음식점 > 패스트푸드 > 버거킹"
  },
  {
    "id": "1913419752",
    "name": "버거킹 구미신평점",
    "address": "경북 구미시 신평동 150-61",
    "road_address": "경북 구미시 구미대로 409",
    "lat": 36.12333191251676,
    "lng": 128.3624553871653,
    "phone": "054-461-7997",
    "url": "http://place.map.kakao.com/1913419752",
    "category": "음식점 > 패스트푸드 > 버거킹"
  },
  {
    "id": "927647342",
    "name": "버거킹 구미도량DT점",
    "address": "경북 구미시 도량동 311-2",
    "road_address": "경북 구미시 야은로 318",
    "lat": 36.13810694699538,
    "lng": 128.31776215559333,
    "phone": "070-7462-6706",
    "url": "http://place.map.kakao.com/927647342",
    "category": "음식점 > 패스트푸드 > 버거킹"
  },
  {
    "id": "122018258",
    "name": "버거킹 경산중방DT점",
    "address": "경북 경산시 중방동 838-6",
    "road_address": "경북 경산시 경안로 235",
    "lat": 35.8284881543348,
    "lng": 128.735690128539,
    "phone": "053-710-4448",
    "url": "http://place.map.kakao.com/122018258",
    "category": "음식점 > 패스트푸드 > 버거킹"
  },
  {
    "id": "26431157",
    "name": "버거킹 경북상주점",
    "address": "경북 상주시 남성동 13-64",
    "road_address": "경북 상주시 중앙로 186-2",
    "lat": 36.415397401751456,
    "lng": 128.1587965745408,
    "phone": "054-534-2227",
    "url": "http://place.map.kakao.com/26431157",
    "category": "음식점 > 패스트푸드 > 버거킹"
  },
  {
    "id": "588555891",
    "name": "버거킹 경북영주가흥점",
    "address": "경북 영주시 가흥동 1809",
    "road_address": "경북 영주시 대동로 24",
    "lat": 36.81491028371668,
    "lng": 128.60490812502624,
    "phone": "010-4355-5610",
    "url": "http://place.map.kakao.com/588555891",
    "category": "음식점 > 패스트푸드 > 버거킹"
  },
  {
    "id": "120779776",
    "name": "버거킹 경북왜관점",
    "address": "경북 칠곡군 왜관읍 왜관리 777-89",
    "road_address": "",
    "lat": 35.98246852693127,
    "lng": 128.39876240795306,
    "phone": "010-5339-6709",
    "url": "http://place.map.kakao.com/120779776",
    "category": "음식점 > 패스트푸드 > 버거킹"
  },
  {
    "id": "1573897295",
    "name": "버거킹 구미인의점",
    "address": "경북 구미시 인의동 368-8",
    "road_address": "경북 구미시 인동중앙로 16",
    "lat": 36.10681438204219,
    "lng": 128.42106501465025,
    "phone": "054-472-7433",
    "url": "http://place.map.kakao.com/1573897295",
    "category": "음식점 > 패스트푸드 > 버거킹"
  },
  {
    "id": "999565300",
    "name": "버거킹 포항철강단지SK점",
    "address": "경북 포항시 남구 동촌동 1011-1",
    "road_address": "경북 포항시 남구 동해안로 6303",
    "lat": 36.00277607269819,
    "lng": 129.38118991496245,
    "phone": "070-7462-6722",
    "url": "http://place.map.kakao.com/999565300",
    "category": "음식점 > 패스트푸드 > 버거킹"
  },
  {
    "id": "2081585803",
    "name": "버거킹 구미산동점",
    "address": "경북 구미시 산동읍 신당리 1436",
    "road_address": "경북 구미시 산동읍 신당1로2길 7",
    "lat": 36.15476091005069,
    "lng": 128.43186693844743,
    "phone": "054-474-6709",
    "url": "http://place.map.kakao.com/2081585803",
    "category": "음식점 > 패스트푸드 > 버거킹"
  },
  {
    "id": "25985274",
    "name": "버거킹 경산사동점",
    "address": "경북 경산시 사동 33",
    "road_address": "경북 경산시 백자로 55",
    "lat": 35.81133555795582,
    "lng": 128.75397223755496,
    "phone": "053-815-2244",
    "url": "http://place.map.kakao.com/25985274",
    "category": "음식점 > 패스트푸드 > 버거킹"
  },
  {
    "id": "1435464715",
    "name": "버거킹 경주용강DT점",
    "address": "경북 경주시 용강동 427-1",
    "road_address": "경북 경주시 산업로 4494",
    "lat": 35.880866507088044,
    "lng": 129.2299230454792,
    "phone": "070-7462-8519",
    "url": "http://place.map.kakao.com/1435464715",
    "category": "음식점 > 패스트푸드 > 버거킹"
  },
  {
    "id": "1882052517",
    "name": "버거킹 김천혁신도시점",
    "address": "경북 김천시 율곡동 782",
    "road_address": "경북 김천시 혁신3로 17",
    "lat": 36.11689081047441,
    "lng": 128.1833349327671,
    "phone": "010-5565-6709",
    "url": "http://place.map.kakao.com/1882052517",
    "category": "음식점 > 패스트푸드 > 버거킹"
  },
  {
    "id": "1564987361",
    "name": "버거킹 안동옥동점",
    "address": "경북 안동시 옥동 787-9",
    "road_address": "경북 안동시 경북대로 381",
    "lat": 36.56362332534997,
    "lng": 128.7019712532506,
    "phone": "054-857-6677",
    "url": "http://place.map.kakao.com/1564987361",
    "category": "음식점 > 패스트푸드 > 버거킹"
  },
  {
    "id": "623980927",
    "name": "버거킹 포항두호DT점",
    "address": "경북 포항시 북구 두호동 1053-4",
    "road_address": "경북 포항시 북구 두호로 39",
    "lat": 36.0599743657193,
    "lng": 129.374106939349,
    "phone": "070-7462-8629",
    "url": "http://place.map.kakao.com/623980927",
    "category": "음식점 > 패스트푸드 > 버거킹"
  },
  {
    "id": "245402075",
    "name": "버거킹 포항대도DT점",
    "address": "경북 포항시 남구 대도동 147-17",
    "road_address": "경북 포항시 남구 희망대로 843",
    "lat": 36.010883194195,
    "lng": 129.36480403003,
    "phone": "070-7459-7018",
    "url": "http://place.map.kakao.com/245402075",
    "category": "음식점 > 패스트푸드 > 버거킹"
  },
  {
    "id": "106018962",
    "name": "버거킹 경산하양점",
    "address": "경북 경산시 하양읍 금락리 116-272",
    "road_address": "경북 경산시 하양읍 하양로 50",
    "lat": 35.9099141286505,
    "lng": 128.814926494288,
    "phone": "053-242-3507",
    "url": "http://place.map.kakao.com/106018962",
    "category": "음식점 > 패스트푸드 > 버거킹"
  },
  {
    "id": "623767088",
    "name": "버거킹 구미상모사곡점",
    "address": "경북 구미시 사곡동 675-1",
    "road_address": "경북 구미시 상사서로18길 4",
    "lat": 36.097275791517355,
    "lng": 128.35718861272548,
    "phone": "054-464-6709",
    "url": "http://place.map.kakao.com/623767088",
    "category": "음식점 > 패스트푸드 > 버거킹"
  },
  {
    "id": "26533999",
    "name": "버거킹 포항법원앞DT점",
    "address": "경북 포항시 북구 장성동 1370-8",
    "road_address": "",
    "lat": 36.087449376411854,
    "lng": 129.38818033871271,
    "phone": "054-256-0332",
    "url": "http://place.map.kakao.com/26533999",
    "category": "음식점 > 패스트푸드 > 버거킹"
  },
  {
    "id": "1571599936",
    "name": "버거킹 경산진량DT점",
    "address": "경북 경산시 진량읍 신상리 685-18",
    "road_address": "경북 경산시 진량읍 다문로 53",
    "lat": 35.87512156886503,
    "lng": 128.81676741795405,
    "phone": "070-7462-6756",
    "url": "http://place.map.kakao.com/1571599936",
    "category": "음식점 > 패스트푸드 > 버거킹"
  },
  {
    "id": "11069304",
    "name": "버거킹 포항공대점",
    "address": "경북 포항시 남구 지곡동 151-2",
    "road_address": "경북 포항시 남구 청암로 77",
    "lat": 36.01550708845207,
    "lng": 129.32222046335818,
    "phone": "054-279-2585",
    "url": "http://place.map.kakao.com/11069304",
    "category": "음식점 > 패스트푸드 > 버거킹"
  },
  {
    "id": "1823063830",
    "name": "버거킹 영천DT점",
    "address": "경북 영천시 조교동 695-2",
    "road_address": "경북 영천시 영화로 382",
    "lat": 35.975914192431,
    "lng": 128.95402126002,
    "phone": "070-7459-7024",
    "url": "http://place.map.kakao.com/1823063830",
    "category": "음식점 > 패스트푸드 > 버거킹"
  },
  {
    "id": "1359122174",
    "name": "버거킹 김천교동DT점",
    "address": "경북 김천시 교동 740-1",
    "road_address": "경북 김천시 대학로 75",
    "lat": 36.1343451623201,
    "lng": 128.09544595845776,
    "phone": "010-2390-9067",
    "url": "http://place.map.kakao.com/1359122174",
    "category": "음식점 > 패스트푸드 > 버거킹"
  },
  {
    "id": "1758114148",
    "name": "버거킹 대구대점",
    "address": "경북 경산시 진량읍 내리리 15",
    "road_address": "경북 경산시 진량읍 대구대로 201",
    "lat": 35.89933759679726,
    "lng": 128.85258168744272,
    "phone": "053-852-2254",
    "url": "http://place.map.kakao.com/1758114148",
    "category": "음식점 > 패스트푸드 > 버거킹"
  },
  {
    "id": "547355812",
    "name": "버거킹 한동대점",
    "address": "경북 포항시 북구 흥해읍 남송리 3",
    "road_address": "경북 포항시 북구 흥해읍 한동로 558",
    "lat": 36.102165961987474,
    "lng": 129.39003145497833,
    "phone": "070-4140-0109",
    "url": "http://place.map.kakao.com/547355812",
    "category": "음식점 > 패스트푸드 > 버거킹"
  },
  {
    "id": "736979925",
    "name": "버거킹 김천교동DT점 주차장",
    "address": "경북 김천시 교동 740-1",
    "road_address": "경북 김천시 대학로 75",
    "lat": 36.1343753805512,
    "lng": 128.095196421645,
    "phone": "",
    "url": "http://place.map.kakao.com/736979925",
    "category": "교통,수송 > 교통시설 > 주차장"
  },
  {
    "id": "1794235549",
    "name": "버거킹 포항법원앞DT점 주차장",
    "address": "경북 포항시 북구 장성동 1370-8",
    "road_address": "",
    "lat": 36.0872961383488,
    "lng": 129.388093559372,
    "phone": "",
    "url": "http://place.map.kakao.com/1794235549",
    "category": "교통,수송 > 교통시설 > 주차장"
  },
  {
    "id": "1965888958",
    "name": "버거킹 마산회원FS점",
    "address": "경남 창원시 마산회원구 회원동 43-2",
    "road_address": "경남 창원시 마산회원구 3.15대로 522",
    "lat": 35.2208273496674,
    "lng": 128.574306726988,
    "phone": "070-7462-6872",
    "url": "http://place.map.kakao.com/1965888958",
    "category": "음식점 > 패스트푸드 > 버거킹"
  },
  {
    "id": "1681729897",
    "name": "버거킹 창원광장점",
    "address": "경남 창원시 성산구 중앙동 89-5",
    "road_address": "경남 창원시 성산구 용지로133번길 3",
    "lat": 35.22722836121036,
    "lng": 128.67952610247502,
    "phone": "070-7462-6824",
    "url": "http://place.map.kakao.com/1681729897",
    "category": "음식점 > 패스트푸드 > 버거킹"
  },
  {
    "id": "975147002",
    "name": "버거킹 창원상남FS점",
    "address": "경남 창원시 성산구 상남동 3-2",
    "road_address": "경남 창원시 성산구 마디미로3번길 18",
    "lat": 35.22275138954403,
    "lng": 128.6871512848349,
    "phone": "070-7438-8228",
    "url": "http://place.map.kakao.com/975147002",
    "category": "음식점 > 패스트푸드 > 버거킹"
  },
  {
    "id": "1111717060",
    "name": "버거킹 양산물금DT점",
    "address": "경남 양산시 물금읍 물금리 867-3",
    "road_address": "경남 양산시 물금읍 황산로 372",
    "lat": 35.30952926994425,
    "lng": 128.98659643644243,
    "phone": "070-7462-6873",
    "url": "http://place.map.kakao.com/1111717060",
    "category": "음식점 > 패스트푸드 > 버거킹"
  },
  {
    "id": "1224011546",
    "name": "버거킹 진주혁신도시점",
    "address": "경남 진주시 충무공동 279-6",
    "road_address": "경남 진주시 사들로 97",
    "lat": 35.17613821585817,
    "lng": 128.14862762032004,
    "phone": "055-761-6363",
    "url": "http://place.map.kakao.com/1224011546",
    "category": "음식점 > 패스트푸드 > 버거킹"
  },
  {
    "id": "26412178",
    "name": "버거킹 거제고현점",
    "address": "경남 거제시 고현동 970-2",
    "road_address": "경남 거제시 서문로5길 6",
    "lat": 34.889217430113035,
    "lng": 128.62126384869637,
    "phone": "055-632-5989",
    "url": "http://place.map.kakao.com/26412178",
    "category": "음식점 > 패스트푸드 > 버거킹"
  },
  {
    "id": "624332468",
    "name": "버거킹 서김해DT점",
    "address": "경남 김해시 풍유동 1003-1",
    "road_address": "경남 김해시 서김해산단안길 100",
    "lat": 35.21266664729331,
    "lng": 128.84520253960997,
    "phone": "070-7459-7015",
    "url": "http://place.map.kakao.com/624332468",
    "category": "음식점 > 패스트푸드 > 버거킹"
  },
  {
    "id": "467307364",
    "name": "버거킹 김해장유DT점",
    "address": "경남 김해시 대청동 1107-4",
    "road_address": "경남 김해시 반룡로 70",
    "lat": 35.18842673811839,
    "lng": 128.805482602919,
    "phone": "070-7462-6714",
    "url": "http://place.map.kakao.com/467307364",
    "category": "음식점 > 패스트푸드 > 버거킹"
  },
  {
    "id": "142672810",
    "name": "버거킹 동김해DT점",
    "address": "경남 김해시 삼정동 661-5",
    "road_address": "경남 김해시 김해대로 2499",
    "lat": 35.22830686964031,
    "lng": 128.9001155471067,
    "phone": "070-7438-6506",
    "url": "http://place.map.kakao.com/142672810",
    "category": "음식점 > 패스트푸드 > 버거킹"
  },
  {
    "id": "2049762084",
    "name": "버거킹 창원유니시티점",
    "address": "경남 창원시 의창구 중동 782-1",
    "road_address": "경남 창원시 의창구 중동북로 23",
    "lat": 35.2581402355989,
    "lng": 128.627158318728,
    "phone": "070-7459-7594",
    "url": "http://place.map.kakao.com/2049762084",
    "category": "음식점 > 패스트푸드 > 버거킹"
  },
  {
    "id": "766700571",
    "name": "버거킹 진해신항DT점",
    "address": "경남 창원시 진해구 용원동 1344",
    "road_address": "경남 창원시 진해구 신항4로 41-31",
    "lat": 35.0864276765311,
    "lng": 128.814659093181,
    "phone": "070-7461-4705",
    "url": "http://place.map.kakao.com/766700571",
    "category": "음식점 > 패스트푸드 > 버거킹"
  },
  {
    "id": "495081556",
    "name": "버거킹 김해진영FS점",
    "address": "경남 김해시 진영읍 진영리 79-4",
    "road_address": "경남 김해시 진영읍 김해대로 386-5",
    "lat": 35.3061806627128,
    "lng": 128.732682434146,
    "phone": "070-7438-6553",
    "url": "http://place.map.kakao.com/495081556",
    "category": "음식점 > 패스트푸드 > 버거킹"
  },
  {
    "id": "21465252",
    "name": "버거킹 진주평거점",
    "address": "경남 진주시 평거동 1137",
    "road_address": "경남 진주시 진양호로 221",
    "lat": 35.17386614528331,
    "lng": 128.06045883211877,
    "phone": "070-7462-6879",
    "url": "http://place.map.kakao.com/21465252",
    "category": "음식점 > 패스트푸드 > 버거킹"
  },
  {
    "id": "1389541003",
    "name": "버거킹 김해내외점",
    "address": "경남 김해시 외동 1249-4",
    "road_address": "경남 김해시 함박로 102",
    "lat": 35.23198914615841,
    "lng": 128.86530272549876,
    "phone": "070-7462-6776",
    "url": "http://place.map.kakao.com/1389541003",
    "category": "음식점 > 패스트푸드 > 버거킹"
  },
  {
    "id": "624009990",
    "name": "버거킹 진주하대DT점",
    "address": "경남 진주시 하대동 469",
    "road_address": "경남 진주시 대신로 345",
    "lat": 35.19141209483271,
    "lng": 128.11638249197048,
    "phone": "070-7459-7020",
    "url": "http://place.map.kakao.com/624009990",
    "category": "음식점 > 패스트푸드 > 버거킹"
  },
  {
    "id": "2003694294",
    "name": "버거킹 양산사송점",
    "address": "경남 양산시 동면 사송리 1124-2",
    "road_address": "경남 양산시 동면 삼송로 101",
    "lat": 35.3156645142543,
    "lng": 129.067827052775,
    "phone": "055-367-2477",
    "url": "http://place.map.kakao.com/2003694294",
    "category": "음식점 > 패스트푸드 > 버거킹"
  },
  {
    "id": "1476824092",
    "name": "버거킹 양산웅상DT점",
    "address": "경남 양산시 명동 781-34",
    "road_address": "경남 양산시 웅상대로 1204",
    "lat": 35.40551162123528,
    "lng": 129.16400816571462,
    "phone": "070-7462-6749",
    "url": "http://place.map.kakao.com/1476824092",
    "category": "음식점 > 패스트푸드 > 버거킹"
  },
  {
    "id": "77561511",
    "name": "버거킹 진주경상대점",
    "address": "경남 진주시 가좌동 478-6",
    "road_address": "경남 진주시 진주대로 540",
    "lat": 35.1545840319163,
    "lng": 128.107156744886,
    "phone": "055-756-5658",
    "url": "http://place.map.kakao.com/77561511",
    "category": "음식점 > 패스트푸드 > 버거킹"
  },
  {
    "id": "2083028695",
    "name": "버거킹 거제수월점",
    "address": "경남 거제시 양정동 962-1",
    "road_address": "경남 거제시 수양로 471",
    "lat": 34.8917284151411,
    "lng": 128.639467630183,
    "phone": "055-634-1116",
    "url": "http://place.map.kakao.com/2083028695",
    "category": "음식점 > 패스트푸드 > 버거킹"
  },
  {
    "id": "921443561",
    "name": "버거킹 김해아이스퀘어몰점",
    "address": "경남 김해시 부원동 1046",
    "road_address": "경남 김해시 김해대로 2352",
    "lat": 35.22606015677459,
    "lng": 128.88432838480247,
    "phone": "055-327-0700",
    "url": "http://place.map.kakao.com/921443561",
    "category": "음식점 > 패스트푸드 > 버거킹"
  },
  {
    "id": "1723088440",
    "name": "버거킹 거제옥포점",
    "address": "경남 거제시 옥포동 552-22",
    "road_address": "경남 거제시 옥포로 161",
    "lat": 34.889678715633,
    "lng": 128.692992707863,
    "phone": "055-688-5533",
    "url": "http://place.map.kakao.com/1723088440",
    "category": "음식점 > 패스트푸드 > 버거킹"
  },
  {
    "id": "2024488443",
    "name": "버거킹 양산터미널점",
    "address": "경남 양산시 중부동 691-10",
    "road_address": "경남 양산시 양산역2길 9",
    "lat": 35.3355117111033,
    "lng": 129.028237423598,
    "phone": "070-7459-7239",
    "url": "http://place.map.kakao.com/2024488443",
    "category": "음식점 > 패스트푸드 > 버거킹"
  },
  {
    "id": "1184680108",
    "name": "버거킹 진해자은DT점",
    "address": "경남 창원시 진해구 자은동 842-5",
    "road_address": "경남 창원시 진해구 진해대로 940",
    "lat": 35.14576340668099,
    "lng": 128.70677737328035,
    "phone": "070-7462-8637",
    "url": "http://place.map.kakao.com/1184680108",
    "category": "음식점 > 패스트푸드 > 버거킹"
  },
  {
    "id": "1480319933",
    "name": "버거킹 진해충무DT점",
    "address": "경남 창원시 진해구 여좌동 761-41",
    "road_address": "경남 창원시 진해구 충장로 103",
    "lat": 35.15265160490422,
    "lng": 128.66336231439598,
    "phone": "070-7462-6771",
    "url": "http://place.map.kakao.com/1480319933",
    "category": "음식점 > 패스트푸드 > 버거킹"
  },
  {
    "id": "752434605",
    "name": "버거킹 경남삼천포점",
    "address": "경남 사천시 벌리동 270-3",
    "road_address": "경남 사천시 주공로 41",
    "lat": 34.942000201261,
    "lng": 128.086365410891,
    "phone": "055-832-8585",
    "url": "http://place.map.kakao.com/752434605",
    "category": "음식점 > 패스트푸드 > 버거킹"
  },
  {
    "id": "1279462646",
    "name": "버거킹 김해구산DT점",
    "address": "경남 김해시 구산동 834-7",
    "road_address": "경남 김해시 김해대로 1928",
    "lat": 35.2546550850395,
    "lng": 128.86680860923,
    "phone": "070-7462-8761",
    "url": "http://place.map.kakao.com/1279462646",
    "category": "음식점 > 패스트푸드 > 버거킹"
  },
  {
    "id": "1763242770",
    "name": "버거킹 경남거창점",
    "address": "경남 거창군 거창읍 상림리 797-2",
    "road_address": "경남 거창군 거창읍 거열로 106",
    "lat": 35.6884669914559,
    "lng": 127.905477735716,
    "phone": "055-942-6660",
    "url": "http://place.map.kakao.com/1763242770",
    "category": "음식점 > 패스트푸드 > 버거킹"
  },
  {
    "id": "2116092472",
    "name": "버거킹 밀양삼문FS점",
    "address": "경남 밀양시 삼문동 526-1",
    "road_address": "경남 밀양시 밀양대로 1790",
    "lat": 35.4850961800355,
    "lng": 128.751279413196,
    "phone": "070-7720-0101",
    "url": "http://place.map.kakao.com/2116092472",
    "category": "음식점 > 패스트푸드 > 버거킹"
  },
  {
    "id": "1194184541",
    "name": "버거킹 창원상남FS점 주차장",
    "address": "경남 창원시 성산구 상남동 3-2",
    "road_address": "경남 창원시 성산구 마디미로3번길 18",
    "lat": 35.2227504732799,
    "lng": 128.687152364122,
    "phone": "",
    "url": "http://place.map.kakao.com/1194184541",
    "category": "교통,수송 > 교통시설 > 주차장"
  },
  {
    "id": "1441381080",
    "name": "버거킹 서김해DT점 주차장",
    "address": "경남 김해시 풍유동 1003-1",
    "road_address": "경남 김해시 서김해산단안길 100",
    "lat": 35.2126792596554,
    "lng": 128.845202825088,
    "phone": "",
    "url": "http://place.map.kakao.com/1441381080",
    "category": "교통,수송 > 교통시설 > 주차장"
  },
  {
    "id": "1896249412",
    "name": "버거킹 동김해DT점 주차장",
    "address": "경남 김해시 삼정동 661-9",
    "road_address": "",
    "lat": 35.2283314126211,
    "lng": 128.90027427307,
    "phone": "",
    "url": "http://place.map.kakao.com/1896249412",
    "category": "교통,수송 > 교통시설 > 주차장"
  },
  {
    "id": "2036746114",
    "name": "버거킹 마산회원FS점 주차장",
    "address": "경남 창원시 마산회원구 회원동 43-2",
    "road_address": "",
    "lat": 35.2207176848568,
    "lng": 128.574354029972,
    "phone": "",
    "url": "http://place.map.kakao.com/2036746114",
    "category": "교통,수송 > 교통시설 > 주차장"
  },
  {
    "id": "888611644",
    "name": "버거킹 양산물금DT점 주차장",
    "address": "경남 양산시 물금읍 물금리 867-4",
    "road_address": "",
    "lat": 35.3093498515815,
    "lng": 128.986546974189,
    "phone": "",
    "url": "http://place.map.kakao.com/888611644",
    "category": "교통,수송 > 교통시설 > 주차장"
  },
  {
    "id": "1499213923",
    "name": "버거킹 진주혁신도시점 전용주차장",
    "address": "경남 진주시 충무공동 279-6",
    "road_address": "경남 진주시 사들로 97",
    "lat": 35.1763333738047,
    "lng": 128.148482173922,
    "phone": "",
    "url": "http://place.map.kakao.com/1499213923",
    "category": "교통,수송 > 교통시설 > 주차장"
  },
  {
    "id": "1044256776",
    "name": "버거킹 진해충무DT점 주차장",
    "address": "경남 창원시 진해구 여좌동 761-41",
    "road_address": "",
    "lat": 35.1526131101453,
    "lng": 128.663540393342,
    "phone": "",
    "url": "http://place.map.kakao.com/1044256776",
    "category": "교통,수송 > 교통시설 > 주차장"
  },
  {
    "id": "484266538",
    "name": "버거킹 김해장유DT점 주차장",
    "address": "경남 김해시 대청동 1107-4",
    "road_address": "경남 김해시 반룡로 70",
    "lat": 35.1884336998929,
    "lng": 128.805499223523,
    "phone": "",
    "url": "http://place.map.kakao.com/484266538",
    "category": "교통,수송 > 교통시설 > 주차장"
  },
  {
    "id": "1017260449",
    "name": "투루카 버거킹 진해충무DT점",
    "address": "경남 창원시 진해구 여좌동 761-41",
    "road_address": "경남 창원시 진해구 충장로 103",
    "lat": 35.1526308371327,
    "lng": 128.66336518356,
    "phone": "1600-6038",
    "url": "http://place.map.kakao.com/1017260449",
    "category": "교통,수송 > 교통시설 > 카셰어링 > 투루카"
  },
  {
    "id": "1860374120",
    "name": "워터 버거킹 진주하대DT 전기차충전소",
    "address": "경남 진주시 하대동 469",
    "road_address": "경남 진주시 대신로 345",
    "lat": 35.19136167745738,
    "lng": 128.11608316689856,
    "phone": "",
    "url": "http://place.map.kakao.com/1860374120",
    "category": "교통,수송 > 자동차 > 전기차 충전소"
  },
  {
    "id": "1236533503",
    "name": "버거킹 제주노형점",
    "address": "제주특별자치도 제주시 노형동 904-4",
    "road_address": "제주특별자치도 제주시 도령로 20",
    "lat": 33.486927197067,
    "lng": 126.481584349026,
    "phone": "070-7462-8541",
    "url": "http://place.map.kakao.com/1236533503",
    "category": "음식점 > 패스트푸드 > 버거킹"
  },
  {
    "id": "1038727994",
    "name": "버거킹 제주애월DT점",
    "address": "제주특별자치도 제주시 애월읍 신엄리 2493-2",
    "road_address": "제주특별자치도 제주시 애월읍 일주서로 6654",
    "lat": 33.46950806921981,
    "lng": 126.36363132663296,
    "phone": "070-7459-7358",
    "url": "http://place.map.kakao.com/1038727994",
    "category": "음식점 > 패스트푸드 > 버거킹"
  },
  {
    "id": "971924755",
    "name": "버거킹 제주민속오일장DT점",
    "address": "제주특별자치도 제주시 연동 2413-4",
    "road_address": "제주특별자치도 제주시 일주서로 7802",
    "lat": 33.4932414513805,
    "lng": 126.480175816874,
    "phone": "070-7459-7033",
    "url": "http://place.map.kakao.com/971924755",
    "category": "음식점 > 패스트푸드 > 버거킹"
  },
  {
    "id": "665251407",
    "name": "버거킹 제주화북DT점",
    "address": "제주특별자치도 제주시 화북일동 3907-9",
    "road_address": "제주특별자치도 제주시 일주동로 158",
    "lat": 33.51759390945801,
    "lng": 126.56269420086076,
    "phone": "070-7459-7032",
    "url": "http://place.map.kakao.com/665251407",
    "category": "음식점 > 패스트푸드 > 버거킹"
  },
  {
    "id": "1588450125",
    "name": "버거킹 서귀포시청점",
    "address": "제주특별자치도 서귀포시 서홍동 441-2",
    "road_address": "제주특별자치도 서귀포시 일주동로 8684",
    "lat": 33.2533739514535,
    "lng": 126.560575664104,
    "phone": "070-7459-6859",
    "url": "http://place.map.kakao.com/1588450125",
    "category": "음식점 > 패스트푸드 > 버거킹"
  },
  {
    "id": "2120668608",
    "name": "버거킹 제주함덕DT점",
    "address": "제주특별자치도 제주시 조천읍 함덕리 916",
    "road_address": "제주특별자치도 제주시 조천읍 일주동로 1184",
    "lat": 33.5367953744554,
    "lng": 126.66717417026118,
    "phone": "070-7459-7016",
    "url": "http://place.map.kakao.com/2120668608",
    "category": "음식점 > 패스트푸드 > 버거킹"
  },
  {
    "id": "1469451679",
    "name": "버거킹 제주세화점",
    "address": "제주특별자치도 제주시 구좌읍 세화리 1560",
    "road_address": "제주특별자치도 제주시 구좌읍 일주동로 3126",
    "lat": 33.52225028943208,
    "lng": 126.8531251267544,
    "phone": "064-784-0770",
    "url": "http://place.map.kakao.com/1469451679",
    "category": "음식점 > 패스트푸드 > 버거킹"
  },
  {
    "id": "1563347813",
    "name": "워터 버거킹 제주민속오일장DT 전기차충전소",
    "address": "제주특별자치도 제주시 연동 2413-4",
    "road_address": "제주특별자치도 제주시 일주서로 7800",
    "lat": 33.49325719036383,
    "lng": 126.47984429504432,
    "phone": "",
    "url": "http://place.map.kakao.com/1563347813",
    "category": "교통,수송 > 자동차 > 전기차 충전소"
  },
  {
    "id": "530901638",
    "name": "워터 버거킹 제주애월DT 전기차충전소",
    "address": "제주특별자치도 제주시 애월읍 신엄리 2493-2",
    "road_address": "",
    "lat": 33.469790231738465,
    "lng": 126.36380031101254,
    "phone": "",
    "url": "http://place.map.kakao.com/530901638",
    "category": "교통,수송 > 자동차 > 전기차 충전소"
  },
  {
    "id": "312383147",
    "name": "워터 버거킹 제주함덕DT 전기차충전소",
    "address": "제주특별자치도 제주시 조천읍 함덕리 916",
    "road_address": "제주특별자치도 제주시 조천읍 일주동로 1184",
    "lat": 33.53661035962147,
    "lng": 126.66743972569896,
    "phone": "",
    "url": "http://place.map.kakao.com/312383147",
    "category": "교통,수송 > 자동차 > 전기차 충전소"
  },
  {
    "id": "1097372720",
    "name": "워터 버거킹 제주화북DT 전기차충전소",
    "address": "제주특별자치도 제주시 화북일동 3907-9",
    "road_address": "제주특별자치도 제주시 일주동로 158",
    "lat": 33.517634658866,
    "lng": 126.562744585265,
    "phone": "",
    "url": "http://place.map.kakao.com/1097372720",
    "category": "교통,수송 > 자동차 > 전기차 충전소"
  }
]