[
  {
    "id": "19157089",
    "name": "써브웨이 강남역점",
    "address": "서울 강남구 역삼동 818-1",
    "road_address": "서울 강남구 강남대로96길 12",
    "latitude": 37.499779332771375,
    "longitude": 127.027978289709,
    "phone": "02-557-4727",
    "url": "http://place.map.kakao.com/19157089",
    "category": "음식점 > 패스트푸드 > 샌드위치 > 써브웨이"
  },
  {
    "id": "14809216",
    "name": "써브웨이 신사점",
    "address": "서울 강남구 논현동 4-1",
    "road_address": "서울 강남구 도산대로 124",
    "latitude": 37.516920365937146,
    "longitude": 127.02224748763877,
    "phone": "02-546-2007",
    "url": "http://place.map.kakao.com/14809216",
    "category": "음식점 > 패스트푸드 > 샌드위치 > 써브웨이"
  },
  {
    "id": "911952724",
    "name": "써브웨이 신논현점",
    "address": "서울 서초구 반포동 737-3",
    "road_address": "서울 서초구 강남대로 499",
    "latitude": 37.50658208093195,
    "longitude": 127.02308927291396,
    "phone": "02-544-1014",
    "url": "http://place.map.kakao.com/911952724",
    "category": "음식점 > 패스트푸드 > 샌드위치 > 써브웨이"
  },
  {
    "id": "13081841",
    "name": "써브웨이 서울대점",
    "address": "서울 관악구 봉천동 863-4",
    "road_address": "서울 관악구 관악로 157",
    "latitude": 37.47945520691699,
    "longitude": 126.95208574444746,
    "phone": "02-887-6887",
    "url": "http://place.map.kakao.com/13081841",
    "category": "음식점 > 패스트푸드 > 샌드위치 > 써브웨이"
  },
  {
    "id": "920671383",
    "name": "써브웨이 서초법원점",
    "address": "서울 서초구 서초동 1717-4",
    "road_address": "서울 서초구 법원로1길 1",
    "latitude": 37.49327780545306,
    "longitude": 127.01057632422207,
    "phone": "02-595-1718",
    "url": "http://place.map.kakao.com/920671383",
    "category": "음식점 > 패스트푸드 > 샌드위치 > 써브웨이"
  },
  {
    "id": "733096234",
    "name": "써브웨이 발산역점",
    "address": "서울 강서구 마곡동 795-7",
    "road_address": "서울 강서구 마곡중앙6로 93",
    "latitude": 37.560128295973556,
    "longitude": 126.8376993071637,
    "phone": "02-3663-6837",
    "url": "http://place.map.kakao.com/733096234",
    "category": "음식점 > 패스트푸드 > 샌드위치 > 써브웨이"
  },
  {
    "id": "1845117827",
    "name": "써브웨이 선릉점",
    "address": "서울 강남구 역삼동 705-27",
    "road_address": "서울 강남구 테헤란로 337",
    "latitude": 37.5046993871305,
    "longitude": 127.048504915284,
    "phone": "02-557-5004",
    "url": "http://place.map.kakao.com/1845117827",
    "category": "음식점 > 패스트푸드 > 샌드위치 > 써브웨이"
  },
  {
    "id": "27583471",
    "name": "써브웨이 강남우성점",
    "address": "서울 강남구 역삼동 837-1",
    "road_address": "서울 강남구 강남대로66길 6",
    "latitude": 37.49163335639982,
    "longitude": 127.03145802263491,
    "phone": "02-553-5232",
    "url": "http://place.map.kakao.com/27583471",
    "category": "음식점 > 패스트푸드 > 샌드위치 > 써브웨이"
  },
  {
    "id": "19157195",
    "name": "써브웨이 종로점",
    "address": "서울 종로구 종로2가 12",
    "road_address": "서울 종로구 종로 77",
    "latitude": 37.57040783343064,
    "longitude": 126.98593256813055,
    "phone": "02-737-0034",
    "url": "http://place.map.kakao.com/19157195",
    "category": "음식점 > 패스트푸드 > 샌드위치 > 써브웨이"
  },
  {
    "id": "1874927854",
    "name": "써브웨이 성수역점",
    "address": "서울 성동구 성수동2가 300-1",
    "road_address": "서울 성동구 아차산로 113",
    "latitude": 37.54467575712758,
    "longitude": 127.05701758373577,
    "phone": "02-497-2800",
    "url": "http://place.map.kakao.com/1874927854",
    "category": "음식점 > 패스트푸드 > 샌드위치 > 써브웨이"
  },
  {
    "id": "26484597",
    "name": "써브웨이 논현역점",
    "address": "서울 서초구 반포동 707-11",
    "road_address": "서울 서초구 강남대로 535",
    "latitude": 37.50959351418881,
    "longitude": 127.02163681289875,
    "phone": "02-512-1014",
    "url": "http://place.map.kakao.com/26484597",
    "category": "음식점 > 패스트푸드 > 샌드위치 > 써브웨이"
  },
  {
    "id": "18234144",
    "name": "써브웨이 시청점",
    "address": "서울 중구 태평로2가 69-13",
    "road_address": "서울 중구 세종대로 68",
    "latitude": 37.5622737806049,
    "longitude": 126.976589086915,
    "phone": "02-777-9200",
    "url": "http://place.map.kakao.com/18234144",
    "category": "음식점 > 패스트푸드 > 샌드위치 > 써브웨이"
  },
  {
    "id": "26321115",
    "name": "써브웨이 합정역메세나폴리스점",
    "address": "서울 마포구 서교동 490",
    "road_address": "서울 마포구 양화로 45",
    "latitude": 37.55076381623667,
    "longitude": 126.9133746186048,
    "phone": "02-384-9890",
    "url": "http://place.map.kakao.com/26321115",
    "category": "음식점 > 패스트푸드 > 샌드위치 > 써브웨이"
  },
  {
    "id": "26321870",
    "name": "써브웨이 노원점",
    "address": "서울 노원구 상계동 723",
    "road_address": "서울 노원구 노해로 502",
    "latitude": 37.654413016910546,
    "longitude": 127.06369680888777,
    "phone": "02-936-0501",
    "url": "http://place.map.kakao.com/26321870",
    "category": "음식점 > 패스트푸드 > 샌드위치 > 써브웨이"
  },
  {
    "id": "792850221",
    "name": "써브웨이 군자역점",
    "address": "서울 광진구 능동 279-5",
    "road_address": "서울 광진구 능동로 290",
    "latitude": 37.55560035308022,
    "longitude": 127.07894196798092,
    "phone": "02-456-6444",
    "url": "http://place.map.kakao.com/792850221",
    "category": "음식점 > 패스트푸드 > 샌드위치 > 써브웨이"
  },
  {
    "id": "351774218",
    "name": "써브웨이 압구정역점",
    "address": "서울 강남구 신사동 581-8",
    "road_address": "서울 강남구 압구정로28길 13",
    "latitude": 37.52565619384057,
    "longitude": 127.02788613532715,
    "phone": "02-548-1014",
    "url": "http://place.map.kakao.com/351774218",
    "category": "음식점 > 패스트푸드 > 샌드위치 > 써브웨이"
  },
  {
    "id": "380415856",
    "name": "써브웨이 왕십리역점",
    "address": "서울 성동구 도선동 253-12",
    "road_address": "서울 성동구 왕십리로 328",
    "latitude": 37.56279126138279,
    "longitude": 127.03336791226478,
    "phone": "02-2295-1800",
    "url": "http://place.map.kakao.com/380415856",
    "category": "음식점 > 패스트푸드 > 샌드위치 > 써브웨이"
  },
  {
    "id": "26932816",
    "name": "써브웨이 을지로3가점",
    "address": "서울 중구 을지로2가 101-3",
    "road_address": "서울 중구 을지로 103-1",
    "latitude": 37.566365250062,
    "longitude": 126.98942353814229,
    "phone": "02-2275-9890",
    "url": "http://place.map.kakao.com/26932816",
    "category": "음식점 > 패스트푸드 > 샌드위치 > 써브웨이"
  },
  {
    "id": "193686497",
    "name": "써브웨이 잠실역점",
    "address": "서울 송파구 신천동 7-28",
    "road_address": "서울 송파구 올림픽로 293-19",
    "latitude": 37.51516331584118,
    "longitude": 127.10257039927868,
    "phone": "02-2202-1300",
    "url": "http://place.map.kakao.com/193686497",
    "category": "음식점 > 패스트푸드 > 샌드위치 > 써브웨이"
  },
  {
    "id": "2140466181",
    "name": "써브웨이 가양역점",
    "address": "서울 강서구 등촌동 717",
    "road_address": "서울 강서구 양천로 470",
    "latitude": 37.56224232061983,
    "longitude": 126.85233274713978,
    "phone": "02-2668-6777",
    "url": "http://place.map.kakao.com/2140466181",
    "category": "음식점 > 패스트푸드 > 샌드위치 > 써브웨이"
  },
  {
    "id": "1202599602",
    "name": "써브웨이 여의도KBS본관점",
    "address": "서울 영등포구 여의도동 17-10",
    "road_address": "서울 영등포구 국회대로62길 25",
    "latitude": 37.526195771370475,
    "longitude": 126.91774606206421,
    "phone": "02-782-1518",
    "url": "http://place.map.kakao.com/1202599602",
    "category": "음식점 > 패스트푸드 > 샌드위치 > 써브웨이"
  },
  {
    "id": "897742926",
    "name": "써브웨이 용산역점",
    "address": "서울 용산구 한강로2가 420",
    "road_address": "서울 용산구 한강대로 69",
    "latitude": 37.5275465316028,
    "longitude": 126.96543276426058,
    "phone": "02-790-2220",
    "url": "http://place.map.kakao.com/897742926",
    "category": "음식점 > 패스트푸드 > 샌드위치 > 써브웨이"
  },
  {
    "id": "630278994",
    "name": "써브웨이 압구정로데오점",
    "address": "서울 강남구 청담동 86",
    "road_address": "서울 강남구 선릉로 806",
    "latitude": 37.5238904716088,
    "longitude": 127.039644891268,
    "phone": "02-545-1014",
    "url": "http://place.map.kakao.com/630278994",
    "category": "음식점 > 패스트푸드 > 샌드위치 > 써브웨이"
  },
  {
    "id": "25538186",
    "name": "써브웨이 광화문점",
    "address": "서울 종로구 당주동 128-17",
    "road_address": "서울 종로구 새문안로3길 19",
    "latitude": 37.57201358374303,
    "longitude": 126.97258107842912,
    "phone": "0503-7151-9379",
    "url": "http://place.map.kakao.com/25538186",
    "category": "음식점 > 패스트푸드 > 샌드위치 > 써브웨이"
  },
  {
    "id": "1754763959",
    "name": "써브웨이 미아역점",
    "address": "서울 강북구 미아동 207-17",
    "road_address": "서울 강북구 도봉로 209",
    "latitude": 37.627256463078,
    "longitude": 127.025515671048,
    "phone": "02-946-1596",
    "url": "http://place.map.kakao.com/1754763959",
    "category": "음식점 > 패스트푸드 > 샌드위치 > 써브웨이"
  },
  {
    "id": "1576847439",
    "name": "써브웨이 송파역점",
    "address": "서울 송파구 송파동 97-31",
    "road_address": "서울 송파구 송파대로 374",
    "latitude": 37.5013430635852,
    "longitude": 127.111248234873,
    "phone": "02-420-2160",
    "url": "http://place.map.kakao.com/1576847439",
    "category": "음식점 > 패스트푸드 > 샌드위치 > 써브웨이"
  },
  {
    "id": "23149546",
    "name": "써브웨이 대학로점",
    "address": "서울 종로구 동숭동 1-83",
    "road_address": "서울 종로구 동숭길 101",
    "latitude": 37.58255112644522,
    "longitude": 127.00397156028843,
    "phone": "02-764-5656",
    "url": "http://place.map.kakao.com/23149546",
    "category": "음식점 > 패스트푸드 > 샌드위치 > 써브웨이"
  },
  {
    "id": "10505997",
    "name": "써브웨이 구로디지털점",
    "address": "서울 구로구 구로동 811",
    "road_address": "서울 구로구 디지털로34길 55",
    "latitude": 37.48396763069818,
    "longitude": 126.89933784173078,
    "phone": "02-2088-7279",
    "url": "http://place.map.kakao.com/10505997",
    "category": "음식점 > 패스트푸드 > 샌드위치 > 써브웨이"
  },
  {
    "id": "24482243",
    "name": "써브웨이 이대점",
    "address": "서울 서대문구 대현동 54-4",
    "road_address": "서울 서대문구 이화여대길 34",
    "latitude": 37.55847953105561,
    "longitude": 126.94592358003743,
    "phone": "02-364-8870",
    "url": "http://place.map.kakao.com/24482243",
    "category": "음식점 > 패스트푸드 > 샌드위치 > 써브웨이"
  },
  {
    "id": "19157194",
    "name": "써브웨이 화곡역점",
    "address": "서울 강서구 화곡동 1075-13",
    "road_address": "서울 강서구 강서로 159-1",
    "latitude": 37.541014067762696,
    "longitude": 126.84066345020781,
    "phone": "02-2603-5353",
    "url": "http://place.map.kakao.com/19157194",
    "category": "음식점 > 패스트푸드 > 샌드위치 > 써브웨이"
  },
  {
    "id": "356702055",
    "name": "써브웨이 삼성점",
    "address": "서울 강남구 삼성동 156-5",
    "road_address": "서울 강남구 삼성로 520",
    "latitude": 37.50864428236799,
    "longitude": 127.05598581486619,
    "phone": "02-2051-2008",
    "url": "http://place.map.kakao.com/356702055",
    "category": "음식점 > 패스트푸드 > 샌드위치 > 써브웨이"
  },
  {
    "id": "13081848",
    "name": "써브웨이 중앙대점",
    "address": "서울 동작구 흑석동 195-19",
    "road_address": "서울 동작구 흑석로 79",
    "latitude": 37.50698428719987,
    "longitude": 126.95845831346196,
    "phone": "02-815-6429",
    "url": "http://place.map.kakao.com/13081848",
    "category": "음식점 > 패스트푸드 > 샌드위치 > 써브웨이"
  },
  {
    "id": "1895896389",
    "name": "써브웨이 문정역점",
    "address": "서울 송파구 문정동 221-5",
    "road_address": "서울 송파구 법원로 114",
    "latitude": 37.4861853748997,
    "longitude": 127.12049060649446,
    "phone": "02-3012-1259",
    "url": "http://place.map.kakao.com/1895896389",
    "category": "음식점 > 패스트푸드 > 샌드위치 > 써브웨이"
  },
  {
    "id": "1898620104",
    "name": "써브웨이 언주역점",
    "address": "서울 강남구 역삼동 650-2",
    "road_address": "서울 강남구 봉은사로 206",
    "latitude": 37.507287449921364,
    "longitude": 127.03463480044107,
    "phone": "02-557-8805",
    "url": "http://place.map.kakao.com/1898620104",
    "category": "음식점 > 패스트푸드 > 샌드위치 > 써브웨이"
  },
  {
    "id": "2093495429",
    "name": "써브웨이 낙성대역점",
    "address": "서울 관악구 봉천동 1661-4",
    "road_address": "서울 관악구 남부순환로 1904",
    "latitude": 37.47787981985647,
    "longitude": 126.96070616037045,
    "phone": "02-877-6687",
    "url": "http://place.map.kakao.com/2093495429",
    "category": "음식점 > 패스트푸드 > 샌드위치 > 써브웨이"
  },
  {
    "id": "24612880",
    "name": "써브웨이 문정법조점",
    "address": "서울 송파구 문정동 622",
    "road_address": "서울 송파구 충민로 5",
    "latitude": 37.48041421472322,
    "longitude": 127.11980410952339,
    "phone": "02-400-4937",
    "url": "http://place.map.kakao.com/24612880",
    "category": "음식점 > 패스트푸드 > 샌드위치 > 써브웨이"
  },
  {
    "id": "694091049",
    "name": "써브웨이 여의도화재보험점",
    "address": "서울 영등포구 여의도동 35-7",
    "road_address": "서울 영등포구 국제금융로6길 38",
    "latitude": 37.52144220895559,
    "longitude": 126.92611438639449,
    "phone": "02-6951-1118",
    "url": "http://place.map.kakao.com/694091049",
    "category": "음식점 > 패스트푸드 > 샌드위치 > 써브웨이"
  },
  {
    "id": "1458192140",
    "name": "써브웨이 서울숲점",
    "address": "서울 성동구 성수동1가 656-1066",
    "road_address": "서울 성동구 왕십리로 108-1",
    "latitude": 37.547347090616725,
    "longitude": 127.04477332416333,
    "phone": "02-499-2900",
    "url": "http://place.map.kakao.com/1458192140",
    "category": "음식점 > 패스트푸드 > 샌드위치 > 써브웨이"
  },
  {
    "id": "1985519383",
    "name": "써브웨이 석촌호수점",
    "address": "서울 송파구 송파동 58-1",
    "road_address": "서울 송파구 석촌호수로 298",
    "latitude": 37.51164878890662,
    "longitude": 127.10830351510964,
    "phone": "02-424-0020",
    "url": "http://place.map.kakao.com/1985519383",
    "category": "음식점 > 패스트푸드 > 샌드위치 > 써브웨이"
  },
  {
    "id": "19009602",
    "name": "써브웨이 교대점",
    "address": "서울 서초구 서초동 1670-10",
    "road_address": "서울 서초구 서초중앙로22길 47",
    "latitude": 37.49359515297624,
    "longitude": 127.01670756454675,
    "phone": "02-581-0696",
    "url": "http://place.map.kakao.com/19009602",
    "category": "음식점 > 패스트푸드 > 샌드위치 > 써브웨이"
  },
  {
    "id": "2143223381",
    "name": "써브웨이 건대입구점",
    "address": "서울 광진구 화양동 6-2",
    "road_address": "서울 광진구 아차산로 241",
    "latitude": 37.54060963890514,
    "longitude": 127.07022485600113,
    "phone": "02-499-9292",
    "url": "http://place.map.kakao.com/2143223381",
    "category": "음식점 > 패스트푸드 > 샌드위치 > 써브웨이"
  },
  {
    "id": "1520357978",
    "name": "써브웨이 신정네거리역점",
    "address": "서울 양천구 신정동 1183-5",
    "road_address": "서울 양천구 중앙로 265",
    "latitude": 37.5198499822902,
    "longitude": 126.852788492687,
    "phone": "02-2607-9979",
    "url": "http://place.map.kakao.com/1520357978",
    "category": "음식점 > 패스트푸드 > 샌드위치 > 써브웨이"
  },
  {
    "id": "1782278964",
    "name": "써브웨이 역삼점",
    "address": "서울 강남구 역삼동 642-1",
    "road_address": "서울 강남구 테헤란로25길 20",
    "latitude": 37.501588330629936,
    "longitude": 127.03551089271811,
    "phone": "02-501-1554",
    "url": "http://place.map.kakao.com/1782278964",
    "category": "음식점 > 패스트푸드 > 샌드위치 > 써브웨이"
  },
  {
    "id": "14564625",
    "name": "써브웨이 숭실대점",
    "address": "서울 동작구 상도동 501",
    "road_address": "서울 동작구 사당로 10",
    "latitude": 37.49531966472594,
    "longitude": 126.9554364245103,
    "phone": "02-812-3552",
    "url": "http://place.map.kakao.com/14564625",
    "category": "음식점 > 패스트푸드 > 샌드위치 > 써브웨이"
  },
  {
    "id": "1351510456",
    "name": "써브웨이 뚝섬유원지역점",
    "address": "서울 광진구 자양동 854",
    "road_address": "서울 광진구 뚝섬로34길 67",
    "latitude": 37.53224811734309,
    "longitude": 127.06754355806858,
    "phone": "02-467-4556",
    "url": "http://place.map.kakao.com/1351510456",
    "category": "음식점 > 패스트푸드 > 샌드위치 > 써브웨이"
  },
  {
    "id": "25817837",
    "name": "써브웨이 부산서면점",
    "address": "부산 부산진구 부전동 194-6",
    "road_address": "부산 부산진구 중앙대로 690",
    "latitude": 35.1542717203739,
    "longitude": 129.059383991978,
    "phone": "051-802-9404",
    "url": "http://place.map.kakao.com/25817837",
    "category": "음식점 > 패스트푸드 > 샌드위치 > 써브웨이"
  },
  {
    "id": "1600983532",
    "name": "써브웨이 부산서면롯데점",
    "address": "부산 부산진구 부전동 517-17",
    "road_address": "부산 부산진구 서면로 51",
    "latitude": 35.155412889277834,
    "longitude": 129.0575638598818,
    "phone": "051-809-8337",
    "url": "http://place.map.kakao.com/1600983532",
    "category": "음식점 > 패스트푸드 > 샌드위치 > 써브웨이"
  },
  {
    "id": "666693486",
    "name": "써브웨이 부산시청점",
    "address": "부산 연제구 연산동 1330-9",
    "road_address": "부산 연제구 중앙대로 1043",
    "latitude": 35.181708901251916,
    "longitude": 129.0778812179154,
    "phone": "051-868-4140",
    "url": "http://place.map.kakao.com/666693486",
    "category": "음식점 > 패스트푸드 > 샌드위치 > 써브웨이"
  },
  {
    "id": "45192470",
    "name": "써브웨이 부산전포본점",
    "address": "부산 부산진구 전포동 683-6",
    "road_address": "부산 부산진구 전포대로199번길 44",
    "latitude": 35.1546456091475,
    "longitude": 129.0627784641524,
    "phone": "051-817-1232",
    "url": "http://place.map.kakao.com/45192470",
    "category": "음식점 > 패스트푸드 > 샌드위치 > 써브웨이"
  },
  {
    "id": "696308862",
    "name": "써브웨이 부산명지점",
    "address": "부산 강서구 명지동 3239-2",
    "road_address": "부산 강서구 명지오션시티4로 61",
    "latitude": 35.083607389185424,
    "longitude": 128.9038642674571,
    "phone": "051-203-6767",
    "url": "http://place.map.kakao.com/696308862",
    "category": "음식점 > 패스트푸드 > 샌드위치 > 써브웨이"
  },
  {
    "id": "1197993385",
    "name": "써브웨이 부산센텀점",
    "address": "부산 해운대구 우동 1483",
    "road_address": "부산 해운대구 센텀5로 55",
    "latitude": 35.17280038847747,
    "longitude": 129.13144261124864,
    "phone": "051-741-6777",
    "url": "http://place.map.kakao.com/1197993385",
    "category": "음식점 > 패스트푸드 > 샌드위치 > 써브웨이"
  },
  {
    "id": "1980879911",
    "name": "써브웨이 부산사상점",
    "address": "부산 사상구 괘법동 526-7",
    "road_address": "부산 사상구 사상로 211",
    "latitude": 35.16390497853458,
    "longitude": 128.98326916024257,
    "phone": "010-9758-5226",
    "url": "http://place.map.kakao.com/1980879911",
    "category": "음식점 > 패스트푸드 > 샌드위치 > 써브웨이"
  },
  {
    "id": "27457265",
    "name": "써브웨이 부산대점",
    "address": "부산 금정구 장전동 417-39",
    "road_address": "부산 금정구 부산대학로 48",
    "latitude": 35.2314186539085,
    "longitude": 129.086070457708,
    "phone": "051-513-3331",
    "url": "http://place.map.kakao.com/27457265",
    "category": "음식점 > 패스트푸드 > 샌드위치 > 써브웨이"
  },
  {
    "id": "1803673366",
    "name": "써브웨이 부산해운대비치점",
    "address": "부산 해운대구 중동 1391-41",
    "road_address": "부산 해운대구 구남로 42-1",
    "latitude": 35.16033547558221,
    "longitude": 129.16131593386265,
    "phone": "051-731-2234",
    "url": "http://place.map.kakao.com/1803673366",
    "category": "음식점 > 패스트푸드 > 샌드위치 > 써브웨이"
  },
  {
    "id": "26944674",
    "name": "써브웨이 부산부경대점",
    "address": "부산 남구 대연동 61-2",
    "road_address": "부산 남구 용소로 24",
    "latitude": 35.135173647699816,
    "longitude": 129.1005665851881,
    "phone": "051-611-5617",
    "url": "http://place.map.kakao.com/26944674",
    "category": "음식점 > 패스트푸드 > 샌드위치 > 써브웨이"
  },
  {
    "id": "538479828",
    "name": "써브웨이 부산양정점",
    "address": "부산 부산진구 양정동 363-2",
    "road_address": "부산 부산진구 양지로 4",
    "latitude": 35.16999589390165,
    "longitude": 129.06933288492783,
    "phone": "051-868-7937",
    "url": "http://place.map.kakao.com/538479828",
    "category": "음식점 > 패스트푸드 > 샌드위치 > 써브웨이"
  },
  {
    "id": "27365821",
    "name": "써브웨이 광안비치점",
    "address": "부산 수영구 광안동 158-59",
    "road_address": "부산 수영구 광남로 155-1",
    "latitude": 35.15524928352477,
    "longitude": 129.11812419153603,
    "phone": "051-757-2232",
    "url": "http://place.map.kakao.com/27365821",
    "category": "음식점 > 패스트푸드 > 샌드위치 > 써브웨이"
  },
  {
    "id": "872968731",
    "name": "써브웨이 부산동래점",
    "address": "부산 동래구 명륜동 553-5",
    "road_address": "부산 동래구 명륜로129번길 20",
    "latitude": 35.20541826521895,
    "longitude": 129.08122736514534,
    "phone": "051-555-1230",
    "url": "http://place.map.kakao.com/872968731",
    "category": "음식점 > 패스트푸드 > 샌드위치 > 써브웨이"
  },
  {
    "id": "465173392",
    "name": "써브웨이 부산법원점",
    "address": "부산 연제구 거제동 1489-1",
    "road_address": "부산 연제구 법원로32번길 18",
    "latitude": 35.1911599258502,
    "longitude": 129.074892892062,
    "phone": "051-507-1230",
    "url": "http://place.map.kakao.com/465173392",
    "category": "음식점 > 패스트푸드 > 샌드위치 > 써브웨이"
  },
  {
    "id": "1169457717",
    "name": "써브웨이 부산좌동점",
    "address": "부산 해운대구 좌동 1473-2",
    "road_address": "부산 해운대구 해운대로 794",
    "latitude": 35.16884806747424,
    "longitude": 129.17583412679346,
    "phone": "051-731-7717",
    "url": "http://place.map.kakao.com/1169457717",
    "category": "음식점 > 패스트푸드 > 샌드위치 > 써브웨이"
  },
  {
    "id": "26948137",
    "name": "써브웨이 부산광복점",
    "address": "부산 중구 창선동1가 2-1",
    "road_address": "부산 중구 광복중앙로 3-1",
    "latitude": 35.099654318326444,
    "longitude": 129.03110682490154,
    "phone": "051-246-7789",
    "url": "http://place.map.kakao.com/26948137",
    "category": "음식점 > 패스트푸드 > 샌드위치 > 써브웨이"
  },
  {
    "id": "27561647",
    "name": "써브웨이 부산중앙점",
    "address": "부산 중구 중앙동4가 83-5",
    "road_address": "부산 중구 중앙대로 102",
    "latitude": 35.106890766913914,
    "longitude": 129.0364219053886,
    "phone": "051-462-6200",
    "url": "http://place.map.kakao.com/27561647",
    "category": "음식점 > 패스트푸드 > 샌드위치 > 써브웨이"
  },
  {
    "id": "1587905798",
    "name": "써브웨이 부산대연점",
    "address": "부산 남구 대연동 1729-4",
    "road_address": "부산 남구 수영로 246",
    "latitude": 35.135009127032305,
    "longitude": 129.09351640797968,
    "phone": "051-612-7976",
    "url": "http://place.map.kakao.com/1587905798",
    "category": "음식점 > 패스트푸드 > 샌드위치 > 써브웨이"
  },
  {
    "id": "1753122063",
    "name": "써브웨이 부산부민점",
    "address": "부산 서구 부민동1가 4-4",
    "road_address": "부산 서구 구덕로226번길 3",
    "latitude": 35.10487237766486,
    "longitude": 129.02025496849004,
    "phone": "051-254-6383",
    "url": "http://place.map.kakao.com/1753122063",
    "category": "음식점 > 패스트푸드 > 샌드위치 > 써브웨이"
  },
  {
    "id": "341119086",
    "name": "써브웨이 부산명륜점",
    "address": "부산 동래구 명륜동 681-35",
    "road_address": "부산 동래구 명륜로187번길 49",
    "latitude": 35.211004732276486,
    "longitude": 129.08000844517736,
    "phone": "051-558-3210",
    "url": "http://place.map.kakao.com/341119086",
    "category": "음식점 > 패스트푸드 > 샌드위치 > 써브웨이"
  },
  {
    "id": "259718470",
    "name": "써브웨이 부산명지국제신도시점",
    "address": "부산 강서구 명지동 3420-5",
    "road_address": "부산 강서구 명지국제8로 264",
    "latitude": 35.09765607454801,
    "longitude": 128.92142120864838,
    "phone": "051-292-2588",
    "url": "http://place.map.kakao.com/259718470",
    "category": "음식점 > 패스트푸드 > 샌드위치 > 써브웨이"
  },
  {
    "id": "1278728250",
    "name": "써브웨이 부산진역점",
    "address": "부산 동구 수정동 1-10",
    "road_address": "부산 동구 중앙대로 365",
    "latitude": 35.12838952117746,
    "longitude": 129.04805242836915,
    "phone": "051-441-3650",
    "url": "http://place.map.kakao.com/1278728250",
    "category": "음식점 > 패스트푸드 > 샌드위치 > 써브웨이"
  },
  {
    "id": "1340673123",
    "name": "써브웨이 부산남천점",
    "address": "부산 수영구 남천동 29-15",
    "road_address": "부산 수영구 수영로 462",
    "latitude": 35.147059993564035,
    "longitude": 129.11041070293967,
    "phone": "051-612-2231",
    "url": "http://place.map.kakao.com/1340673123",
    "category": "음식점 > 패스트푸드 > 샌드위치 > 써브웨이"
  },
  {
    "id": "434107540",
    "name": "써브웨이 부산연산점",
    "address": "부산 연제구 연산동 724-3",
    "road_address": "부산 연제구 중앙대로 1116",
    "latitude": 35.187276646926975,
    "longitude": 129.08157130194724,
    "phone": "070-7699-1544",
    "url": "http://place.map.kakao.com/434107540",
    "category": "음식점 > 패스트푸드 > 샌드위치 > 써브웨이"
  },
  {
    "id": "455645982",
    "name": "써브웨이 부산당감",
    "address": "부산 부산진구 당감동 289-42",
    "road_address": "부산 부산진구 동평로 98",
    "latitude": 35.1654379526127,
    "longitude": 129.040169021295,
    "phone": "051-892-3731",
    "url": "http://place.map.kakao.com/455645982",
    "category": "음식점 > 패스트푸드 > 샌드위치 > 써브웨이"
  },
  {
    "id": "1530744073",
    "name": "써브웨이 부산토곡점",
    "address": "부산 연제구 연산동 417-21",
    "road_address": "부산 연제구 과정로237번길 119",
    "latitude": 35.18470959169909,
    "longitude": 129.10695772785843,
    "phone": "051-753-6005",
    "url": "http://place.map.kakao.com/1530744073",
    "category": "음식점 > 패스트푸드 > 샌드위치 > 써브웨이"
  },
  {
    "id": "1721551279",
    "name": "써브웨이 부산장전역점",
    "address": "부산 금정구 부곡동 223-56",
    "road_address": "부산 금정구 중앙대로1719번길 30",
    "latitude": 35.23790676456621,
    "longitude": 129.0904489139963,
    "phone": "051-704-3535",
    "url": "http://place.map.kakao.com/1721551279",
    "category": "음식점 > 패스트푸드 > 샌드위치 > 써브웨이"
  },
  {
    "id": "866843694",
    "name": "써브웨이 부산반여점",
    "address": "부산 해운대구 반여동 1441-19",
    "road_address": "부산 해운대구 선수촌로 75",
    "latitude": 35.20056290257218,
    "longitude": 129.1190348149932,
    "phone": "051-783-6384",
    "url": "http://place.map.kakao.com/866843694",
    "category": "음식점 > 패스트푸드 > 샌드위치 > 써브웨이"
  },
  {
    "id": "1817192104",
    "name": "써브웨이 부산역점",
    "address": "부산 동구 초량동 1187-1",
    "road_address": "부산 동구 중앙대로 206",
    "latitude": 35.11450815282939,
    "longitude": 129.0411486485692,
    "phone": "070-4090-3721",
    "url": "http://place.map.kakao.com/1817192104",
    "category": "음식점 > 패스트푸드 > 샌드위치 > 써브웨이"
  },
  {
    "id": "229637130",
    "name": "써브웨이 부산경성대점",
    "address": "부산 남구 대연동 93-3",
    "road_address": "부산 남구 수영로325번길 12",
    "latitude": 35.13862491938641,
    "longitude": 129.10151096334434,
    "phone": "051-625-5617",
    "url": "http://place.map.kakao.com/229637130",
    "category": "음식점 > 패스트푸드 > 샌드위치 > 써브웨이"
  },
  {
    "id": "27402853",
    "name": "써브웨이 부산화명점",
    "address": "부산 북구 화명동 2272-1",
    "road_address": "부산 북구 화명신도시로 130",
    "latitude": 35.23548965114122,
    "longitude": 129.0111572724486,
    "phone": "051-361-1015",
    "url": "http://place.map.kakao.com/27402853",
    "category": "음식점 > 패스트푸드 > 샌드위치 > 써브웨이"
  },
  {
    "id": "131447402",
    "name": "써브웨이 부산전포점",
    "address": "부산 부산진구 전포동 340-10",
    "road_address": "부산 부산진구 전포대로200번길 16",
    "latitude": 35.1543632565619,
    "longitude": 129.066390082053,
    "phone": "051-808-9896",
    "url": "http://place.map.kakao.com/131447402",
    "category": "음식점 > 패스트푸드 > 샌드위치 > 써브웨이"
  },
  {
    "id": "1116784321",
    "name": "써브웨이 부산대역점",
    "address": "부산 금정구 장전동 293-128",
    "road_address": "부산 금정구 금정로60번길 40",
    "latitude": 35.22932768155554,
    "longitude": 129.0883869561955,
    "phone": "051-517-3331",
    "url": "http://place.map.kakao.com/1116784321",
    "category": "음식점 > 패스트푸드 > 샌드위치 > 써브웨이"
  },
  {
    "id": "1982663842",
    "name": "써브웨이 정관점",
    "address": "부산 기장군 정관읍 매학리 713-3",
    "road_address": "부산 기장군 정관읍 정관로 565",
    "latitude": 35.32166421118311,
    "longitude": 129.17592668395105,
    "phone": "",
    "url": "http://place.map.kakao.com/1982663842",
    "category": "음식점 > 패스트푸드 > 샌드위치 > 써브웨이"
  },
  {
    "id": "919513335",
    "name": "써브웨이 부산영도점",
    "address": "부산 영도구 영선동1가 21-1",
    "road_address": "부산 영도구 태종로 107",
    "latitude": 35.091263455296925,
    "longitude": 129.04278160762422,
    "phone": "051-417-7852",
    "url": "http://place.map.kakao.com/919513335",
    "category": "음식점 > 패스트푸드 > 샌드위치 > 써브웨이"
  },
  {
    "id": "228503890",
    "name": "써브웨이 부산덕천점",
    "address": "부산 북구 덕천동 403-31",
    "road_address": "부산 북구 덕천1길 22",
    "latitude": 35.2097443569175,
    "longitude": 129.006757954292,
    "phone": "051-337-0217",
    "url": "http://place.map.kakao.com/228503890",
    "category": "음식점 > 패스트푸드 > 샌드위치 > 써브웨이"
  },
  {
    "id": "1117911820",
    "name": "써브웨이 부산주례점",
    "address": "부산 사상구 주례동 80-33",
    "road_address": "부산 사상구 가야대로366번길 43",
    "latitude": 35.149079902913186,
    "longitude": 129.01292095341836,
    "phone": "051-312-1588",
    "url": "http://place.map.kakao.com/1117911820",
    "category": "음식점 > 패스트푸드 > 샌드위치 > 써브웨이"
  },
  {
    "id": "886595857",
    "name": "써브웨이 부산수영점",
    "address": "부산 수영구 수영동 445-19",
    "road_address": "부산 수영구 수영로 693",
    "latitude": 35.1678757417395,
    "longitude": 129.115469997263,
    "phone": "070-7537-2880",
    "url": "http://place.map.kakao.com/886595857",
    "category": "음식점 > 패스트푸드 > 샌드위치 > 써브웨이"
  },
  {
    "id": "949408849",
    "name": "써브웨이 부산개금점",
    "address": "부산 부산진구 개금동 184-45",
    "road_address": "부산 부산진구 가야대로 486",
    "latitude": 35.1527899581376,
    "longitude": 129.025196164764,
    "phone": "051-802-0929",
    "url": "http://place.map.kakao.com/949408849",
    "category": "음식점 > 패스트푸드 > 샌드위치 > 써브웨이"
  },
  {
    "id": "193363707",
    "name": "써브웨이 부산기장신세계프리미엄아울렛점",
    "address": "부산 기장군 장안읍 좌천리 545",
    "road_address": "부산 기장군 장안읍 정관로 1133",
    "latitude": 35.324977367386566,
    "longitude": 129.23747897784497,
    "phone": "051-940-1853",
    "url": "http://place.map.kakao.com/193363707",
    "category": "음식점 > 패스트푸드 > 샌드위치 > 써브웨이"
  },
  {
    "id": "129087002",
    "name": "써브웨이 트레이더스 연산점",
    "address": "부산 연제구 연산동 2374",
    "road_address": "부산 연제구 좌수영로 241",
    "latitude": 35.185007374221364,
    "longitude": 129.11217325094628,
    "phone": "051-751-1005",
    "url": "http://place.map.kakao.com/129087002",
    "category": "음식점 > 패스트푸드 > 샌드위치 > 써브웨이"
  },
  {
    "id": "52515119",
    "name": "써브웨이 부산하단아트몰링점",
    "address": "부산 사하구 하단동 526-6",
    "road_address": "부산 사하구 낙동남로 1413",
    "latitude": 35.1066412812555,
    "longitude": 128.966293965348,
    "phone": "051-999-7301",
    "url": "http://place.map.kakao.com/52515119",
    "category": "음식점 > 패스트푸드 > 샌드위치 > 써브웨이"
  },
  {
    "id": "1827600384",
    "name": "써브웨이 부산기장메가마트점",
    "address": "부산 기장군 일광읍 삼성리 547-6",
    "road_address": "부산 기장군 일광읍 기장대로 673",
    "latitude": 35.25462611392502,
    "longitude": 129.22202187537937,
    "phone": "051-724-7750",
    "url": "http://place.map.kakao.com/1827600384",
    "category": "음식점 > 패스트푸드 > 샌드위치 > 써브웨이"
  },
  {
    "id": "1296197957",
    "name": "써브웨이 부산W스퀘어점",
    "address": "부산 남구 용호동 954",
    "road_address": "부산 남구 분포로 145",
    "latitude": 35.133985807742235,
    "longitude": 129.11285395414936,
    "phone": "070-8648-3439",
    "url": "http://place.map.kakao.com/1296197957",
    "category": "음식점 > 패스트푸드 > 샌드위치 > 써브웨이"
  },
  {
    "id": "213654574",
    "name": "써브웨이 부산홈플러스아시아드점",
    "address": "부산 연제구 거제동 1208",
    "road_address": "부산 연제구 종합운동장로 7",
    "latitude": 35.19128449074764,
    "longitude": 129.062118235021,
    "phone": "051-506-0122",
    "url": "http://place.map.kakao.com/213654574",
    "category": "음식점 > 패스트푸드 > 샌드위치 > 써브웨이"
  },
  {
    "id": "1002783264",
    "name": "써브웨이 대구동성로점",
    "address": "대구 중구 동성로2가 56",
    "road_address": "대구 중구 국채보상로 598",
    "latitude": 35.87054511816333,
    "longitude": 128.59603592241712,
    "phone": "053-255-6841",
    "url": "http://place.map.kakao.com/1002783264",
    "category": "음식점 > 패스트푸드 > 샌드위치 > 써브웨이"
  },
  {
    "id": "1080382055",
    "name": "써브웨이 대구경북대북문점",
    "address": "대구 북구 산격동 1335-4",
    "road_address": "대구 북구 대학로 87",
    "latitude": 35.893072167090786,
    "longitude": 128.60944648288083,
    "phone": "053-951-7802",
    "url": "http://place.map.kakao.com/1080382055",
    "category": "음식점 > 패스트푸드 > 샌드위치 > 써브웨이"
  },
  {
    "id": "1201040256",
    "name": "써브웨이 대구동촌DT점",
    "address": "대구 동구 검사동 957-17",
    "road_address": "대구 동구 해동로 259",
    "latitude": 35.88404941918425,
    "longitude": 128.65673190826232,
    "phone": "070-8851-0101",
    "url": "http://place.map.kakao.com/1201040256",
    "category": "음식점 > 패스트푸드 > 샌드위치 > 써브웨이"
  },
  {
    "id": "143679418",
    "name": "써브웨이 대구침산점",
    "address": "대구 북구 침산동 222-7",
    "road_address": "대구 북구 침산남로 157",
    "latitude": 35.88805769618733,
    "longitude": 128.59299762362463,
    "phone": "053-357-7770",
    "url": "http://place.map.kakao.com/143679418",
    "category": "음식점 > 패스트푸드 > 샌드위치 > 써브웨이"
  },
  {
    "id": "1280698870",
    "name": "써브웨이 대구동성로2호점",
    "address": "대구 중구 공평동 55-23",
    "road_address": "대구 중구 동성로6길 42",
    "latitude": 35.86860140199602,
    "longitude": 128.597591193787,
    "phone": "053-253-7801",
    "url": "http://place.map.kakao.com/1280698870",
    "category": "음식점 > 패스트푸드 > 샌드위치 > 써브웨이"
  },
  {
    "id": "2082340809",
    "name": "써브웨이 대구반월당점",
    "address": "대구 중구 남산동 536",
    "road_address": "대구 중구 달구벌대로 2076",
    "latitude": 35.86570109780951,
    "longitude": 128.59069783016437,
    "phone": "070-4122-0077",
    "url": "http://place.map.kakao.com/2082340809",
    "category": "음식점 > 패스트푸드 > 샌드위치 > 써브웨이"
  },
  {
    "id": "1919824319",
    "name": "써브웨이 대구칠곡3지구점",
    "address": "대구 북구 구암동 769-1",
    "road_address": "대구 북구 학정로 422",
    "latitude": 35.94234649043174,
    "longitude": 128.5638262866777,
    "phone": "070-4246-5154",
    "url": "http://place.map.kakao.com/1919824319",
    "category": "음식점 > 패스트푸드 > 샌드위치 > 써브웨이"
  },
  {
    "id": "1710266899",
    "name": "써브웨이 대구계대동문점",
    "address": "대구 달서구 신당동 1721-15",
    "road_address": "대구 달서구 계대동문로 9",
    "latitude": 35.8557827890864,
    "longitude": 128.493280212985,
    "phone": "053-593-5050",
    "url": "http://place.map.kakao.com/1710266899",
    "category": "음식점 > 패스트푸드 > 샌드위치 > 써브웨이"
  },
  {
    "id": "1439650165",
    "name": "써브웨이 대구수성구청역점",
    "address": "대구 수성구 범어동 223-1",
    "road_address": "대구 수성구 달구벌대로 2513",
    "latitude": 35.85910894440404,
    "longitude": 128.63765961040522,
    "phone": "053-744-3688",
    "url": "http://place.map.kakao.com/1439650165",
    "category": "음식점 > 패스트푸드 > 샌드위치 > 써브웨이"
  },
  {
    "id": "780008900",
    "name": "써브웨이 대구상인역점",
    "address": "대구 달서구 상인동 1396-5",
    "road_address": "대구 달서구 월배로 222",
    "latitude": 35.81866803878087,
    "longitude": 128.5376921753171,
    "phone": "053-643-0013",
    "url": "http://place.map.kakao.com/780008900",
    "category": "음식점 > 패스트푸드 > 샌드위치 > 써브웨이"
  },
  {
    "id": "1604293978",
    "name": "써브웨이 대구광장점",
    "address": "대구 서구 내당동 463-63",
    "road_address": "대구 서구 달구벌대로 1689",
    "latitude": 35.8554445067784,
    "longitude": 128.550217766746,
    "phone": "053-573-3030",
    "url": "http://place.map.kakao.com/1604293978",
    "category": "음식점 > 패스트푸드 > 샌드위치 > 써브웨이"
  },
  {
    "id": "200019258",
    "name": "써브웨이 대구평리DT점",
    "address": "대구 서구 평리동 1404-1",
    "road_address": "대구 서구 서대구로 111",
    "latitude": 35.8677646311876,
    "longitude": 128.55505892897,
    "phone": "070-4147-7000",
    "url": "http://place.map.kakao.com/200019258",
    "category": "음식점 > 패스트푸드 > 샌드위치 > 써브웨이"
  },
  {
    "id": "958543120",
    "name": "써브웨이 대구은행역점",
    "address": "대구 수성구 수성동1가 72-4",
    "road_address": "대구 수성구 달구벌대로 2284",
    "latitude": 35.85960246354589,
    "longitude": 128.61230299696763,
    "phone": "053-759-3787",
    "url": "http://place.map.kakao.com/958543120",
    "category": "음식점 > 패스트푸드 > 샌드위치 > 써브웨이"
  },
  {
    "id": "750082466",
    "name": "써브웨이 대구지산점",
    "address": "대구 수성구 지산동 1275-7",
    "road_address": "대구 수성구 지범로 180",
    "latitude": 35.821355652845114,
    "longitude": 128.63878228969108,
    "phone": "053-782-5761",
    "url": "http://place.map.kakao.com/750082466",
    "category": "음식점 > 패스트푸드 > 샌드위치 > 써브웨이"
  },
  {
    "id": "1967675792",
    "name": "써브웨이 대구동대구점",
    "address": "대구 동구 신천동 386-3",
    "road_address": "대구 동구 동부로 158",
    "latitude": 35.877130873982956,
    "longitude": 128.62957126896455,
    "phone": "053-742-0242",
    "url": "http://place.map.kakao.com/1967675792",
    "category": "음식점 > 패스트푸드 > 샌드위치 > 써브웨이"
  },
  {
    "id": "1994601509",
    "name": "써브웨이 대구월성점",
    "address": "대구 달서구 월성동 1857",
    "road_address": "대구 달서구 조암로 9",
    "latitude": 35.82545907955078,
    "longitude": 128.52879939644282,
    "phone": "053-643-8400",
    "url": "http://place.map.kakao.com/1994601509",
    "category": "음식점 > 패스트푸드 > 샌드위치 > 써브웨이"
  },
  {
    "id": "634474390",
    "name": "써브웨이 대구범어점",
    "address": "대구 수성구 범어동 2-8",
    "road_address": "대구 수성구 동대구로 389",
    "latitude": 35.865249853706814,
    "longitude": 128.62641081343529,
    "phone": "070-4135-7070",
    "url": "http://place.map.kakao.com/634474390",
    "category": "음식점 > 패스트푸드 > 샌드위치 > 써브웨이"
  },
  {
    "id": "1355478156",
    "name": "써브웨이 대구영대병원역점",
    "address": "대구 남구 대명동 142-11",
    "road_address": "대구 남구 대명로 287",
    "latitude": 35.8440335142656,
    "longitude": 128.587324237446,
    "phone": "053-657-6663",
    "url": "http://place.map.kakao.com/1355478156",
    "category": "음식점 > 패스트푸드 > 샌드위치 > 써브웨이"
  },
  {
    "id": "1827818024",
    "name": "써브웨이 대구죽전점",
    "address": "대구 달서구 감삼동 704",
    "road_address": "대구 달서구 와룡로 123",
    "latitude": 35.84408231557299,
    "longitude": 128.536716187202,
    "phone": "053-524-7770",
    "url": "http://place.map.kakao.com/1827818024",
    "category": "음식점 > 패스트푸드 > 샌드위치 > 써브웨이"
  },
  {
    "id": "1993597363",
    "name": "써브웨이 대구테크노폴리스점",
    "address": "대구 달성군 현풍읍 중리 490",
    "road_address": "대구 달성군 현풍읍 테크노상업로 62",
    "latitude": 35.69329332886884,
    "longitude": 128.45647020682992,
    "phone": "070-8844-1379",
    "url": "http://place.map.kakao.com/1993597363",
    "category": "음식점 > 패스트푸드 > 샌드위치 > 써브웨이"
  },
  {
    "id": "131411375",
    "name": "써브웨이 대구수성롯데슈퍼점",
    "address": "대구 수성구 중동 333-7",
    "road_address": "대구 수성구 수성로 227",
    "latitude": 35.8459583908416,
    "longitude": 128.612024509181,
    "phone": "053-763-7650",
    "url": "http://place.map.kakao.com/131411375",
    "category": "음식점 > 패스트푸드 > 샌드위치 > 써브웨이"
  },
  {
    "id": "1151743066",
    "name": "써브웨이 대구시지점",
    "address": "대구 수성구 신매동 375-1",
    "road_address": "대구 수성구 달구벌대로 3201",
    "latitude": 35.840609794318986,
    "longitude": 128.7072239792606,
    "phone": "070-4146-0154",
    "url": "http://place.map.kakao.com/1151743066",
    "category": "음식점 > 패스트푸드 > 샌드위치 > 써브웨이"
  },
  {
    "id": "803202866",
    "name": "써브웨이 대구교대점",
    "address": "대구 남구 대명동 1792-8",
    "road_address": "대구 남구 중앙대로 243",
    "latitude": 35.8551206616684,
    "longitude": 128.59036463620657,
    "phone": "053-622-6348",
    "url": "http://place.map.kakao.com/803202866",
    "category": "음식점 > 패스트푸드 > 샌드위치 > 써브웨이"
  },
  {
    "id": "2005428337",
    "name": "써브웨이 대구서부정류장점",
    "address": "대구 달서구 송현동 1041-3",
    "road_address": "대구 달서구 월배로 487",
    "latitude": 35.8364902440622,
    "longitude": 128.556307471662,
    "phone": "070-7617-2525",
    "url": "http://place.map.kakao.com/2005428337",
    "category": "음식점 > 패스트푸드 > 샌드위치 > 써브웨이"
  },
  {
    "id": "1079394461",
    "name": "써브웨이 대구만촌점",
    "address": "대구 수성구 만촌동 854",
    "road_address": "대구 수성구 달구벌대로 2640",
    "latitude": 35.856229014762,
    "longitude": 128.650556032538,
    "phone": "053-743-5650",
    "url": "http://place.map.kakao.com/1079394461",
    "category": "음식점 > 패스트푸드 > 샌드위치 > 써브웨이"
  },
  {
    "id": "1852531760",
    "name": "써브웨이 대구태전점",
    "address": "대구 북구 태전동 1074-2",
    "road_address": "대구 북구 칠곡중앙대로 332",
    "latitude": 35.9253344812691,
    "longitude": 128.5475814253,
    "phone": "053-325-3024",
    "url": "http://place.map.kakao.com/1852531760",
    "category": "음식점 > 패스트푸드 > 샌드위치 > 써브웨이"
  },
  {
    "id": "1670234445",
    "name": "써브웨이 대구다사점",
    "address": "대구 달성군 다사읍 매곡리 1546-4",
    "road_address": "대구 달성군 다사읍 달구벌대로 855",
    "latitude": 35.85959525922852,
    "longitude": 128.46365375429406,
    "phone": "070-4143-6238",
    "url": "http://place.map.kakao.com/1670234445",
    "category": "음식점 > 패스트푸드 > 샌드위치 > 써브웨이"
  },
  {
    "id": "784902207",
    "name": "써브웨이 대구각산점",
    "address": "대구 동구 신서동 713",
    "road_address": "대구 동구 안심로 389",
    "latitude": 35.869200005247,
    "longitude": 128.726569526701,
    "phone": "053-716-0458",
    "url": "http://place.map.kakao.com/784902207",
    "category": "음식점 > 패스트푸드 > 샌드위치 > 써브웨이"
  },
  {
    "id": "1525468330",
    "name": "써브웨이 대구율하롯데몰점",
    "address": "대구 동구 율하동 1117",
    "road_address": "대구 동구 안심로 80",
    "latitude": 35.8684630173764,
    "longitude": 128.693331610762,
    "phone": "053-607-2780",
    "url": "http://place.map.kakao.com/1525468330",
    "category": "음식점 > 패스트푸드 > 샌드위치 > 써브웨이"
  },
  {
    "id": "976337932",
    "name": "써브웨이 대구이시아폴리스점",
    "address": "대구 동구 봉무동 1542-5",
    "road_address": "대구 동구 팔공로51길 15-8",
    "latitude": 35.922156812180944,
    "longitude": 128.63897871297613,
    "phone": "053-985-6589",
    "url": "http://place.map.kakao.com/976337932",
    "category": "음식점 > 패스트푸드 > 샌드위치 > 써브웨이"
  },
  {
    "id": "1112223355",
    "name": "써브웨이 인천주안역점",
    "address": "인천 미추홀구 주안동 238-1",
    "road_address": "인천 미추홀구 주안로 89",
    "latitude": 37.46433087552258,
    "longitude": 126.67930918526581,
    "phone": "032-876-4909",
    "url": "http://place.map.kakao.com/1112223355",
    "category": "음식점 > 패스트푸드 > 샌드위치 > 써브웨이"
  },
  {
    "id": "22894582",
    "name": "써브웨이 인천부평시장역점",
    "address": "인천 부평구 부평동 529-40",
    "road_address": "인천 부평구 부흥로 264",
    "latitude": 37.4984079228983,
    "longitude": 126.720959833874,
    "phone": "032-522-6789",
    "url": "http://place.map.kakao.com/22894582",
    "category": "음식점 > 패스트푸드 > 샌드위치 > 써브웨이"
  },
  {
    "id": "27247685",
    "name": "써브웨이 인천구월동로데오점",
    "address": "인천 남동구 구월동 1454-1",
    "road_address": "인천 남동구 예술로140번길 33",
    "latitude": 37.44660824131439,
    "longitude": 126.70265335505853,
    "phone": "032-432-7999",
    "url": "http://place.map.kakao.com/27247685",
    "category": "음식점 > 패스트푸드 > 샌드위치 > 써브웨이"
  },
  {
    "id": "25970912",
    "name": "써브웨이 인천청라점",
    "address": "인천 서구 청라동 162-9",
    "road_address": "인천 서구 청라라임로 65",
    "latitude": 37.53335509798435,
    "longitude": 126.652841877532,
    "phone": "032-561-3380",
    "url": "http://place.map.kakao.com/25970912",
    "category": "음식점 > 패스트푸드 > 샌드위치 > 써브웨이"
  },
  {
    "id": "24899427",
    "name": "써브웨이 인천송도점",
    "address": "인천 연수구 송도동 2-6",
    "road_address": "인천 연수구 신송로 122",
    "latitude": 37.3957881993293,
    "longitude": 126.652307391819,
    "phone": "032-831-2530",
    "url": "http://place.map.kakao.com/24899427",
    "category": "음식점 > 패스트푸드 > 샌드위치 > 써브웨이"
  },
  {
    "id": "26944724",
    "name": "써브웨이 인천삼산점",
    "address": "인천 부평구 삼산동 462-5",
    "road_address": "인천 부평구 체육관로 24",
    "latitude": 37.5083030465096,
    "longitude": 126.734382120332,
    "phone": "032-507-7883",
    "url": "http://place.map.kakao.com/26944724",
    "category": "음식점 > 패스트푸드 > 샌드위치 > 써브웨이"
  },
  {
    "id": "196889508",
    "name": "써브웨이 인천길병원점",
    "address": "인천 남동구 구월동 1140-4",
    "road_address": "인천 남동구 구월남로 153",
    "latitude": 37.453221664020205,
    "longitude": 126.70651219651337,
    "phone": "070-8888-3277",
    "url": "http://place.map.kakao.com/196889508",
    "category": "음식점 > 패스트푸드 > 샌드위치 > 써브웨이"
  },
  {
    "id": "2051270680",
    "name": "써브웨이 인천계산역점",
    "address": "인천 계양구 계산동 931-56",
    "road_address": "인천 계양구 경명대로 1055",
    "latitude": 37.54372805850713,
    "longitude": 126.72426261057144,
    "phone": "032-547-5550",
    "url": "http://place.map.kakao.com/2051270680",
    "category": "음식점 > 패스트푸드 > 샌드위치 > 써브웨이"
  },
  {
    "id": "24962450",
    "name": "써브웨이 인천송도센트럴파크점",
    "address": "인천 연수구 송도동 23-4",
    "road_address": "인천 연수구 센트럴로 194",
    "latitude": 37.3944164025724,
    "longitude": 126.641892526335,
    "phone": "032-834-3227",
    "url": "http://place.map.kakao.com/24962450",
    "category": "음식점 > 패스트푸드 > 샌드위치 > 써브웨이"
  },
  {
    "id": "26944647",
    "name": "써브웨이 인천연수점",
    "address": "인천 연수구 연수동 597-3",
    "road_address": "인천 연수구 먼우금로 194",
    "latitude": 37.41455821068345,
    "longitude": 126.67693753879246,
    "phone": "032-815-7707",
    "url": "http://place.map.kakao.com/26944647",
    "category": "음식점 > 패스트푸드 > 샌드위치 > 써브웨이"
  },
  {
    "id": "1525288035",
    "name": "써브웨이 인천검단사거리점",
    "address": "인천 서구 왕길동 662-7",
    "road_address": "인천 서구 완정로 159",
    "latitude": 37.6015322549698,
    "longitude": 126.658565682041,
    "phone": "032-567-1995",
    "url": "http://place.map.kakao.com/1525288035",
    "category": "음식점 > 패스트푸드 > 샌드위치 > 써브웨이"
  },
  {
    "id": "735524349",
    "name": "써브웨이 인천동암점",
    "address": "인천 부평구 십정동 407-1",
    "road_address": "인천 부평구 열우물로 45",
    "latitude": 37.4721095377525,
    "longitude": 126.700419728946,
    "phone": "032-421-6690",
    "url": "http://place.map.kakao.com/735524349",
    "category": "음식점 > 패스트푸드 > 샌드위치 > 써브웨이"
  },
  {
    "id": "1829875775",
    "name": "써브웨이 인천송도트리플스트리트점",
    "address": "인천 연수구 송도동 176-1",
    "road_address": "인천 연수구 송도과학로16번길 33-3",
    "latitude": 37.37991088048207,
    "longitude": 126.66114918040742,
    "phone": "032-310-9545",
    "url": "http://place.map.kakao.com/1829875775",
    "category": "음식점 > 패스트푸드 > 샌드위치 > 써브웨이"
  },
  {
    "id": "875259108",
    "name": "써브웨이 인천운서메가스타점",
    "address": "인천 중구 운서동 2803-1",
    "road_address": "인천 중구 신도시남로142번길 6",
    "latitude": 37.49341906553392,
    "longitude": 126.49149139138953,
    "phone": "032-746-4538",
    "url": "http://place.map.kakao.com/875259108",
    "category": "음식점 > 패스트푸드 > 샌드위치 > 써브웨이"
  },
  {
    "id": "299349215",
    "name": "써브웨이 인천완정역점",
    "address": "인천 서구 당하동 1082-3",
    "road_address": "인천 서구 서곶로 837",
    "latitude": 37.592055393972224,
    "longitude": 126.67310673063434,
    "phone": "032-564-0837",
    "url": "http://place.map.kakao.com/299349215",
    "category": "음식점 > 패스트푸드 > 샌드위치 > 써브웨이"
  },
  {
    "id": "1147667085",
    "name": "써브웨이 인천송도지웰푸르지오시티점",
    "address": "인천 연수구 송도동 8-23",
    "road_address": "인천 연수구 하모니로 144",
    "latitude": 37.38423170539721,
    "longitude": 126.64381987210872,
    "phone": "032-831-7900",
    "url": "http://place.map.kakao.com/1147667085",
    "category": "음식점 > 패스트푸드 > 샌드위치 > 써브웨이"
  },
  {
    "id": "26780006",
    "name": "써브웨이 인천계양구청점",
    "address": "인천 계양구 용종동 210-6",
    "road_address": "인천 계양구 계산새로 85",
    "latitude": 37.53815651163696,
    "longitude": 126.73760617506615,
    "phone": "032-551-0886",
    "url": "http://place.map.kakao.com/26780006",
    "category": "음식점 > 패스트푸드 > 샌드위치 > 써브웨이"
  },
  {
    "id": "1470822372",
    "name": "써브웨이 인천인하대점",
    "address": "인천 미추홀구 학익동 384-14",
    "road_address": "인천 미추홀구 인하로 100",
    "latitude": 37.44955218965685,
    "longitude": 126.65648769010598,
    "phone": "070-8835-3277",
    "url": "http://place.map.kakao.com/1470822372",
    "category": "음식점 > 패스트푸드 > 샌드위치 > 써브웨이"
  },
  {
    "id": "25772040",
    "name": "써브웨이 인천논현점",
    "address": "인천 남동구 논현동 631-9",
    "road_address": "인천 남동구 청능대로 583",
    "latitude": 37.40129388158626,
    "longitude": 126.72398629764162,
    "phone": "070-7677-7001",
    "url": "http://place.map.kakao.com/25772040",
    "category": "음식점 > 패스트푸드 > 샌드위치 > 써브웨이"
  },
  {
    "id": "1146389788",
    "name": "써브웨이 인천검단신도시점",
    "address": "인천 서구 원당동 1040-5",
    "road_address": "인천 서구 이음5로 36",
    "latitude": 37.59394597283417,
    "longitude": 126.71196167816683,
    "phone": "032-563-3842",
    "url": "http://place.map.kakao.com/1146389788",
    "category": "음식점 > 패스트푸드 > 샌드위치 > 써브웨이"
  },
  {
    "id": "1475240615",
    "name": "써브웨이 부평중앙점",
    "address": "인천 부평구 부평동 212-67",
    "road_address": "인천 부평구 부평문화로 63",
    "latitude": 37.494128084679,
    "longitude": 126.723228319589,
    "phone": "032-521-6789",
    "url": "http://place.map.kakao.com/1475240615",
    "category": "음식점 > 패스트푸드 > 샌드위치 > 써브웨이"
  },
  {
    "id": "417409517",
    "name": "써브웨이 인천영종점",
    "address": "인천 중구 중산동 1882-10",
    "road_address": "인천 중구 하늘별빛로 75",
    "latitude": 37.489787961668,
    "longitude": 126.562809800027,
    "phone": "032-752-4538",
    "url": "http://place.map.kakao.com/417409517",
    "category": "음식점 > 패스트푸드 > 샌드위치 > 써브웨이"
  },
  {
    "id": "526285782",
    "name": "써브웨이 인천갈산점",
    "address": "인천 부평구 갈산동 94",
    "road_address": "인천 부평구 주부토로 236",
    "latitude": 37.5158613840842,
    "longitude": 126.72680389474,
    "phone": "032-209-1883",
    "url": "http://place.map.kakao.com/526285782",
    "category": "음식점 > 패스트푸드 > 샌드위치 > 써브웨이"
  },
  {
    "id": "1238625365",
    "name": "써브웨이 인천모래내시장역점",
    "address": "인천 남동구 구월동 1264",
    "road_address": "인천 남동구 호구포로 818",
    "latitude": 37.4556329006142,
    "longitude": 126.719934357808,
    "phone": "032-466-5882",
    "url": "http://place.map.kakao.com/1238625365",
    "category": "음식점 > 패스트푸드 > 샌드위치 > 써브웨이"
  },
  {
    "id": "391050844",
    "name": "써브웨이 인천신포점",
    "address": "인천 중구 신포동 26-22",
    "road_address": "인천 중구 우현로35번길 26",
    "latitude": 37.47102206001444,
    "longitude": 126.62499337303953,
    "phone": "032-772-1788",
    "url": "http://place.map.kakao.com/391050844",
    "category": "음식점 > 패스트푸드 > 샌드위치 > 써브웨이"
  },
  {
    "id": "1364024987",
    "name": "써브웨이 인천서창점",
    "address": "인천 남동구 서창동 708-1",
    "road_address": "인천 남동구 서창남로 41",
    "latitude": 37.4231765928441,
    "longitude": 126.75049152214785,
    "phone": "032-471-6699",
    "url": "http://place.map.kakao.com/1364024987",
    "category": "음식점 > 패스트푸드 > 샌드위치 > 써브웨이"
  },
  {
    "id": "1418258226",
    "name": "써브웨이 인천도화점",
    "address": "인천 미추홀구 도화동 1011",
    "road_address": "인천 미추홀구 숙골로88번길 12",
    "latitude": 37.46968290502006,
    "longitude": 126.66414697918096,
    "phone": "032-721-6788",
    "url": "http://place.map.kakao.com/1418258226",
    "category": "음식점 > 패스트푸드 > 샌드위치 > 써브웨이"
  },
  {
    "id": "1401381211",
    "name": "써브웨이 인천가정중앙점",
    "address": "인천 서구 가정동 504-8",
    "road_address": "인천 서구 가정로 388",
    "latitude": 37.5194477278481,
    "longitude": 126.67336718626,
    "phone": "032-576-4906",
    "url": "http://place.map.kakao.com/1401381211",
    "category": "음식점 > 패스트푸드 > 샌드위치 > 써브웨이"
  },
  {
    "id": "1547731463",
    "name": "써브웨이 인천작전점",
    "address": "인천 계양구 작전동 423-2",
    "road_address": "인천 계양구 계양대로 38",
    "latitude": 37.5272298379959,
    "longitude": 126.722780251102,
    "phone": "070-8824-5882",
    "url": "http://place.map.kakao.com/1547731463",
    "category": "음식점 > 패스트푸드 > 샌드위치 > 써브웨이"
  },
  {
    "id": "1132467680",
    "name": "써브웨이 인천산곡역점",
    "address": "인천 부평구 산곡동 91-2",
    "road_address": "인천 부평구 길주로364번길 9",
    "latitude": 37.508307236773746,
    "longitude": 126.70321464347938,
    "phone": "032-361-7848",
    "url": "http://place.map.kakao.com/1132467680",
    "category": "음식점 > 패스트푸드 > 샌드위치 > 써브웨이"
  },
  {
    "id": "33792053",
    "name": "써브웨이 인천성모병원점",
    "address": "인천 부평구 부평동 655-37",
    "road_address": "인천 부평구 동수로 49",
    "latitude": 37.4853974186693,
    "longitude": 126.724029388066,
    "phone": "032-224-4935",
    "url": "http://place.map.kakao.com/33792053",
    "category": "음식점 > 패스트푸드 > 샌드위치 > 써브웨이"
  },
  {
    "id": "1139512618",
    "name": "써브웨이 인천서구청점",
    "address": "인천 서구 심곡동 249",
    "road_address": "인천 서구 탁옥로 50",
    "latitude": 37.54372577402118,
    "longitude": 126.67491562217334,
    "phone": "032-565-2481",
    "url": "http://place.map.kakao.com/1139512618",
    "category": "음식점 > 패스트푸드 > 샌드위치 > 써브웨이"
  },
  {
    "id": "1087751957",
    "name": "써브웨이 인천송도8공구점",
    "address": "인천 연수구 송도동 312-1",
    "road_address": "인천 연수구 랜드마크로 20",
    "latitude": 37.41608213721462,
    "longitude": 126.62387238141416,
    "phone": "",
    "url": "http://place.map.kakao.com/1087751957",
    "category": "음식점 > 패스트푸드 > 샌드위치 > 써브웨이"
  },
  {
    "id": "548911471",
    "name": "써브웨이 광주상무점",
    "address": "광주 서구 치평동 1184",
    "road_address": "광주 서구 치평로 86",
    "latitude": 35.15480008453553,
    "longitude": 126.8479289314587,
    "phone": "062-446-1131",
    "url": "http://place.map.kakao.com/548911471",
    "category": "음식점 > 패스트푸드 > 샌드위치 > 써브웨이"
  },
  {
    "id": "581894587",
    "name": "써브웨이 광주전남대후문점",
    "address": "광주 북구 용봉동 151-2",
    "road_address": "광주 북구 우치로 124",
    "latitude": 35.17842978079833,
    "longitude": 126.91228743666815,
    "phone": "062-452-1121",
    "url": "http://place.map.kakao.com/581894587",
    "category": "음식점 > 패스트푸드 > 샌드위치 > 써브웨이"
  },
  {
    "id": "98727217",
    "name": "써브웨이 광주첨단점",
    "address": "광주 광산구 월계동 888-10",
    "road_address": "광주 광산구 첨단중앙로 110",
    "latitude": 35.21500899853577,
    "longitude": 126.84315000349991,
    "phone": "062-413-1121",
    "url": "http://place.map.kakao.com/98727217",
    "category": "음식점 > 패스트푸드 > 샌드위치 > 써브웨이"
  },
  {
    "id": "107977816",
    "name": "써브웨이 광주화정점",
    "address": "광주 서구 화정동 919-3",
    "road_address": "광주 서구 염화로 75-1",
    "latitude": 35.141315621030444,
    "longitude": 126.8737311819435,
    "phone": "062-383-0422",
    "url": "http://place.map.kakao.com/107977816",
    "category": "음식점 > 패스트푸드 > 샌드위치 > 써브웨이"
  },
  {
    "id": "292653968",
    "name": "써브웨이 광주주월점",
    "address": "광주 남구 주월동 407-11",
    "road_address": "광주 남구 서문대로 749",
    "latitude": 35.12632130759743,
    "longitude": 126.89745212482435,
    "phone": "062-456-1181",
    "url": "http://place.map.kakao.com/292653968",
    "category": "음식점 > 패스트푸드 > 샌드위치 > 써브웨이"
  },
  {
    "id": "2019348670",
    "name": "써브웨이 광주하남점",
    "address": "광주 광산구 우산동 1588-1",
    "road_address": "광주 광산구 무진대로 279",
    "latitude": 35.16252191511054,
    "longitude": 126.81073977048405,
    "phone": "062-446-0072",
    "url": "http://place.map.kakao.com/2019348670",
    "category": "음식점 > 패스트푸드 > 샌드위치 > 써브웨이"
  },
  {
    "id": "925052792",
    "name": "써브웨이 광주운암점",
    "address": "광주 북구 운암동 357-2",
    "road_address": "광주 북구 북문대로 117",
    "latitude": 35.179808125943836,
    "longitude": 126.8745763009079,
    "phone": "062-462-1125",
    "url": "http://place.map.kakao.com/925052792",
    "category": "음식점 > 패스트푸드 > 샌드위치 > 써브웨이"
  },
  {
    "id": "1130670491",
    "name": "써브웨이 조선대점",
    "address": "광주 동구 지산동 520-5",
    "road_address": "광주 동구 필문대로287번길 15-22",
    "latitude": 35.1460929413121,
    "longitude": 126.92931736029007,
    "phone": "062-456-3926",
    "url": "http://place.map.kakao.com/1130670491",
    "category": "음식점 > 패스트푸드 > 샌드위치 > 써브웨이"
  },
  {
    "id": "876645761",
    "name": "써브웨이 광주봉선점",
    "address": "광주 남구 봉선동 109-8",
    "road_address": "광주 남구 봉선로 176",
    "latitude": 35.12286959132299,
    "longitude": 126.9143645577983,
    "phone": "062-673-0007",
    "url": "http://place.map.kakao.com/876645761",
    "category": "음식점 > 패스트푸드 > 샌드위치 > 써브웨이"
  },
  {
    "id": "1618423618",
    "name": "써브웨이 광주오치점",
    "address": "광주 북구 오치동 756-1",
    "road_address": "광주 북구 설죽로 334",
    "latitude": 35.18929095183486,
    "longitude": 126.89932635301972,
    "phone": "062-464-8848",
    "url": "http://place.map.kakao.com/1618423618",
    "category": "음식점 > 패스트푸드 > 샌드위치 > 써브웨이"
  },
  {
    "id": "808285777",
    "name": "써브웨이 광주금호점",
    "address": "광주 서구 금호동 244-4",
    "road_address": "광주 서구 금화로 58",
    "latitude": 35.13176270574337,
    "longitude": 126.85496198894525,
    "phone": "062-681-1121",
    "url": "http://place.map.kakao.com/808285777",
    "category": "음식점 > 패스트푸드 > 샌드위치 > 써브웨이"
  },
  {
    "id": "1330721949",
    "name": "써브웨이 광주수완점",
    "address": "광주 광산구 수완동 1082",
    "road_address": "광주 광산구 장신로 133",
    "latitude": 35.1909464733726,
    "longitude": 126.82472262345408,
    "phone": "062-419-1131",
    "url": "http://place.map.kakao.com/1330721949",
    "category": "음식점 > 패스트푸드 > 샌드위치 > 써브웨이"
  },
  {
    "id": "1790872612",
    "name": "써브웨이 광주신용점",
    "address": "광주 북구 신용동 731",
    "road_address": "광주 북구 첨단연신로91번길 10",
    "latitude": 35.20640934104555,
    "longitude": 126.86333820336104,
    "phone": "062-575-0614",
    "url": "http://place.map.kakao.com/1790872612",
    "category": "음식점 > 패스트푸드 > 샌드위치 > 써브웨이"
  },
  {
    "id": "1167515525",
    "name": "써브웨이 광주일곡점",
    "address": "광주 북구 일곡동 829-1",
    "road_address": "광주 북구 설죽로 518-4",
    "latitude": 35.204599054183525,
    "longitude": 126.8987408073462,
    "phone": "062-575-6002",
    "url": "http://place.map.kakao.com/1167515525",
    "category": "음식점 > 패스트푸드 > 샌드위치 > 써브웨이"
  },
  {
    "id": "1137817011",
    "name": "써브웨이 광주유스퀘어점",
    "address": "광주 서구 광천동 49-1",
    "road_address": "광주 서구 무진대로 904",
    "latitude": 35.1605749204499,
    "longitude": 126.879872019769,
    "phone": "062-361-1121",
    "url": "http://place.map.kakao.com/1137817011",
    "category": "음식점 > 패스트푸드 > 샌드위치 > 써브웨이"
  },
  {
    "id": "1547829619",
    "name": "써브웨이 광주선운점",
    "address": "광주 광산구 선암동 790",
    "road_address": "광주 광산구 어등대로 418",
    "latitude": 35.14866826789107,
    "longitude": 126.76926749261484,
    "phone": "062-943-1116",
    "url": "http://place.map.kakao.com/1547829619",
    "category": "음식점 > 패스트푸드 > 샌드위치 > 써브웨이"
  },
  {
    "id": "1980297702",
    "name": "써브웨이 광주신창점",
    "address": "광주 광산구 신창동 1129-4",
    "road_address": "광주 광산구 신창로 121",
    "latitude": 35.196265136893686,
    "longitude": 126.83816242128066,
    "phone": "062-953-1131",
    "url": "http://place.map.kakao.com/1980297702",
    "category": "음식점 > 패스트푸드 > 샌드위치 > 써브웨이"
  },
  {
    "id": "774103883",
    "name": "써브웨이 대전은행점",
    "address": "대전 중구 은행동 48-20",
    "road_address": "대전 중구 대종로488번길 25",
    "latitude": 36.328590921410544,
    "longitude": 127.42748052742606,
    "phone": "042-221-7050",
    "url": "http://place.map.kakao.com/774103883",
    "category": "음식점 > 패스트푸드 > 샌드위치 > 써브웨이"
  },
  {
    "id": "26327115",
    "name": "써브웨이 대전관평점",
    "address": "대전 유성구 관평동 828",
    "road_address": "대전 유성구 관들1길 49",
    "latitude": 36.42559074018454,
    "longitude": 127.38935310861396,
    "phone": "042-935-5600",
    "url": "http://place.map.kakao.com/26327115",
    "category": "음식점 > 패스트푸드 > 샌드위치 > 써브웨이"
  },
  {
    "id": "2024159813",
    "name": "써브웨이 대전시청점",
    "address": "대전 서구 둔산동 1407",
    "road_address": "대전 서구 둔산로123번길 21",
    "latitude": 36.35226203893262,
    "longitude": 127.38703802975567,
    "phone": "042-489-1117",
    "url": "http://place.map.kakao.com/2024159813",
    "category": "음식점 > 패스트푸드 > 샌드위치 > 써브웨이"
  },
  {
    "id": "24910024",
    "name": "써브웨이 대전둔산점",
    "address": "대전 서구 둔산동 1081",
    "road_address": "대전 서구 둔산로 18",
    "latitude": 36.35197300995971,
    "longitude": 127.37595172145856,
    "phone": "042-488-5200",
    "url": "http://place.map.kakao.com/24910024",
    "category": "음식점 > 패스트푸드 > 샌드위치 > 써브웨이"
  },
  {
    "id": "1126270594",
    "name": "써브웨이 대전가오점",
    "address": "대전 동구 가오동 644-1",
    "road_address": "대전 동구 동구청로 95",
    "latitude": 36.30648271775343,
    "longitude": 127.45685400533411,
    "phone": "042-272-9085",
    "url": "http://place.map.kakao.com/1126270594",
    "category": "음식점 > 패스트푸드 > 샌드위치 > 써브웨이"
  },
  {
    "id": "1682388775",
    "name": "써브웨이 대전월평선사점",
    "address": "대전 서구 월평동 241",
    "road_address": "대전 서구 월평북로 95",
    "latitude": 36.36241587413159,
    "longitude": 127.37898523506998,
    "phone": "042-486-1363",
    "url": "http://place.map.kakao.com/1682388775",
    "category": "음식점 > 패스트푸드 > 샌드위치 > 써브웨이"
  },
  {
    "id": "25430439",
    "name": "써브웨이 대전궁동점",
    "address": "대전 유성구 궁동 413-4",
    "road_address": "대전 유성구 궁동로18번길 10",
    "latitude": 36.3627168923059,
    "longitude": 127.347960908395,
    "phone": "042-822-5154",
    "url": "http://place.map.kakao.com/25430439",
    "category": "음식점 > 패스트푸드 > 샌드위치 > 써브웨이"
  },
  {
    "id": "123064056",
    "name": "써브웨이 대전오류점",
    "address": "대전 중구 오류동 154-6",
    "road_address": "대전 중구 계백로 1715",
    "latitude": 36.321895757637,
    "longitude": 127.409817452276,
    "phone": "042-528-4312",
    "url": "http://place.map.kakao.com/123064056",
    "category": "음식점 > 패스트푸드 > 샌드위치 > 써브웨이"
  },
  {
    "id": "1434565723",
    "name": "써브웨이 대전유성터미널점",
    "address": "대전 유성구 봉명동 566-4",
    "road_address": "대전 유성구 계룡로 42-1",
    "latitude": 36.35520018704502,
    "longitude": 127.33564544017942,
    "phone": "010-4979-3953",
    "url": "http://place.map.kakao.com/1434565723",
    "category": "음식점 > 패스트푸드 > 샌드위치 > 써브웨이"
  },
  {
    "id": "160670657",
    "name": "써브웨이 대전용문점",
    "address": "대전 서구 용문동 589-8",
    "road_address": "대전 서구 계룡로 626",
    "latitude": 36.339334143243406,
    "longitude": 127.39168297470009,
    "phone": "042-525-2991",
    "url": "http://place.map.kakao.com/160670657",
    "category": "음식점 > 패스트푸드 > 샌드위치 > 써브웨이"
  },
  {
    "id": "1725368711",
    "name": "써브웨이 대전한남대점",
    "address": "대전 대덕구 오정동 223-26",
    "road_address": "대전 대덕구 한남로25번길 5",
    "latitude": 36.35083441914181,
    "longitude": 127.42526484462307,
    "phone": "042-621-6213",
    "url": "http://place.map.kakao.com/1725368711",
    "category": "음식점 > 패스트푸드 > 샌드위치 > 써브웨이"
  },
  {
    "id": "331562421",
    "name": "써브웨이 대전목원대점",
    "address": "대전 서구 도안동 848",
    "road_address": "대전 서구 도안북로93번길 31",
    "latitude": 36.3314711663243,
    "longitude": 127.33859546152897,
    "phone": "042-825-4080",
    "url": "http://place.map.kakao.com/331562421",
    "category": "음식점 > 패스트푸드 > 샌드위치 > 써브웨이"
  },
  {
    "id": "736964803",
    "name": "써브웨이 대전복합터미널점",
    "address": "대전 동구 용전동 68-18",
    "road_address": "대전 동구 동서대로1695번길 16",
    "latitude": 36.3503818382795,
    "longitude": 127.437795257919,
    "phone": "042-622-6660",
    "url": "http://place.map.kakao.com/736964803",
    "category": "음식점 > 패스트푸드 > 샌드위치 > 써브웨이"
  },
  {
    "id": "1261739644",
    "name": "써브웨이 대전노은점",
    "address": "대전 유성구 지족동 905-3",
    "road_address": "대전 유성구 노은로 150",
    "latitude": 36.373051290606455,
    "longitude": 127.31832148439857,
    "phone": "042-822-4042",
    "url": "http://place.map.kakao.com/1261739644",
    "category": "음식점 > 패스트푸드 > 샌드위치 > 써브웨이"
  },
  {
    "id": "2087143291",
    "name": "써브웨이 대전충남대정문점",
    "address": "대전 유성구 궁동 482-3",
    "road_address": "대전 유성구 한밭대로 414",
    "latitude": 36.36155894460351,
    "longitude": 127.34514352280019,
    "phone": "042-824-1003",
    "url": "http://place.map.kakao.com/2087143291",
    "category": "음식점 > 패스트푸드 > 샌드위치 > 써브웨이"
  },
  {
    "id": "1400265996",
    "name": "써브웨이 대전탄방점",
    "address": "대전 서구 탄방동 753",
    "road_address": "대전 서구 문정로 88",
    "latitude": 36.3464414369143,
    "longitude": 127.388954229033,
    "phone": "042-482-9857",
    "url": "http://place.map.kakao.com/1400265996",
    "category": "음식점 > 패스트푸드 > 샌드위치 > 써브웨이"
  },
  {
    "id": "1923233284",
    "name": "써브웨이 대전우송대점",
    "address": "대전 동구 자양동 58-19",
    "road_address": "대전 동구 동대전로 168",
    "latitude": 36.3366835522901,
    "longitude": 127.447645111096,
    "phone": "042-622-5979",
    "url": "http://place.map.kakao.com/1923233284",
    "category": "음식점 > 패스트푸드 > 샌드위치 > 써브웨이"
  },
  {
    "id": "1908945902",
    "name": "써브웨이 대전카이스트점",
    "address": "대전 유성구 구성동 23",
    "road_address": "대전 유성구 대학로 291",
    "latitude": 36.371228496951815,
    "longitude": 127.36220433352413,
    "phone": "042-863-7001",
    "url": "http://place.map.kakao.com/1908945902",
    "category": "음식점 > 패스트푸드 > 샌드위치 > 써브웨이"
  },
  {
    "id": "26357236",
    "name": "써브웨이 대전관저점",
    "address": "대전 서구 관저동 1515",
    "road_address": "대전 서구 관저로 142",
    "latitude": 36.298514148447445,
    "longitude": 127.33814903676881,
    "phone": "042-543-0303",
    "url": "http://place.map.kakao.com/26357236",
    "category": "음식점 > 패스트푸드 > 샌드위치 > 써브웨이"
  },
  {
    "id": "1416361769",
    "name": "써브웨이 대전송촌점",
    "address": "대전 대덕구 송촌동 459-3",
    "road_address": "대전 대덕구 계족산로81번길 70",
    "latitude": 36.365728321257066,
    "longitude": 127.43841605379107,
    "phone": "042-623-6800",
    "url": "http://place.map.kakao.com/1416361769",
    "category": "음식점 > 패스트푸드 > 샌드위치 > 써브웨이"
  },
  {
    "id": "1057656732",
    "name": "써브웨이 대전전민점",
    "address": "대전 유성구 전민동 304-4",
    "road_address": "대전 유성구 유성대로 1732",
    "latitude": 36.3993810064406,
    "longitude": 127.401671674004,
    "phone": "042-867-6841",
    "url": "http://place.map.kakao.com/1057656732",
    "category": "음식점 > 패스트푸드 > 샌드위치 > 써브웨이"
  },
  {
    "id": "1922695780",
    "name": "써브웨이 대전도마점",
    "address": "대전 서구 도마동 172-15",
    "road_address": "대전 서구 도산로 51",
    "latitude": 36.3133082353616,
    "longitude": 127.379577528684,
    "phone": "042-524-4312",
    "url": "http://place.map.kakao.com/1922695780",
    "category": "음식점 > 패스트푸드 > 샌드위치 > 써브웨이"
  },
  {
    "id": "2103948384",
    "name": "써브웨이 대전태평점",
    "address": "대전 중구 태평동 395-1",
    "road_address": "대전 중구 태평로 71",
    "latitude": 36.32330259319356,
    "longitude": 127.3934006110107,
    "phone": "042-300-7707",
    "url": "http://place.map.kakao.com/2103948384",
    "category": "음식점 > 패스트푸드 > 샌드위치 > 써브웨이"
  },
  {
    "id": "1197047311",
    "name": "써브웨이 대전반석점",
    "address": "대전 유성구 반석동 640-3",
    "road_address": "대전 유성구 북유성대로 303",
    "latitude": 36.3916334355301,
    "longitude": 127.314245245883,
    "phone": "042-825-0605",
    "url": "http://place.map.kakao.com/1197047311",
    "category": "음식점 > 패스트푸드 > 샌드위치 > 써브웨이"
  },
  {
    "id": "1521622719",
    "name": "써브웨이 대전건양대병원점",
    "address": "대전 서구 관저동 1896",
    "road_address": "대전 서구 관저동로 170",
    "latitude": 36.3072996154778,
    "longitude": 127.341158693145,
    "phone": "042-545-5451",
    "url": "http://place.map.kakao.com/1521622719",
    "category": "음식점 > 패스트푸드 > 샌드위치 > 써브웨이"
  },
  {
    "id": "244042763",
    "name": "써브웨이 대전자운대점",
    "address": "대전 유성구 신봉동 5-2",
    "road_address": "대전 유성구 자운로221번길 98",
    "latitude": 36.41313959200755,
    "longitude": 127.3409419529247,
    "phone": "042-863-9091",
    "url": "http://place.map.kakao.com/244042763",
    "category": "음식점 > 패스트푸드 > 샌드위치 > 써브웨이"
  },
  {
    "id": "788102201",
    "name": "써브웨이 대전판암점",
    "address": "대전 동구 판암동 849",
    "road_address": "대전 동구 옥천로 153",
    "latitude": 36.3172832976776,
    "longitude": 127.457335722811,
    "phone": "042-710-8525",
    "url": "http://place.map.kakao.com/788102201",
    "category": "음식점 > 패스트푸드 > 샌드위치 > 써브웨이"
  },
  {
    "id": "23349718",
    "name": "써브웨이 울산삼산점",
    "address": "울산 남구 삼산동 1522-4",
    "road_address": "울산 남구 삼산로267번길 6-15",
    "latitude": 35.5400541473204,
    "longitude": 129.33697690719,
    "phone": "052-227-7700",
    "url": "http://place.map.kakao.com/23349718",
    "category": "음식점 > 패스트푸드 > 샌드위치 > 써브웨이"
  },
  {
    "id": "149640182",
    "name": "써브웨이 울산옥동점",
    "address": "울산 남구 옥동 251-1",
    "road_address": "울산 남구 문수로 332",
    "latitude": 35.53494033454055,
    "longitude": 129.28980833716312,
    "phone": "052-271-6600",
    "url": "http://place.map.kakao.com/149640182",
    "category": "음식점 > 패스트푸드 > 샌드위치 > 써브웨이"
  },
  {
    "id": "1744225177",
    "name": "써브웨이 울산일산점",
    "address": "울산 동구 일산동 941-3",
    "road_address": "울산 동구 방어진순환도로 662",
    "latitude": 35.5008975193132,
    "longitude": 129.428906175417,
    "phone": "052-252-8000",
    "url": "http://place.map.kakao.com/1744225177",
    "category": "음식점 > 패스트푸드 > 샌드위치 > 써브웨이"
  },
  {
    "id": "24812575",
    "name": "써브웨이 울산무거점",
    "address": "울산 남구 무거동 617-7",
    "road_address": "울산 남구 대학로 108",
    "latitude": 35.54438486744643,
    "longitude": 129.2606676969975,
    "phone": "052-249-5008",
    "url": "http://place.map.kakao.com/24812575",
    "category": "음식점 > 패스트푸드 > 샌드위치 > 써브웨이"
  },
  {
    "id": "27411762",
    "name": "써브웨이 울산성남점",
    "address": "울산 중구 옥교동 96-22",
    "road_address": "울산 중구 시계탑거리 17",
    "latitude": 35.554499764187,
    "longitude": 129.321880159332,
    "phone": "052-246-5078",
    "url": "http://place.map.kakao.com/27411762",
    "category": "음식점 > 패스트푸드 > 샌드위치 > 써브웨이"
  },
  {
    "id": "935567750",
    "name": "써브웨이 울산송정점",
    "address": "울산 북구 송정동 1232-3",
    "road_address": "울산 북구 화산로 115",
    "latitude": 35.602287750106285,
    "longitude": 129.36533740760916,
    "phone": "052-286-9988",
    "url": "http://place.map.kakao.com/935567750",
    "category": "음식점 > 패스트푸드 > 샌드위치 > 써브웨이"
  },
  {
    "id": "554286429",
    "name": "써브웨이 울산언양점",
    "address": "울산 울주군 언양읍 서부리 198-2",
    "road_address": "울산 울주군 언양읍 읍성로 38",
    "latitude": 35.5671201183902,
    "longitude": 129.11796334455,
    "phone": "052-264-2082",
    "url": "http://place.map.kakao.com/554286429",
    "category": "음식점 > 패스트푸드 > 샌드위치 > 써브웨이"
  },
  {
    "id": "22114793",
    "name": "써브웨이 울산달동점",
    "address": "울산 남구 달동 830-1",
    "road_address": "울산 남구 삼산로 74",
    "latitude": 35.533978549627584,
    "longitude": 129.31590893765048,
    "phone": "052-266-5007",
    "url": "http://place.map.kakao.com/22114793",
    "category": "음식점 > 패스트푸드 > 샌드위치 > 써브웨이"
  },
  {
    "id": "31046979",
    "name": "써브웨이 울산구영점",
    "address": "울산 울주군 범서읍 구영리 793-8",
    "road_address": "울산 울주군 범서읍 구영로 108",
    "latitude": 35.572824743168,
    "longitude": 129.241893706936,
    "phone": "052-248-8236",
    "url": "http://place.map.kakao.com/31046979",
    "category": "음식점 > 패스트푸드 > 샌드위치 > 써브웨이"
  },
  {
    "id": "1270793763",
    "name": "써브웨이 울산병영점",
    "address": "울산 중구 남외동 438-7",
    "road_address": "울산 중구 번영로 567",
    "latitude": 35.56907469370045,
    "longitude": 129.34392281941956,
    "phone": "052-271-9988",
    "url": "http://place.map.kakao.com/1270793763",
    "category": "음식점 > 패스트푸드 > 샌드위치 > 써브웨이"
  },
  {
    "id": "806739687",
    "name": "써브웨이 울산매곡점",
    "address": "울산 북구 매곡동 629-1",
    "road_address": "울산 북구 괴정1길 110",
    "latitude": 35.6423023651704,
    "longitude": 129.356963147438,
    "phone": "052-281-8899",
    "url": "http://place.map.kakao.com/806739687",
    "category": "음식점 > 패스트푸드 > 샌드위치 > 써브웨이"
  },
  {
    "id": "169498720",
    "name": "써브웨이 울산야음점",
    "address": "울산 남구 야음동 789-14",
    "road_address": "울산 남구 수암로 138",
    "latitude": 35.52710981172592,
    "longitude": 129.3219480108111,
    "phone": "052-700-8565",
    "url": "http://place.map.kakao.com/169498720",
    "category": "음식점 > 패스트푸드 > 샌드위치 > 써브웨이"
  },
  {
    "id": "1195241125",
    "name": "써브웨이 울산유곡점",
    "address": "울산 중구 유곡동 202-2",
    "road_address": "울산 중구 종가3길 23",
    "latitude": 35.560643869037,
    "longitude": 129.297303683218,
    "phone": "052-245-9138",
    "url": "http://place.map.kakao.com/1195241125",
    "category": "음식점 > 패스트푸드 > 샌드위치 > 써브웨이"
  },
  {
    "id": "456861658",
    "name": "써브웨이 울산진장점",
    "address": "울산 북구 진장동 705",
    "road_address": "울산 북구 진장17길 10",
    "latitude": 35.56231565632618,
    "longitude": 129.35668515222247,
    "phone": "052-916-0186",
    "url": "http://place.map.kakao.com/456861658",
    "category": "음식점 > 패스트푸드 > 샌드위치 > 써브웨이"
  },
  {
    "id": "250467636",
    "name": "써브웨이 울산덕신점",
    "address": "울산 울주군 온산읍 덕신리 1285-4",
    "road_address": "울산 울주군 온산읍 덕신로 261",
    "latitude": 35.4338333306903,
    "longitude": 129.31014628734542,
    "phone": "052-239-0093",
    "url": "http://place.map.kakao.com/250467636",
    "category": "음식점 > 패스트푸드 > 샌드위치 > 써브웨이"
  },
  {
    "id": "906957956",
    "name": "써브웨이 세종시청점",
    "address": "세종특별자치시 보람동 721",
    "road_address": "세종특별자치시 한누리대로 2144",
    "latitude": 36.478640552432346,
    "longitude": 127.28792351757248,
    "phone": "044-868-0245",
    "url": "http://place.map.kakao.com/906957956",
    "category": "음식점 > 패스트푸드 > 샌드위치 > 써브웨이"
  },
  {
    "id": "71778496",
    "name": "써브웨이 세종어진점",
    "address": "세종특별자치시 어진동 549",
    "road_address": "세종특별자치시 한누리대로 492",
    "latitude": 36.5073475770258,
    "longitude": 127.26221572712068,
    "phone": "044-867-3797",
    "url": "http://place.map.kakao.com/71778496",
    "category": "음식점 > 패스트푸드 > 샌드위치 > 써브웨이"
  },
  {
    "id": "116273957",
    "name": "써브웨이 세종새롬점",
    "address": "세종특별자치시 새롬동 579",
    "road_address": "세종특별자치시 새롬중앙로 62-15",
    "latitude": 36.4869357085317,
    "longitude": 127.250797284816,
    "phone": "044-998-8888",
    "url": "http://place.map.kakao.com/116273957",
    "category": "음식점 > 패스트푸드 > 샌드위치 > 써브웨이"
  },
  {
    "id": "442942557",
    "name": "써브웨이 세종산울점",
    "address": "세종특별자치시 산울동 614",
    "road_address": "세종특별자치시 산울7로 11",
    "latitude": 36.53061702402396,
    "longitude": 127.26552686394663,
    "phone": "044-868-3797",
    "url": "http://place.map.kakao.com/442942557",
    "category": "음식점 > 패스트푸드 > 샌드위치 > 써브웨이"
  },
  {
    "id": "503597628",
    "name": "써브웨이 세종조치원점",
    "address": "세종특별자치시 조치원읍 원리 9-14",
    "road_address": "세종특별자치시 조치원읍 새내로 111",
    "latitude": 36.601766474126684,
    "longitude": 127.29776413413204,
    "phone": "044-867-1384",
    "url": "http://place.map.kakao.com/503597628",
    "category": "음식점 > 패스트푸드 > 샌드위치 > 써브웨이"
  },
  {
    "id": "1455372642",
    "name": "써브웨이 세종아름점",
    "address": "세종특별자치시 아름동 1329",
    "road_address": "세종특별자치시 아름서1길 13-9",
    "latitude": 36.51176182217999,
    "longitude": 127.24243218554467,
    "phone": "044-863-1384",
    "url": "http://place.map.kakao.com/1455372642",
    "category": "음식점 > 패스트푸드 > 샌드위치 > 써브웨이"
  },
  {
    "id": "283138272",
    "name": "써브웨이 세종반곡점",
    "address": "세종특별자치시 반곡동 873",
    "road_address": "세종특별자치시 시청대로 547",
    "latitude": 36.4988158459372,
    "longitude": 127.317671324808,
    "phone": "",
    "url": "http://place.map.kakao.com/283138272",
    "category": "음식점 > 패스트푸드 > 샌드위치 > 써브웨이"
  },
  {
    "id": "930141135",
    "name": "써브웨이 광교중앙점",
    "address": "경기 수원시 영통구 이의동 1331",
    "road_address": "경기 수원시 영통구 센트럴타운로 107",
    "latitude": 37.29122477522516,
    "longitude": 127.04865511316376,
    "phone": "031-211-8886",
    "url": "http://place.map.kakao.com/930141135",
    "category": "음식점 > 패스트푸드 > 샌드위치 > 써브웨이"
  },
  {
    "id": "1831916661",
    "name": "써브웨이 김포장기동점",
    "address": "경기 김포시 장기동 1851",
    "road_address": "경기 김포시 김포한강4로 118",
    "latitude": 37.6446294381752,
    "longitude": 126.668518644097,
    "phone": "031-987-3824",
    "url": "http://place.map.kakao.com/1831916661",
    "category": "음식점 > 패스트푸드 > 샌드위치 > 써브웨이"
  },
  {
    "id": "19157216",
    "name": "써브웨이 분당서현점",
    "address": "경기 성남시 분당구 서현동 251-3",
    "road_address": "경기 성남시 분당구 서현로 184",
    "latitude": 37.38834082858117,
    "longitude": 127.12412349456277,
    "phone": "031-709-2220",
    "url": "http://place.map.kakao.com/19157216",
    "category": "음식점 > 패스트푸드 > 샌드위치 > 써브웨이"
  },
  {
    "id": "447234502",
    "name": "써브웨이 광명철산역점",
    "address": "경기 광명시 철산동 245-9",
    "road_address": "경기 광명시 철산로 15",
    "latitude": 37.4763003467045,
    "longitude": 126.867659135589,
    "phone": "02-2611-8006",
    "url": "http://place.map.kakao.com/447234502",
    "category": "음식점 > 패스트푸드 > 샌드위치 > 써브웨이"
  },
  {
    "id": "1802525608",
    "name": "써브웨이 부천시청점",
    "address": "경기 부천시 원미구 중동 1162-8",
    "road_address": "경기 부천시 원미구 석천로169번길 22",
    "latitude": 37.50291947606544,
    "longitude": 126.76149619135404,
    "phone": "032-321-3277",
    "url": "http://place.map.kakao.com/1802525608",
    "category": "음식점 > 패스트푸드 > 샌드위치 > 써브웨이"
  },
  {
    "id": "1108455992",
    "name": "써브웨이 수원장안구청점",
    "address": "경기 수원시 장안구 송죽동 499-6",
    "road_address": "경기 수원시 장안구 경수대로 927",
    "latitude": 37.30172254032928,
    "longitude": 127.00854174237453,
    "phone": "031-244-8490",
    "url": "http://place.map.kakao.com/1108455992",
    "category": "음식점 > 패스트푸드 > 샌드위치 > 써브웨이"
  },
  {
    "id": "24324876",
    "name": "써브웨이 안양범계점",
    "address": "경기 안양시 동안구 비산동 1107-1",
    "road_address": "경기 안양시 동안구 시민대로 167",
    "latitude": 37.39076607390261,
    "longitude": 126.94977081651017,
    "phone": "031-440-8490",
    "url": "http://place.map.kakao.com/24324876",
    "category": "음식점 > 패스트푸드 > 샌드위치 > 써브웨이"
  },
  {
    "id": "584731804",
    "name": "써브웨이 성남단대오거리역점",
    "address": "경기 성남시 중원구 금광동 10",
    "road_address": "경기 성남시 중원구 산성대로372번길 10",
    "latitude": 37.44479346887608,
    "longitude": 127.15824404536436,
    "phone": "031-732-1137",
    "url": "http://place.map.kakao.com/584731804",
    "category": "음식점 > 패스트푸드 > 샌드위치 > 써브웨이"
  },
  {
    "id": "300656291",
    "name": "써브웨이 용인처인점",
    "address": "경기 용인시 처인구 역북동 722-1",
    "road_address": "경기 용인시 처인구 명지로 17",
    "latitude": 37.23449675444874,
    "longitude": 127.18907989151143,
    "phone": "031-332-3070",
    "url": "http://place.map.kakao.com/300656291",
    "category": "음식점 > 패스트푸드 > 샌드위치 > 써브웨이"
  },
  {
    "id": "27178778",
    "name": "써브웨이 안양1번가점",
    "address": "경기 안양시 만안구 안양동 674-10",
    "road_address": "경기 안양시 만안구 만안로223번길 7",
    "latitude": 37.40037419691575,
    "longitude": 126.92240475653222,
    "phone": "031-464-5210",
    "url": "http://place.map.kakao.com/27178778",
    "category": "음식점 > 패스트푸드 > 샌드위치 > 써브웨이"
  },
  {
    "id": "27454759",
    "name": "써브웨이 동탄하이페리온점",
    "address": "경기 화성시 반송동 93-9",
    "road_address": "경기 화성시 동탄반석로 156",
    "latitude": 37.202181603139586,
    "longitude": 127.07148091421216,
    "phone": "031-8003-8878",
    "url": "http://place.map.kakao.com/27454759",
    "category": "음식점 > 패스트푸드 > 샌드위치 > 써브웨이"
  },
  {
    "id": "933923227",
    "name": "써브웨이 일산고양삼송점",
    "address": "경기 고양시 덕양구 신원동 619-1",
    "road_address": "경기 고양시 덕양구 권율대로 901",
    "latitude": 37.66402721864976,
    "longitude": 126.89062657380046,
    "phone": "02-381-9257",
    "url": "http://place.map.kakao.com/933923227",
    "category": "음식점 > 패스트푸드 > 샌드위치 > 써브웨이"
  },
  {
    "id": "1073242540",
    "name": "써브웨이 경기광주경안점",
    "address": "경기 광주시 역동 25-6",
    "road_address": "경기 광주시 중앙로 83",
    "latitude": 37.4072591676078,
    "longitude": 127.259581629964,
    "phone": "031-797-7242",
    "url": "http://place.map.kakao.com/1073242540",
    "category": "음식점 > 패스트푸드 > 샌드위치 > 써브웨이"
  },
  {
    "id": "817477001",
    "name": "써브웨이 용인동백점",
    "address": "경기 용인시 기흥구 중동 829",
    "road_address": "경기 용인시 기흥구 동백중앙로 283",
    "latitude": 37.27800534642912,
    "longitude": 127.15347529232677,
    "phone": "031-285-4857",
    "url": "http://place.map.kakao.com/817477001",
    "category": "음식점 > 패스트푸드 > 샌드위치 > 써브웨이"
  },
  {
    "id": "21582012",
    "name": "써브웨이 부천송내역점",
    "address": "경기 부천시 원미구 상동 413",
    "road_address": "경기 부천시 원미구 부일로 203",
    "latitude": 37.489132897365565,
    "longitude": 126.75245574899982,
    "phone": "032-323-0265",
    "url": "http://place.map.kakao.com/21582012",
    "category": "음식점 > 패스트푸드 > 샌드위치 > 써브웨이"
  },
  {
    "id": "26312374",
    "name": "써브웨이 수원인계점",
    "address": "경기 수원시 팔달구 인계동 1114-9",
    "road_address": "경기 수원시 팔달구 권광로 204",
    "latitude": 37.265717661588475,
    "longitude": 127.03370594298801,
    "phone": "031-267-0533",
    "url": "http://place.map.kakao.com/26312374",
    "category": "음식점 > 패스트푸드 > 샌드위치 > 써브웨이"
  },
  {
    "id": "1909721741",
    "name": "써브웨이 남양주별내점",
    "address": "경기 남양주시 별내동 1006-2",
    "road_address": "경기 남양주시 별내중앙로 26",
    "latitude": 37.6456946073269,
    "longitude": 127.125964596306,
    "phone": "031-571-1105",
    "url": "http://place.map.kakao.com/1909721741",
    "category": "음식점 > 패스트푸드 > 샌드위치 > 써브웨이"
  },
  {
    "id": "19951371",
    "name": "써브웨이 수원망포역점",
    "address": "경기 수원시 영통구 망포동 322-3",
    "road_address": "경기 수원시 영통구 영통로 195",
    "latitude": 37.24532001512717,
    "longitude": 127.05549175307519,
    "phone": "031-203-0703",
    "url": "http://place.map.kakao.com/19951371",
    "category": "음식점 > 패스트푸드 > 샌드위치 > 써브웨이"
  },
  {
    "id": "1968271591",
    "name": "써브웨이 평택로데오점",
    "address": "경기 평택시 평택동 298-3",
    "road_address": "경기 평택시 평택로32번길 21",
    "latitude": 36.991280788561404,
    "longitude": 127.0887422638605,
    "phone": "031-655-1386",
    "url": "http://place.map.kakao.com/1968271591",
    "category": "음식점 > 패스트푸드 > 샌드위치 > 써브웨이"
  },
  {
    "id": "26607495",
    "name": "써브웨이 안산고잔점",
    "address": "경기 안산시 단원구 고잔동 708-2",
    "road_address": "경기 안산시 단원구 광덕대로 151",
    "latitude": 37.310119598744464,
    "longitude": 126.82925620735594,
    "phone": "031-414-4200",
    "url": "http://place.map.kakao.com/26607495",
    "category": "음식점 > 패스트푸드 > 샌드위치 > 써브웨이"
  },
  {
    "id": "27300631",
    "name": "써브웨이 한대역점",
    "address": "경기 안산시 상록구 이동 715",
    "road_address": "경기 안산시 상록구 광덕1로 385",
    "latitude": 37.309098262534064,
    "longitude": 126.85199395260543,
    "phone": "031-418-1900",
    "url": "http://place.map.kakao.com/27300631",
    "category": "음식점 > 패스트푸드 > 샌드위치 > 써브웨이"
  },
  {
    "id": "777904671",
    "name": "써브웨이 광교경기대후문점",
    "address": "경기 수원시 영통구 이의동 1258-4",
    "road_address": "경기 수원시 영통구 대학로 34",
    "latitude": 37.29944147187834,
    "longitude": 127.04368304278883,
    "phone": "070-7750-2040",
    "url": "http://place.map.kakao.com/777904671",
    "category": "음식점 > 패스트푸드 > 샌드위치 > 써브웨이"
  },
  {
    "id": "1481544907",
    "name": "써브웨이 성남터미널점",
    "address": "경기 성남시 분당구 야탑동 341",
    "road_address": "경기 성남시 분당구 성남대로925번길 16",
    "latitude": 37.4127677706588,
    "longitude": 127.12809473716828,
    "phone": "031-705-7022",
    "url": "http://place.map.kakao.com/1481544907",
    "category": "음식점 > 패스트푸드 > 샌드위치 > 써브웨이"
  },
  {
    "id": "506157644",
    "name": "써브웨이 양주옥정점",
    "address": "경기 양주시 옥정동 963-7",
    "road_address": "경기 양주시 옥정로 214",
    "latitude": 37.8206852860733,
    "longitude": 127.092111040429,
    "phone": "031-858-2270",
    "url": "http://place.map.kakao.com/506157644",
    "category": "음식점 > 패스트푸드 > 샌드위치 > 써브웨이"
  },
  {
    "id": "2139829251",
    "name": "써브웨이 화성병점점",
    "address": "경기 화성시 진안동 914-4",
    "road_address": "경기 화성시 효행로 1063",
    "latitude": 37.21494275708804,
    "longitude": 127.04311039554862,
    "phone": "031-237-8828",
    "url": "http://place.map.kakao.com/2139829251",
    "category": "음식점 > 패스트푸드 > 샌드위치 > 써브웨이"
  },
  {
    "id": "1217511308",
    "name": "써브웨이 용인죽전점",
    "address": "경기 용인시 기흥구 보정동 1263",
    "road_address": "경기 용인시 기흥구 죽전로 20",
    "latitude": 37.3203119258949,
    "longitude": 127.111398281141,
    "phone": "031-889-8089",
    "url": "http://place.map.kakao.com/1217511308",
    "category": "음식점 > 패스트푸드 > 샌드위치 > 써브웨이"
  },
  {
    "id": "1811481273",
    "name": "써브웨이 수원아주대점",
    "address": "경기 수원시 팔달구 우만동 571-2",
    "road_address": "경기 수원시 팔달구 아주로 49-1",
    "latitude": 37.2793988491704,
    "longitude": 127.043488788255,
    "phone": "031-211-0369",
    "url": "http://place.map.kakao.com/1811481273",
    "category": "음식점 > 패스트푸드 > 샌드위치 > 써브웨이"
  },
  {
    "id": "405427680",
    "name": "써브웨이 의정부역점",
    "address": "경기 의정부시 의정부동 432-30",
    "road_address": "경기 의정부시 신흥로257번길 6",
    "latitude": 37.7391943644442,
    "longitude": 127.042828321072,
    "phone": "031-878-7811",
    "url": "http://place.map.kakao.com/405427680",
    "category": "음식점 > 패스트푸드 > 샌드위치 > 써브웨이"
  },
  {
    "id": "1411746474",
    "name": "써브웨이 서판교점",
    "address": "경기 성남시 분당구 운중동 940",
    "road_address": "경기 성남시 분당구 운중로 142",
    "latitude": 37.3912481358818,
    "longitude": 127.07877833483066,
    "phone": "031-707-7911",
    "url": "http://place.map.kakao.com/1411746474",
    "category": "음식점 > 패스트푸드 > 샌드위치 > 써브웨이"
  },
  {
    "id": "559762294",
    "name": "써브웨이 고양행신점",
    "address": "경기 고양시 덕양구 행신동 707-1",
    "road_address": "경기 고양시 덕양구 충장로 11",
    "latitude": 37.613874264262,
    "longitude": 126.83381548414953,
    "phone": "031-994-8929",
    "url": "http://place.map.kakao.com/559762294",
    "category": "음식점 > 패스트푸드 > 샌드위치 > 써브웨이"
  },
  {
    "id": "419210786",
    "name": "써브웨이 성남위례점",
    "address": "경기 성남시 수정구 창곡동 505",
    "road_address": "경기 성남시 수정구 위례광장로 104",
    "latitude": 37.473613662747944,
    "longitude": 127.1415609882286,
    "phone": "0502-5550-1551",
    "url": "http://place.map.kakao.com/419210786",
    "category": "음식점 > 패스트푸드 > 샌드위치 > 써브웨이"
  },
  {
    "id": "21355003",
    "name": "써브웨이 일산동구청점",
    "address": "경기 고양시 일산동구 장항동 855",
    "road_address": "경기 고양시 일산동구 정발산로 38",
    "latitude": 37.65699506976004,
    "longitude": 126.77353817463563,
    "phone": "031-906-6754",
    "url": "http://place.map.kakao.com/21355003",
    "category": "음식점 > 패스트푸드 > 샌드위치 > 써브웨이"
  },
  {
    "id": "1509367480",
    "name": "써브웨이 성남시청점",
    "address": "경기 성남시 중원구 여수동 207",
    "road_address": "경기 성남시 중원구 성남대로997번길 51-20",
    "latitude": 37.41706967947243,
    "longitude": 127.12642453717794,
    "phone": "031-745-3030",
    "url": "http://place.map.kakao.com/1509367480",
    "category": "음식점 > 패스트푸드 > 샌드위치 > 써브웨이"
  },
  {
    "id": "861030840",
    "name": "써브웨이 용인기흥구청점",
    "address": "경기 용인시 기흥구 신갈동 733",
    "road_address": "경기 용인시 기흥구 구갈로 71-18",
    "latitude": 37.28094254723571,
    "longitude": 127.11087227307418,
    "phone": "031-284-3161",
    "url": "http://place.map.kakao.com/861030840",
    "category": "음식점 > 패스트푸드 > 샌드위치 > 써브웨이"
  },
  {
    "id": "1107942895",
    "name": "써브웨이 김포사우점",
    "address": "경기 김포시 사우동 237-2",
    "road_address": "경기 김포시 돌문로 43",
    "latitude": 37.61866865174388,
    "longitude": 126.7181380207997,
    "phone": "070-4234-3277",
    "url": "http://place.map.kakao.com/1107942895",
    "category": "음식점 > 패스트푸드 > 샌드위치 > 써브웨이"
  },
  {
    "id": "1474618204",
    "name": "써브웨이 안양평촌역점",
    "address": "경기 안양시 동안구 관양동 1607",
    "road_address": "경기 안양시 동안구 관평로170번길 43",
    "latitude": 37.39314189626729,
    "longitude": 126.96326423263156,
    "phone": "031-387-8490",
    "url": "http://place.map.kakao.com/1474618204",
    "category": "음식점 > 패스트푸드 > 샌드위치 > 써브웨이"
  },
  {
    "id": "1827911380",
    "name": "써브웨이 시흥능곡역점",
    "address": "경기 시흥시 능곡동 898-6",
    "road_address": "경기 시흥시 능곡번영길 26",
    "latitude": 37.370189910007,
    "longitude": 126.80711762332716,
    "phone": "031-311-6194",
    "url": "http://place.map.kakao.com/1827911380",
    "category": "음식점 > 패스트푸드 > 샌드위치 > 써브웨이"
  },
  {
    "id": "24710339",
    "name": "써브웨이 일산화정점",
    "address": "경기 고양시 덕양구 화정동 965-1",
    "road_address": "경기 고양시 덕양구 화정로 69",
    "latitude": 37.634786946199014,
    "longitude": 126.83373946515067,
    "phone": "031-966-9668",
    "url": "http://place.map.kakao.com/24710339",
    "category": "음식점 > 패스트푸드 > 샌드위치 > 써브웨이"
  },
  {
    "id": "688440932",
    "name": "써브웨이 수원정자점",
    "address": "경기 수원시 장안구 정자동 878-11",
    "road_address": "경기 수원시 장안구 정자천로173번길 11-7",
    "latitude": 37.29546680800563,
    "longitude": 126.99421424672528,
    "phone": "031-271-3161",
    "url": "http://place.map.kakao.com/688440932",
    "category": "음식점 > 패스트푸드 > 샌드위치 > 써브웨이"
  },
  {
    "id": "464758633",
    "name": "써브웨이 용인동천점",
    "address": "경기 용인시 수지구 동천동 899",
    "road_address": "경기 용인시 수지구 신수로 767",
    "latitude": 37.3379949518998,
    "longitude": 127.102103293719,
    "phone": "031-525-3336",
    "url": "http://place.map.kakao.com/464758633",
    "category": "음식점 > 패스트푸드 > 샌드위치 > 써브웨이"
  },
  {
    "id": "1264205970",
    "name": "써브웨이 부천역곡역점",
    "address": "경기 부천시 원미구 역곡동 77-12",
    "road_address": "경기 부천시 원미구 부일로 725",
    "latitude": 37.48565751474776,
    "longitude": 126.81034435263217,
    "phone": "032-876-4908",
    "url": "http://place.map.kakao.com/1264205970",
    "category": "음식점 > 패스트푸드 > 샌드위치 > 써브웨이"
  },
  {
    "id": "1374270382",
    "name": "써브웨이 산본사거리점",
    "address": "경기 군포시 산본동 207-9",
    "road_address": "경기 군포시 고산로 694",
    "latitude": 37.3715685378874,
    "longitude": 126.935554140498,
    "phone": "031-392-3327",
    "url": "http://place.map.kakao.com/1374270382",
    "category": "음식점 > 패스트푸드 > 샌드위치 > 써브웨이"
  },
  {
    "id": "1885210408",
    "name": "써브웨이 오산대역점",
    "address": "경기 오산시 수청동 620-2",
    "road_address": "경기 오산시 내삼미로 89",
    "latitude": 37.1700697298241,
    "longitude": 127.06593063453359,
    "phone": "031-378-8004",
    "url": "http://place.map.kakao.com/1885210408",
    "category": "음식점 > 패스트푸드 > 샌드위치 > 써브웨이"
  },
  {
    "id": "473482845",
    "name": "써브웨이 안산중앙점",
    "address": "경기 안산시 단원구 고잔동 534-3",
    "road_address": "경기 안산시 단원구 예술대학로 17",
    "latitude": 37.31869082490107,
    "longitude": 126.8365050735849,
    "phone": "031-414-4210",
    "url": "http://place.map.kakao.com/473482845",
    "category": "음식점 > 패스트푸드 > 샌드위치 > 써브웨이"
  },
  {
    "id": "24165091",
    "name": "써브웨이 분당정자점",
    "address": "경기 성남시 분당구 정자동 159-1",
    "road_address": "경기 성남시 분당구 성남대로331번길 13",
    "latitude": 37.3654761079137,
    "longitude": 127.106430238897,
    "phone": "070-8882-8212",
    "url": "http://place.map.kakao.com/24165091",
    "category": "음식점 > 패스트푸드 > 샌드위치 > 써브웨이"
  },
  {
    "id": "408293853",
    "name": "써브웨이 춘천퇴계점",
    "address": "강원특별자치도 춘천시 퇴계동 381-1",
    "road_address": "강원특별자치도 춘천시 영서로 2195",
    "latitude": 37.86055610588849,
    "longitude": 127.72843695873215,
    "phone": "033-252-1146",
    "url": "http://place.map.kakao.com/408293853",
    "category": "음식점 > 패스트푸드 > 샌드위치 > 써브웨이"
  },
  {
    "id": "1267103613",
    "name": "써브웨이 춘천후평점",
    "address": "강원특별자치도 춘천시 후평동 794-1",
    "road_address": "강원특별자치도 춘천시 후석로 300",
    "latitude": 37.8781110555743,
    "longitude": 127.751466288029,
    "phone": "033-255-1146",
    "url": "http://place.map.kakao.com/1267103613",
    "category": "음식점 > 패스트푸드 > 샌드위치 > 써브웨이"
  },
  {
    "id": "859877719",
    "name": "써브웨이 강릉중앙로",
    "address": "강원특별자치도 강릉시 옥천동 188",
    "road_address": "강원특별자치도 강릉시 경강로 2117",
    "latitude": 37.75619575138915,
    "longitude": 128.89808927488184,
    "phone": "033-646-1146",
    "url": "http://place.map.kakao.com/859877719",
    "category": "음식점 > 패스트푸드 > 샌드위치 > 써브웨이"
  },
  {
    "id": "393637472",
    "name": "써브웨이 속초점",
    "address": "강원특별자치도 속초시 조양동 1034-49",
    "road_address": "강원특별자치도 속초시 동해대로 4030",
    "latitude": 38.1901526474112,
    "longitude": 128.593798577503,
    "phone": "033-636-1146",
    "url": "http://place.map.kakao.com/393637472",
    "category": "음식점 > 패스트푸드 > 샌드위치 > 써브웨이"
  },
  {
    "id": "544428998",
    "name": "써브웨이 원주무실점",
    "address": "강원특별자치도 원주시 무실동 1857-6",
    "road_address": "강원특별자치도 원주시 능라동길 61",
    "latitude": 37.3341487832875,
    "longitude": 127.931233649508,
    "phone": "033-745-1509",
    "url": "http://place.map.kakao.com/544428998",
    "category": "음식점 > 패스트푸드 > 샌드위치 > 써브웨이"
  },
  {
    "id": "1409119845",
    "name": "써브웨이 원주혁신도시",
    "address": "강원특별자치도 원주시 반곡동 1886-5",
    "road_address": "강원특별자치도 원주시 입춘로 110",
    "latitude": 37.32319065031285,
    "longitude": 127.9816338350588,
    "phone": "033-744-1509",
    "url": "http://place.map.kakao.com/1409119845",
    "category": "음식점 > 패스트푸드 > 샌드위치 > 써브웨이"
  },
  {
    "id": "18440215",
    "name": "써브웨이헤어",
    "address": "강원특별자치도 태백시 황지동 29-25",
    "road_address": "강원특별자치도 태백시 문화로3길 112",
    "latitude": 37.17135986543875,
    "longitude": 128.9938162892023,
    "phone": "033-553-2082",
    "url": "http://place.map.kakao.com/18440215",
    "category": "가정,생활 > 미용 > 미용실"
  },
  {
    "id": "13081856",
    "name": "써브웨이 청주대점",
    "address": "충북 청주시 청원구 우암동 227-5",
    "road_address": "충북 청주시 청원구 대성로 301",
    "latitude": 36.65144964456997,
    "longitude": 127.48948166645518,
    "phone": "043-252-8184",
    "url": "http://place.map.kakao.com/13081856",
    "category": "음식점 > 패스트푸드 > 샌드위치 > 써브웨이"
  },
  {
    "id": "1698337032",
    "name": "써브웨이 청주충북대점",
    "address": "충북 청주시 서원구 사창동 481",
    "road_address": "충북 청주시 서원구 1순환로 676",
    "latitude": 36.6332653081533,
    "longitude": 127.46044610482168,
    "phone": "043-267-7578",
    "url": "http://place.map.kakao.com/1698337032",
    "category": "음식점 > 패스트푸드 > 샌드위치 > 써브웨이"
  },
  {
    "id": "806238438",
    "name": "써브웨이 충주호암DT점",
    "address": "충북 충주시 호암동 652-3",
    "road_address": "충북 충주시 중원대로 3239",
    "latitude": 36.958729673816656,
    "longitude": 127.9229983208279,
    "phone": "043-848-3365",
    "url": "http://place.map.kakao.com/806238438",
    "category": "음식점 > 패스트푸드 > 샌드위치 > 써브웨이"
  },
  {
    "id": "506186200",
    "name": "써브웨이 제천청전점",
    "address": "충북 제천시 청전동 126-21",
    "road_address": "충북 제천시 의림대로 223",
    "latitude": 37.1473651846135,
    "longitude": 128.214046404693,
    "phone": "043-646-6466",
    "url": "http://place.map.kakao.com/506186200",
    "category": "음식점 > 패스트푸드 > 샌드위치 > 써브웨이"
  },
  {
    "id": "226013694",
    "name": "써브웨이 충북음성혁신도시점",
    "address": "충북 음성군 맹동면 두성리 1397",
    "road_address": "충북 음성군 맹동면 대하2가길 11",
    "latitude": 36.907928135417436,
    "longitude": 127.5429499914644,
    "phone": "043-753-7076",
    "url": "http://place.map.kakao.com/226013694",
    "category": "음식점 > 패스트푸드 > 샌드위치 > 써브웨이"
  },
  {
    "id": "241114352",
    "name": "써브웨이 청주분평점",
    "address": "충북 청주시 서원구 분평동 568",
    "road_address": "충북 청주시 서원구 1순환로 1130-1",
    "latitude": 36.6058104778089,
    "longitude": 127.49224666786,
    "phone": "043-283-2139",
    "url": "http://place.map.kakao.com/241114352",
    "category": "음식점 > 패스트푸드 > 샌드위치 > 써브웨이"
  },
  {
    "id": "1319147751",
    "name": "써브웨이 청주오송점",
    "address": "충북 청주시 흥덕구 오송읍 연제리 671",
    "road_address": "충북 청주시 흥덕구 오송읍 오송생명로 165",
    "latitude": 36.6323920816159,
    "longitude": 127.32779290321,
    "phone": "043-232-4582",
    "url": "http://place.map.kakao.com/1319147751",
    "category": "음식점 > 패스트푸드 > 샌드위치 > 써브웨이"
  },
  {
    "id": "2140113087",
    "name": "써브웨이 청주율량점",
    "address": "충북 청주시 청원구 주성동 345",
    "road_address": "충북 청주시 청원구 충청대로 170",
    "latitude": 36.6712097298302,
    "longitude": 127.496392452709,
    "phone": "043-217-9857",
    "url": "http://place.map.kakao.com/2140113087",
    "category": "음식점 > 패스트푸드 > 샌드위치 > 써브웨이"
  },
  {
    "id": "1288050283",
    "name": "써브웨이 청주오창점",
    "address": "충북 청주시 청원구 오창읍 양청리 818-1",
    "road_address": "충북 청주시 청원구 오창읍 중심상업로 30",
    "latitude": 36.7133344080773,
    "longitude": 127.430157484806,
    "phone": "043-218-6667",
    "url": "http://place.map.kakao.com/1288050283",
    "category": "음식점 > 패스트푸드 > 샌드위치 > 써브웨이"
  },
  {
    "id": "720184506",
    "name": "써브웨이 청주가경NC점",
    "address": "충북 청주시 흥덕구 가경동 1416-3",
    "road_address": "충북 청주시 흥덕구 2순환로 1233",
    "latitude": 36.626217305649,
    "longitude": 127.431132972036,
    "phone": "043-716-6105",
    "url": "http://place.map.kakao.com/720184506",
    "category": "음식점 > 패스트푸드 > 샌드위치 > 써브웨이"
  },
  {
    "id": "621993247",
    "name": "써브웨이 충북증평점",
    "address": "충북 증평군 증평읍 중동리 1-3",
    "road_address": "충북 증평군 증평읍 광장로 92",
    "latitude": 36.78524912960579,
    "longitude": 127.58228708349637,
    "phone": "043-760-8760",
    "url": "http://place.map.kakao.com/621993247",
    "category": "음식점 > 패스트푸드 > 샌드위치 > 써브웨이"
  },
  {
    "id": "23301441",
    "name": "써브웨이 천안신부점",
    "address": "충남 천안시 동남구 신부동 363-13",
    "road_address": "충남 천안시 동남구 만남로 13",
    "latitude": 36.81907176127493,
    "longitude": 127.15372750537873,
    "phone": "041-569-0003",
    "url": "http://place.map.kakao.com/23301441",
    "category": "음식점 > 패스트푸드 > 샌드위치 > 써브웨이"
  },
  {
    "id": "1202204172",
    "name": "써브웨이 당진읍내점",
    "address": "충남 당진시 읍내동 225-1",
    "road_address": "충남 당진시 당진중앙2로 127",
    "latitude": 36.89473666201601,
    "longitude": 126.63148457566963,
    "phone": "041-356-2731",
    "url": "http://place.map.kakao.com/1202204172",
    "category": "음식점 > 패스트푸드 > 샌드위치 > 써브웨이"
  },
  {
    "id": "2102820364",
    "name": "써브웨이 아산터미널점",
    "address": "충남 아산시 모종동 566-2",
    "road_address": "충남 아산시 번영로224번길 4",
    "latitude": 36.7839710701959,
    "longitude": 127.01525830641282,
    "phone": "041-548-8484",
    "url": "http://place.map.kakao.com/2102820364",
    "category": "음식점 > 패스트푸드 > 샌드위치 > 써브웨이"
  },
  {
    "id": "26498052",
    "name": "써브웨이 천안성정점",
    "address": "충남 천안시 서북구 성정동 435-1",
    "road_address": "충남 천안시 서북구 쌍용대로 317",
    "latitude": 36.82554047860997,
    "longitude": 127.13705597464237,
    "phone": "041-587-2345",
    "url": "http://place.map.kakao.com/26498052",
    "category": "음식점 > 패스트푸드 > 샌드위치 > 써브웨이"
  },
  {
    "id": "239611907",
    "name": "써브웨이 홍성점",
    "address": "충남 홍성군 홍성읍 대교리 69-2",
    "road_address": "충남 홍성군 홍성읍 충서로 1669",
    "latitude": 36.6031508636378,
    "longitude": 126.67706639008,
    "phone": "041-631-1013",
    "url": "http://place.map.kakao.com/239611907",
    "category": "음식점 > 패스트푸드 > 샌드위치 > 써브웨이"
  },
  {
    "id": "26543380",
    "name": "써브웨이 천안쌍용점",
    "address": "충남 천안시 서북구 쌍용동 1545",
    "road_address": "충남 천안시 서북구 월봉로 79",
    "latitude": 36.7976113579887,
    "longitude": 127.117812296479,
    "phone": "041-572-4466",
    "url": "http://place.map.kakao.com/26543380",
    "category": "음식점 > 패스트푸드 > 샌드위치 > 써브웨이"
  },
  {
    "id": "1040490199",
    "name": "써브웨이 서산호수공원점",
    "address": "충남 서산시 예천동 1273-1",
    "road_address": "충남 서산시 호수공원12로 26",
    "latitude": 36.773181176872406,
    "longitude": 126.44864878099997,
    "phone": "041-663-7852",
    "url": "http://place.map.kakao.com/1040490199",
    "category": "음식점 > 패스트푸드 > 샌드위치 > 써브웨이"
  },
  {
    "id": "243020678",
    "name": "써브웨이 천안청수점",
    "address": "충남 천안시 동남구 청당동 512",
    "road_address": "충남 천안시 동남구 청수11로 16",
    "latitude": 36.782722105196044,
    "longitude": 127.15419932364405,
    "phone": "041-414-1421",
    "url": "http://place.map.kakao.com/243020678",
    "category": "음식점 > 패스트푸드 > 샌드위치 > 써브웨이"
  },
  {
    "id": "1427624024",
    "name": "써브웨이 아산탕정점",
    "address": "충남 아산시 탕정면 매곡리 1219",
    "road_address": "충남 아산시 탕정면 한들물빛도시로 88",
    "latitude": 36.787216970419344,
    "longitude": 127.08384579316329,
    "phone": "041-545-8246",
    "url": "http://place.map.kakao.com/1427624024",
    "category": "음식점 > 패스트푸드 > 샌드위치 > 써브웨이"
  },
  {
    "id": "26778795",
    "name": "써브웨이 아산온양점",
    "address": "충남 아산시 온천동 211-1",
    "road_address": "충남 아산시 온궁로 24-2",
    "latitude": 36.7820479454934,
    "longitude": 127.003150167821,
    "phone": "041-544-2700",
    "url": "http://place.map.kakao.com/26778795",
    "category": "음식점 > 패스트푸드 > 샌드위치 > 써브웨이"
  },
  {
    "id": "383869645",
    "name": "써브웨이 천안충무로점",
    "address": "충남 천안시 서북구 쌍용동 202-7",
    "road_address": "충남 천안시 서북구 충무로 201",
    "latitude": 36.79623074796951,
    "longitude": 127.12827969118862,
    "phone": "041-579-4321",
    "url": "http://place.map.kakao.com/383869645",
    "category": "음식점 > 패스트푸드 > 샌드위치 > 써브웨이"
  },
  {
    "id": "1076878124",
    "name": "써브웨이 논산점",
    "address": "충남 논산시 내동 314-6",
    "road_address": "충남 논산시 시민로 267",
    "latitude": 36.1898508013104,
    "longitude": 127.094731240251,
    "phone": "041-734-9595",
    "url": "http://place.map.kakao.com/1076878124",
    "category": "음식점 > 패스트푸드 > 샌드위치 > 써브웨이"
  },
  {
    "id": "1094724037",
    "name": "써브웨이 아산지중해마을점",
    "address": "충남 아산시 탕정면 명암리 922-2",
    "road_address": "충남 아산시 탕정면 탕정면로 54-6",
    "latitude": 36.7983343278681,
    "longitude": 127.062875506796,
    "phone": "041-547-3937",
    "url": "http://place.map.kakao.com/1094724037",
    "category": "음식점 > 패스트푸드 > 샌드위치 > 써브웨이"
  },
  {
    "id": "1586474406",
    "name": "써브웨이 천안두정점",
    "address": "충남 천안시 서북구 두정동 941",
    "road_address": "충남 천안시 서북구 두정로 178",
    "latitude": 36.83359779903105,
    "longitude": 127.1366062496951,
    "phone": "041-522-8123",
    "url": "http://place.map.kakao.com/1586474406",
    "category": "음식점 > 패스트푸드 > 샌드위치 > 써브웨이"
  },
  {
    "id": "760184537",
    "name": "써브웨이 천안신방점",
    "address": "충남 천안시 동남구 신방동 1542",
    "road_address": "충남 천안시 동남구 통정5로 63",
    "latitude": 36.7748101912844,
    "longitude": 127.13342929048,
    "phone": "041-418-3883",
    "url": "http://place.map.kakao.com/760184537",
    "category": "음식점 > 패스트푸드 > 샌드위치 > 써브웨이"
  },
  {
    "id": "1291884757",
    "name": "써브웨이 홍성내포점",
    "address": "충남 홍성군 홍북읍 신경리 558",
    "road_address": "충남 홍성군 홍북읍 청사로 158",
    "latitude": 36.6583366926195,
    "longitude": 126.679201586151,
    "phone": "041-635-0786",
    "url": "http://place.map.kakao.com/1291884757",
    "category": "음식점 > 패스트푸드 > 샌드위치 > 써브웨이"
  },
  {
    "id": "948468480",
    "name": "써브웨이 보령DT점",
    "address": "충남 보령시 명천동 1076",
    "road_address": "충남 보령시 한내로 62",
    "latitude": 36.34464782538916,
    "longitude": 126.60930467032165,
    "phone": "041-936-1771",
    "url": "http://place.map.kakao.com/948468480",
    "category": "음식점 > 패스트푸드 > 샌드위치 > 써브웨이"
  },
  {
    "id": "1094342399",
    "name": "써브웨이 아산둔포점",
    "address": "충남 아산시 둔포면 석곡리 1705",
    "road_address": "충남 아산시 둔포면 아산밸리중앙로 80-24",
    "latitude": 36.9199259131403,
    "longitude": 127.057000213975,
    "phone": "041-542-0103",
    "url": "http://place.map.kakao.com/1094342399",
    "category": "음식점 > 패스트푸드 > 샌드위치 > 써브웨이"
  },
  {
    "id": "1302622305",
    "name": "써브웨이 공주신관점",
    "address": "충남 공주시 신관동 17-4",
    "road_address": "충남 공주시 흑수골길 35",
    "latitude": 36.47334143348359,
    "longitude": 127.14125018557505,
    "phone": "041-881-1124",
    "url": "http://place.map.kakao.com/1302622305",
    "category": "음식점 > 패스트푸드 > 샌드위치 > 써브웨이"
  },
  {
    "id": "1425006076",
    "name": "써브웨이 천안백석점",
    "address": "충남 천안시 서북구 두정동 626",
    "road_address": "충남 천안시 서북구 동서대로 47",
    "latitude": 36.8254220946987,
    "longitude": 127.128482076389,
    "phone": "041-566-4297",
    "url": "http://place.map.kakao.com/1425006076",
    "category": "음식점 > 패스트푸드 > 샌드위치 > 써브웨이"
  },
  {
    "id": "375524183",
    "name": "써브웨이 계룡엄사점",
    "address": "충남 계룡시 엄사면 엄사리 73-1",
    "road_address": "충남 계룡시 엄사면 계룡대로 486",
    "latitude": 36.286644467261205,
    "longitude": 127.24654607260874,
    "phone": "042-840-6660",
    "url": "http://place.map.kakao.com/375524183",
    "category": "음식점 > 패스트푸드 > 샌드위치 > 써브웨이"
  },
  {
    "id": "1034473837",
    "name": "써브웨이 천안신불당점",
    "address": "충남 천안시 서북구 불당동 1538",
    "road_address": "충남 천안시 서북구 불당21로 65",
    "latitude": 36.81313579261859,
    "longitude": 127.10724536199768,
    "phone": "041-558-0017",
    "url": "http://place.map.kakao.com/1034473837",
    "category": "음식점 > 패스트푸드 > 샌드위치 > 써브웨이"
  },
  {
    "id": "1019580202",
    "name": "써브웨이 아산배방점",
    "address": "충남 아산시 배방읍 공수리 1663",
    "road_address": "충남 아산시 배방읍 모산로 123",
    "latitude": 36.77462934289829,
    "longitude": 127.05619572642394,
    "phone": "041-532-8220",
    "url": "http://place.map.kakao.com/1019580202",
    "category": "음식점 > 패스트푸드 > 샌드위치 > 써브웨이"
  },
  {
    "id": "13081845",
    "name": "써브웨이 군산나운점",
    "address": "전북특별자치도 군산시 나운동 313-1",
    "road_address": "전북특별자치도 군산시 공단대로 374",
    "latitude": 35.96199165026118,
    "longitude": 126.70101841658906,
    "phone": "063-464-1234",
    "url": "http://place.map.kakao.com/13081845",
    "category": "음식점 > 패스트푸드 > 샌드위치 > 써브웨이"
  },
  {
    "id": "1015119834",
    "name": "써브웨이 전주전북도청점",
    "address": "전북특별자치도 전주시 완산구 효자동3가 1541-7",
    "road_address": "전북특별자치도 전주시 완산구 홍산중앙로 22",
    "latitude": 35.81562931408718,
    "longitude": 127.10937545836215,
    "phone": "063-903-1191",
    "url": "http://place.map.kakao.com/1015119834",
    "category": "음식점 > 패스트푸드 > 샌드위치 > 써브웨이"
  },
  {
    "id": "783303992",
    "name": "써브웨이 익산모현점",
    "address": "전북특별자치도 익산시 모현동1가 876",
    "road_address": "전북특별자치도 익산시 선화로 77",
    "latitude": 35.9498593847664,
    "longitude": 126.939747774422,
    "phone": "063-841-1211",
    "url": "http://place.map.kakao.com/783303992",
    "category": "음식점 > 패스트푸드 > 샌드위치 > 써브웨이"
  },
  {
    "id": "2070637912",
    "name": "써브웨이 전주송천DT점",
    "address": "전북특별자치도 전주시 덕진구 송천동2가 69-47",
    "road_address": "전북특별자치도 전주시 덕진구 동부대로 1004",
    "latitude": 35.869686923265036,
    "longitude": 127.13725889235685,
    "phone": "063-255-1121",
    "url": "http://place.map.kakao.com/2070637912",
    "category": "음식점 > 패스트푸드 > 샌드위치 > 써브웨이"
  },
  {
    "id": "267468960",
    "name": "써브웨이 전북전주혁신점",
    "address": "전북특별자치도 전주시 덕진구 중동 774-7",
    "road_address": "전북특별자치도 전주시 덕진구 안전로 148",
    "latitude": 35.8372650845182,
    "longitude": 127.059002594069,
    "phone": "063-222-5700",
    "url": "http://place.map.kakao.com/267468960",
    "category": "음식점 > 패스트푸드 > 샌드위치 > 써브웨이"
  },
  {
    "id": "883826734",
    "name": "써브웨이 전주아중점",
    "address": "전북특별자치도 전주시 덕진구 인후동1가 835-3",
    "road_address": "전북특별자치도 전주시 덕진구 건산로 226",
    "latitude": 35.8338510190258,
    "longitude": 127.162024340495,
    "phone": "063-901-2670",
    "url": "http://place.map.kakao.com/883826734",
    "category": "음식점 > 패스트푸드 > 샌드위치 > 써브웨이"
  },
  {
    "id": "2027686572",
    "name": "써브웨이 전주객사",
    "address": "전북특별자치도 전주시 완산구 고사동 72-3",
    "road_address": "전북특별자치도 전주시 완산구 팔달로 191-3",
    "latitude": 35.81914915345714,
    "longitude": 127.14627561132765,
    "phone": "063-288-1154",
    "url": "http://place.map.kakao.com/2027686572",
    "category": "음식점 > 패스트푸드 > 샌드위치 > 써브웨이"
  },
  {
    "id": "109233382",
    "name": "써브웨이 정읍상동점",
    "address": "전북특별자치도 정읍시 상동 223-2",
    "road_address": "전북특별자치도 정읍시 신경2길 22-9",
    "latitude": 35.5587381366543,
    "longitude": 126.869609890676,
    "phone": "063-531-1211",
    "url": "http://place.map.kakao.com/109233382",
    "category": "음식점 > 패스트푸드 > 샌드위치 > 써브웨이"
  },
  {
    "id": "1827443017",
    "name": "써브웨이 전주전북대점",
    "address": "전북특별자치도 전주시 덕진구 덕진동1가 1263-3",
    "road_address": "전북특별자치도 전주시 덕진구 명륜4길 12",
    "latitude": 35.8429518792998,
    "longitude": 127.126802397986,
    "phone": "063-255-1154",
    "url": "http://place.map.kakao.com/1827443017",
    "category": "음식점 > 패스트푸드 > 샌드위치 > 써브웨이"
  },
  {
    "id": "1285464924",
    "name": "써브웨이 익산영등점",
    "address": "전북특별자치도 익산시 영등동 770-9",
    "road_address": "전북특별자치도 익산시 무왕로 1074",
    "latitude": 35.9582140234809,
    "longitude": 126.976158178917,
    "phone": "063-833-3522",
    "url": "http://place.map.kakao.com/1285464924",
    "category": "음식점 > 패스트푸드 > 샌드위치 > 써브웨이"
  },
  {
    "id": "1237275939",
    "name": "써브웨이 익산원광대점",
    "address": "전북특별자치도 익산시 신동 789-6",
    "road_address": "전북특별자치도 익산시 동서로19길 99",
    "latitude": 35.9628234787887,
    "longitude": 126.958255543554,
    "phone": "063-842-1211",
    "url": "http://place.map.kakao.com/1237275939",
    "category": "음식점 > 패스트푸드 > 샌드위치 > 써브웨이"
  },
  {
    "id": "1222145629",
    "name": "써브웨이 김제점",
    "address": "전북특별자치도 김제시 요촌동 52-1",
    "road_address": "전북특별자치도 김제시 동서로 256",
    "latitude": 35.8035987644313,
    "longitude": 126.895114036355,
    "phone": "063-920-4700",
    "url": "http://place.map.kakao.com/1222145629",
    "category": "음식점 > 패스트푸드 > 샌드위치 > 써브웨이"
  },
  {
    "id": "629024175",
    "name": "써브웨이 남원도통점",
    "address": "전북특별자치도 남원시 도통동 585-2",
    "road_address": "전북특별자치도 남원시 용성로 222",
    "latitude": 35.41733563373166,
    "longitude": 127.39664733815572,
    "phone": "063-636-8494",
    "url": "http://place.map.kakao.com/629024175",
    "category": "음식점 > 패스트푸드 > 샌드위치 > 써브웨이"
  },
  {
    "id": "1069937501",
    "name": "써브웨이 전주송천점",
    "address": "전북특별자치도 전주시 덕진구 송천동2가 202-59",
    "road_address": "전북특별자치도 전주시 덕진구 천마산로 65",
    "latitude": 35.8649211265037,
    "longitude": 127.128261253339,
    "phone": "063-903-3522",
    "url": "http://place.map.kakao.com/1069937501",
    "category": "음식점 > 패스트푸드 > 샌드위치 > 써브웨이"
  },
  {
    "id": "691087949",
    "name": "써브웨이 군산대점",
    "address": "전북특별자치도 군산시 미룡동 879-1",
    "road_address": "전북특별자치도 군산시 황룡로 10",
    "latitude": 35.94519473490526,
    "longitude": 126.68638811677658,
    "phone": "063-471-1911",
    "url": "http://place.map.kakao.com/691087949",
    "category": "음식점 > 패스트푸드 > 샌드위치 > 써브웨이"
  },
  {
    "id": "1266551687",
    "name": "써브웨이 전주평화점",
    "address": "전북특별자치도 전주시 완산구 평화동1가 731-12",
    "road_address": "전북특별자치도 전주시 완산구 모악로 4762",
    "latitude": 35.7943828656429,
    "longitude": 127.132734220251,
    "phone": "063-902-1154",
    "url": "http://place.map.kakao.com/1266551687",
    "category": "음식점 > 패스트푸드 > 샌드위치 > 써브웨이"
  },
  {
    "id": "894545193",
    "name": "써브웨이 전주삼천점",
    "address": "전북특별자치도 전주시 완산구 삼천동1가 284-3",
    "road_address": "전북특별자치도 전주시 완산구 용리로 8",
    "latitude": 35.7985077709683,
    "longitude": 127.11064855322,
    "phone": "063-902-3700",
    "url": "http://place.map.kakao.com/894545193",
    "category": "음식점 > 패스트푸드 > 샌드위치 > 써브웨이"
  },
  {
    "id": "1210950684",
    "name": "써브웨이 군산롯데몰점",
    "address": "전북특별자치도 군산시 조촌동 450-21",
    "road_address": "전북특별자치도 군산시 조촌로 130",
    "latitude": 35.97603720152904,
    "longitude": 126.73844080168207,
    "phone": "063-447-0199",
    "url": "http://place.map.kakao.com/1210950684",
    "category": "음식점 > 패스트푸드 > 샌드위치 > 써브웨이"
  },
  {
    "id": "1715490502",
    "name": "써브웨이 전주송천DT점 주차장",
    "address": "전북특별자치도 전주시 덕진구 송천동2가 69-47",
    "road_address": "전북특별자치도 전주시 덕진구 동부대로 1004",
    "latitude": 35.8696948712411,
    "longitude": 127.137401744442,
    "phone": "",
    "url": "http://place.map.kakao.com/1715490502",
    "category": "교통,수송 > 교통시설 > 주차장"
  },
  {
    "id": "1356193663",
    "name": "써브웨이 목포상동점",
    "address": "전남 목포시 상동 880-1",
    "road_address": "전남 목포시 백년대로 342",
    "latitude": 34.8054270100616,
    "longitude": 126.424787533141,
    "phone": "061-980-1191",
    "url": "http://place.map.kakao.com/1356193663",
    "category": "음식점 > 패스트푸드 > 샌드위치 > 써브웨이"
  },
  {
    "id": "1541725214",
    "name": "써브웨이 순천조례점",
    "address": "전남 순천시 조례동 1721-4",
    "road_address": "전남 순천시 봉화2길 1",
    "latitude": 34.9541585495925,
    "longitude": 127.518503038075,
    "phone": "061-902-6004",
    "url": "http://place.map.kakao.com/1541725214",
    "category": "음식점 > 패스트푸드 > 샌드위치 > 써브웨이"
  },
  {
    "id": "2137969496",
    "name": "써브웨이 여수학동점",
    "address": "전남 여수시 학동 83-21",
    "road_address": "전남 여수시 망마로 25",
    "latitude": 34.760239397341074,
    "longitude": 127.66602497410327,
    "phone": "061-920-4511",
    "url": "http://place.map.kakao.com/2137969496",
    "category": "음식점 > 패스트푸드 > 샌드위치 > 써브웨이"
  },
  {
    "id": "997996644",
    "name": "써브웨이 여수여서점",
    "address": "전남 여수시 여서동 225",
    "road_address": "전남 여수시 여서동1길 38",
    "latitude": 34.7534680185174,
    "longitude": 127.706038996565,
    "phone": "061-651-1121",
    "url": "http://place.map.kakao.com/997996644",
    "category": "음식점 > 패스트푸드 > 샌드위치 > 써브웨이"
  },
  {
    "id": "2021901066",
    "name": "써브웨이 순천대점",
    "address": "전남 순천시 석현동 131-1",
    "road_address": "전남 순천시 중앙로 278",
    "latitude": 34.9704806627811,
    "longitude": 127.483775325761,
    "phone": "061-902-0101",
    "url": "http://place.map.kakao.com/2021901066",
    "category": "음식점 > 패스트푸드 > 샌드위치 > 써브웨이"
  },
  {
    "id": "169644620",
    "name": "써브웨이 전남해남점",
    "address": "전남 해남군 해남읍 해리 596",
    "road_address": "전남 해남군 해남읍 중앙1로 92",
    "latitude": 34.5714061497184,
    "longitude": 126.602249817052,
    "phone": "061-535-8188",
    "url": "http://place.map.kakao.com/169644620",
    "category": "음식점 > 패스트푸드 > 샌드위치 > 써브웨이"
  },
  {
    "id": "1094116480",
    "name": "써브웨이 목포북항점",
    "address": "전남 목포시 산정동 1758-2",
    "road_address": "전남 목포시 청호로 180",
    "latitude": 34.80680274338303,
    "longitude": 126.37300318070642,
    "phone": "061-272-5733",
    "url": "http://place.map.kakao.com/1094116480",
    "category": "음식점 > 패스트푸드 > 샌드위치 > 써브웨이"
  },
  {
    "id": "2057787795",
    "name": "써브웨이 나주혁신점",
    "address": "전남 나주시 빛가람동 192-1",
    "road_address": "전남 나주시 빛가람로 677",
    "latitude": 35.021418288916,
    "longitude": 126.78587500197932,
    "phone": "061-335-1110",
    "url": "http://place.map.kakao.com/2057787795",
    "category": "음식점 > 패스트푸드 > 샌드위치 > 써브웨이"
  },
  {
    "id": "573045130",
    "name": "써브웨이 순천신대점",
    "address": "전남 순천시 해룡면 신대리 1978-5",
    "road_address": "전남 순천시 해룡면 향매로 79",
    "latitude": 34.9340375952073,
    "longitude": 127.548156582222,
    "phone": "061-726-0905",
    "url": "http://place.map.kakao.com/573045130",
    "category": "음식점 > 패스트푸드 > 샌드위치 > 써브웨이"
  },
  {
    "id": "807529792",
    "name": "써브웨이 광양LF스퀘어점",
    "address": "전남 광양시 광양읍 덕례리 1834",
    "road_address": "전남 광양시 광양읍 순광로 466",
    "latitude": 34.96318567370478,
    "longitude": 127.56598329157409,
    "phone": "061-815-4940",
    "url": "http://place.map.kakao.com/807529792",
    "category": "음식점 > 패스트푸드 > 샌드위치 > 써브웨이"
  },
  {
    "id": "704176789",
    "name": "써브웨이 화순광덕점",
    "address": "전남 화순군 화순읍 만연리 221",
    "road_address": "전남 화순군 화순읍 중앙로 94",
    "latitude": 35.0603030269822,
    "longitude": 126.991674079636,
    "phone": "061-972-4333",
    "url": "http://place.map.kakao.com/704176789",
    "category": "음식점 > 패스트푸드 > 샌드위치 > 써브웨이"
  },
  {
    "id": "588828437",
    "name": "써브웨이 목포남악점",
    "address": "전남 무안군 삼향읍 남악리 2103",
    "road_address": "전남 무안군 삼향읍 남악3로 79",
    "latitude": 34.812514566738855,
    "longitude": 126.45997096882174,
    "phone": "061-980-3310",
    "url": "http://place.map.kakao.com/588828437",
    "category": "음식점 > 패스트푸드 > 샌드위치 > 써브웨이"
  },
  {
    "id": "1905468193",
    "name": "써브웨이 포항남부DT점",
    "address": "경북 포항시 북구 죽도동 647-5",
    "road_address": "경북 포항시 북구 새천년대로 526",
    "latitude": 36.0213809779018,
    "longitude": 129.3506340756673,
    "phone": "054-278-0989",
    "url": "http://place.map.kakao.com/1905468193",
    "category": "음식점 > 패스트푸드 > 샌드위치 > 써브웨이"
  },
  {
    "id": "644029689",
    "name": "써브웨이 경산영남대점",
    "address": "경북 경산시 대동 166-6",
    "road_address": "경북 경산시 대학로 281-1",
    "latitude": 35.836581317431424,
    "longitude": 128.75299742198834,
    "phone": "053-818-7771",
    "url": "http://place.map.kakao.com/644029689",
    "category": "음식점 > 패스트푸드 > 샌드위치 > 써브웨이"
  },
  {
    "id": "1819020093",
    "name": "써브웨이 포항두호점",
    "address": "경북 포항시 북구 두호동 1052-1",
    "road_address": "경북 포항시 북구 두호로 33",
    "latitude": 36.0599942324031,
    "longitude": 129.374741141025,
    "phone": "054-253-5007",
    "url": "http://place.map.kakao.com/1819020093",
    "category": "음식점 > 패스트푸드 > 샌드위치 > 써브웨이"
  },
  {
    "id": "251906495",
    "name": "써브웨이 구미시청",
    "address": "경북 구미시 송정동 28-6",
    "road_address": "경북 구미시 송정대로 23",
    "latitude": 36.11749897195855,
    "longitude": 128.3412056205507,
    "phone": "054-444-7999",
    "url": "http://place.map.kakao.com/251906495",
    "category": "음식점 > 패스트푸드 > 샌드위치 > 써브웨이"
  },
  {
    "id": "1605406754",
    "name": "써브웨이 영주가흥점",
    "address": "경북 영주시 가흥동 1639",
    "road_address": "경북 영주시 대학로 252",
    "latitude": 36.8180321218703,
    "longitude": 128.604986766795,
    "phone": "054-632-1037",
    "url": "http://place.map.kakao.com/1605406754",
    "category": "음식점 > 패스트푸드 > 샌드위치 > 써브웨이"
  },
  {
    "id": "1236872505",
    "name": "써브웨이 안동옥동점",
    "address": "경북 안동시 옥동 765-5",
    "road_address": "경북 안동시 경북대로 395",
    "latitude": 36.5643618318523,
    "longitude": 128.700669441719,
    "phone": "070-4126-0007",
    "url": "http://place.map.kakao.com/1236872505",
    "category": "음식점 > 패스트푸드 > 샌드위치 > 써브웨이"
  },
  {
    "id": "66882333",
    "name": "써브웨이 김천신음점",
    "address": "경북 김천시 신음동 997-1",
    "road_address": "경북 김천시 시청로 57-1",
    "latitude": 36.1334757152711,
    "longitude": 128.117472014579,
    "phone": "054-435-3343",
    "url": "http://place.map.kakao.com/66882333",
    "category": "음식점 > 패스트푸드 > 샌드위치 > 써브웨이"
  },
  {
    "id": "1599794929",
    "name": "써브웨이 상주중앙점",
    "address": "경북 상주시 남성동 13-18",
    "road_address": "경북 상주시 중앙로 186-1",
    "latitude": 36.41550387734799,
    "longitude": 128.15868889580673,
    "phone": "054-535-6844",
    "url": "http://place.map.kakao.com/1599794929",
    "category": "음식점 > 패스트푸드 > 샌드위치 > 써브웨이"
  },
  {
    "id": "614266081",
    "name": "써브웨이 구미산동점",
    "address": "경북 구미시 산동읍 신당리 1400",
    "road_address": "경북 구미시 산동읍 신당1로 58",
    "latitude": 36.15424678213144,
    "longitude": 128.42851301052087,
    "phone": "054-471-8300",
    "url": "http://place.map.kakao.com/614266081",
    "category": "음식점 > 패스트푸드 > 샌드위치 > 써브웨이"
  },
  {
    "id": "753957363",
    "name": "써브웨이 경주중앙점",
    "address": "경북 경주시 동부동 145-1",
    "road_address": "경북 경주시 중앙로 53",
    "latitude": 35.8447759925283,
    "longitude": 129.211469688686,
    "phone": "054-743-0594",
    "url": "http://place.map.kakao.com/753957363",
    "category": "음식점 > 패스트푸드 > 샌드위치 > 써브웨이"
  },
  {
    "id": "1094116685",
    "name": "써브웨이 안동중앙점",
    "address": "경북 안동시 삼산동 53-1",
    "road_address": "경북 안동시 태사길 14-10",
    "latitude": 36.5662607654438,
    "longitude": 128.731613674972,
    "phone": "054-900-7733",
    "url": "http://place.map.kakao.com/1094116685",
    "category": "음식점 > 패스트푸드 > 샌드위치 > 써브웨이"
  },
  {
    "id": "1286831122",
    "name": "써브웨이 경산사동점",
    "address": "경북 경산시 사동 28",
    "road_address": "경북 경산시 백자로 71",
    "latitude": 35.8123875457299,
    "longitude": 128.754872686049,
    "phone": "053-268-1515",
    "url": "http://place.map.kakao.com/1286831122",
    "category": "음식점 > 패스트푸드 > 샌드위치 > 써브웨이"
  },
  {
    "id": "1450607529",
    "name": "써브웨이 영천점",
    "address": "경북 영천시 망정동 167",
    "road_address": "경북 영천시 동부로 52",
    "latitude": 35.9748119575362,
    "longitude": 128.948329440633,
    "phone": "054-338-7439",
    "url": "http://place.map.kakao.com/1450607529",
    "category": "음식점 > 패스트푸드 > 샌드위치 > 써브웨이"
  },
  {
    "id": "837801265",
    "name": "써브웨이 경북울진점",
    "address": "경북 울진군 울진읍 읍내리 543",
    "road_address": "경북 울진군 울진읍 연호로 24",
    "latitude": 36.99355290458541,
    "longitude": 129.40366188768357,
    "phone": "054-782-6002",
    "url": "http://place.map.kakao.com/837801265",
    "category": "음식점 > 패스트푸드 > 샌드위치 > 써브웨이"
  },
  {
    "id": "203899018",
    "name": "써브웨이 구미진평점",
    "address": "경북 구미시 진평동 85-4",
    "road_address": "경북 구미시 인동36길 18",
    "latitude": 36.0930880251378,
    "longitude": 128.431837486111,
    "phone": "054-474-1205",
    "url": "http://place.map.kakao.com/203899018",
    "category": "음식점 > 패스트푸드 > 샌드위치 > 써브웨이"
  },
  {
    "id": "1694136137",
    "name": "써브웨이 김천혁신점",
    "address": "경북 김천시 율곡동 777",
    "road_address": "경북 김천시 혁신3로 16",
    "latitude": 36.11758804175,
    "longitude": 128.181992596645,
    "phone": "054-437-1687",
    "url": "http://place.map.kakao.com/1694136137",
    "category": "음식점 > 패스트푸드 > 샌드위치 > 써브웨이"
  },
  {
    "id": "1956256529",
    "name": "써브웨이 경산하양점",
    "address": "경북 경산시 하양읍 금락리 116-268",
    "road_address": "경북 경산시 하양읍 하양로 34",
    "latitude": 35.908728952460656,
    "longitude": 128.81345062131516,
    "phone": "053-857-5761",
    "url": "http://place.map.kakao.com/1956256529",
    "category": "음식점 > 패스트푸드 > 샌드위치 > 써브웨이"
  },
  {
    "id": "694917997",
    "name": "써브웨이 칠곡왜관",
    "address": "경북 칠곡군 왜관읍 왜관리 230-9",
    "road_address": "경북 칠곡군 왜관읍 중앙로 198",
    "latitude": 35.99248403933938,
    "longitude": 128.3992164603025,
    "phone": "070-8835-7990",
    "url": "http://place.map.kakao.com/694917997",
    "category": "음식점 > 패스트푸드 > 샌드위치 > 써브웨이"
  },
  {
    "id": "1716979177",
    "name": "써브웨이 경북도청점",
    "address": "경북 예천군 호명읍 산합리 1420",
    "road_address": "경북 예천군 호명읍 새움3로 46",
    "latitude": 36.5763996981856,
    "longitude": 128.491411249978,
    "phone": "070-7818-0267",
    "url": "http://place.map.kakao.com/1716979177",
    "category": "음식점 > 패스트푸드 > 샌드위치 > 써브웨이"
  },
  {
    "id": "1980103403",
    "name": "써브웨이 구미사곡점",
    "address": "경북 구미시 사곡동 674-13",
    "road_address": "경북 구미시 상사서로 169",
    "latitude": 36.0974617768514,
    "longitude": 128.356759879192,
    "phone": "054-715-6666",
    "url": "http://place.map.kakao.com/1980103403",
    "category": "음식점 > 패스트푸드 > 샌드위치 > 써브웨이"
  },
  {
    "id": "381629288",
    "name": "써브웨이 구미문성점",
    "address": "경북 구미시 고아읍 문성리 631-1",
    "road_address": "경북 구미시 고아읍 들성로 185-3",
    "latitude": 36.15990558800733,
    "longitude": 128.34088309943328,
    "phone": "054-456-9992",
    "url": "http://place.map.kakao.com/381629288",
    "category": "음식점 > 패스트푸드 > 샌드위치 > 써브웨이"
  },
  {
    "id": "1309218043",
    "name": "써브웨이 구미LGD",
    "address": "경북 구미시 시미동 163",
    "road_address": "경북 구미시 3공단2로 174",
    "latitude": 36.095915063572654,
    "longitude": 128.40771678783142,
    "phone": "054-716-0209",
    "url": "http://place.map.kakao.com/1309218043",
    "category": "음식점 > 패스트푸드 > 샌드위치 > 써브웨이"
  },
  {
    "id": "1775722810",
    "name": "써브웨이 경산대구대점",
    "address": "경북 경산시 진량읍 내리리 15",
    "road_address": "경북 경산시 진량읍 대구대로 201",
    "latitude": 35.8997204318257,
    "longitude": 128.84843965923,
    "phone": "053-856-7073",
    "url": "http://place.map.kakao.com/1775722810",
    "category": "음식점 > 패스트푸드 > 샌드위치 > 써브웨이"
  },
  {
    "id": "1053865178",
    "name": "써브웨이 포항중앙점",
    "address": "경북 포항시 북구 상원동 462-5",
    "road_address": "경북 포항시 북구 중앙로 273",
    "latitude": 36.0374305647376,
    "longitude": 129.365049897436,
    "phone": "",
    "url": "http://place.map.kakao.com/1053865178",
    "category": "음식점 > 패스트푸드 > 샌드위치 > 써브웨이"
  },
  {
    "id": "2100615038",
    "name": "써브웨이 진해석동점",
    "address": "경남 창원시 진해구 석동 139-1",
    "road_address": "경남 창원시 진해구 냉천로 62",
    "latitude": 35.151877602146584,
    "longitude": 128.70419694662525,
    "phone": "055-552-2861",
    "url": "http://place.map.kakao.com/2100615038",
    "category": "음식점 > 패스트푸드 > 샌드위치 > 써브웨이"
  },
  {
    "id": "516200705",
    "name": "써브웨이 창원용지호수점",
    "address": "경남 창원시 성산구 용호동 73-29",
    "road_address": "경남 창원시 성산구 용지로169번길 3",
    "latitude": 35.229968499819606,
    "longitude": 128.6817661169258,
    "phone": "055-281-5353",
    "url": "http://place.map.kakao.com/516200705",
    "category": "음식점 > 패스트푸드 > 샌드위치 > 써브웨이"
  },
  {
    "id": "377523177",
    "name": "써브웨이 창원리베라점",
    "address": "경남 창원시 성산구 상남동 78-4",
    "road_address": "경남 창원시 성산구 중앙대로100번길 9",
    "latitude": 35.223434098297155,
    "longitude": 128.6803600117627,
    "phone": "055-262-6985",
    "url": "http://place.map.kakao.com/377523177",
    "category": "음식점 > 패스트푸드 > 샌드위치 > 써브웨이"
  },
  {
    "id": "1979152047",
    "name": "써브웨이 마산합성점",
    "address": "경남 창원시 마산회원구 합성동 126-18",
    "road_address": "경남 창원시 마산회원구 합성옛길 137",
    "latitude": 35.23783869012481,
    "longitude": 128.58324533841952,
    "phone": "055-253-0202",
    "url": "http://place.map.kakao.com/1979152047",
    "category": "음식점 > 패스트푸드 > 샌드위치 > 써브웨이"
  },
  {
    "id": "26944666",
    "name": "써브웨이 진주경상대점",
    "address": "경남 진주시 가좌동 478-1",
    "road_address": "경남 진주시 진주대로 548",
    "latitude": 35.155442200979,
    "longitude": 128.107537112998,
    "phone": "055-755-3477",
    "url": "http://place.map.kakao.com/26944666",
    "category": "음식점 > 패스트푸드 > 샌드위치 > 써브웨이"
  },
  {
    "id": "1471111108",
    "name": "써브웨이 김해내동점",
    "address": "경남 김해시 내동 1143-2",
    "road_address": "경남 김해시 내외중앙로 74",
    "latitude": 35.23652617463066,
    "longitude": 128.8672717199948,
    "phone": "055-337-7735",
    "url": "http://place.map.kakao.com/1471111108",
    "category": "음식점 > 패스트푸드 > 샌드위치 > 써브웨이"
  },
  {
    "id": "499145311",
    "name": "써브웨이 거제고현점",
    "address": "경남 거제시 고현동 35-8",
    "road_address": "경남 거제시 거제중앙로 1894",
    "latitude": 34.88733103846872,
    "longitude": 128.62383108110524,
    "phone": "055-634-0979",
    "url": "http://place.map.kakao.com/499145311",
    "category": "음식점 > 패스트푸드 > 샌드위치 > 써브웨이"
  },
  {
    "id": "1302012213",
    "name": "써브웨이 경남밀양점",
    "address": "경남 밀양시 삼문동 550-23",
    "road_address": "경남 밀양시 밀양대로 1770",
    "latitude": 35.48354991559041,
    "longitude": 128.75257240904972,
    "phone": "055-355-1005",
    "url": "http://place.map.kakao.com/1302012213",
    "category": "음식점 > 패스트푸드 > 샌드위치 > 써브웨이"
  },
  {
    "id": "27578027",
    "name": "써브웨이 경남거창점",
    "address": "경남 거창군 거창읍 중앙리 282-33",
    "road_address": "경남 거창군 거창읍 중앙로 120",
    "latitude": 35.68648902980422,
    "longitude": 127.91153229934196,
    "phone": "055-945-0020",
    "url": "http://place.map.kakao.com/27578027",
    "category": "음식점 > 패스트푸드 > 샌드위치 > 써브웨이"
  },
  {
    "id": "1508631200",
    "name": "써브웨이 마산경남대점",
    "address": "경남 창원시 마산합포구 해운동 13-21",
    "road_address": "경남 창원시 마산합포구 3.15대로 1",
    "latitude": 35.18011209723128,
    "longitude": 128.55807088288108,
    "phone": "055-246-3555",
    "url": "http://place.map.kakao.com/1508631200",
    "category": "음식점 > 패스트푸드 > 샌드위치 > 써브웨이"
  },
  {
    "id": "24124101",
    "name": "써브웨이 경남남양산점",
    "address": "경남 양산시 물금읍 범어리 2711-3",
    "road_address": "경남 양산시 물금읍 범어로 60",
    "latitude": 35.329034370242496,
    "longitude": 129.0140443350626,
    "phone": "055-367-7888",
    "url": "http://place.map.kakao.com/24124101",
    "category": "음식점 > 패스트푸드 > 샌드위치 > 써브웨이"
  },
  {
    "id": "1216766110",
    "name": "써브웨이 김해장유점",
    "address": "경남 김해시 부곡동 1161-2",
    "road_address": "경남 김해시 능동로149번길 8",
    "latitude": 35.20278893853493,
    "longitude": 128.80737279637853,
    "phone": "055-338-1263",
    "url": "http://place.map.kakao.com/1216766110",
    "category": "음식점 > 패스트푸드 > 샌드위치 > 써브웨이"
  },
  {
    "id": "967975100",
    "name": "써브웨이 경남사천점",
    "address": "경남 사천시 정동면 고읍리 438-21",
    "road_address": "경남 사천시 정동면 옥산로 35",
    "latitude": 35.0800027017273,
    "longitude": 128.086915593763,
    "phone": "055-854-1631",
    "url": "http://place.map.kakao.com/967975100",
    "category": "음식점 > 패스트푸드 > 샌드위치 > 써브웨이"
  },
  {
    "id": "71937117",
    "name": "써브웨이 김해율하점",
    "address": "경남 김해시 율하동 1350-1",
    "road_address": "경남 김해시 율하3로 42",
    "latitude": 35.17172043364174,
    "longitude": 128.8144510005407,
    "phone": "0507-2085-3467",
    "url": "http://place.map.kakao.com/71937117",
    "category": "음식점 > 패스트푸드 > 샌드위치 > 써브웨이"
  },
  {
    "id": "745816762",
    "name": "써브웨이 창원대방점",
    "address": "경남 창원시 성산구 대방동 362-9",
    "road_address": "경남 창원시 성산구 가양로124번길 5-5",
    "latitude": 35.20902676457214,
    "longitude": 128.7072023951032,
    "phone": "055-274-7375",
    "url": "http://place.map.kakao.com/745816762",
    "category": "음식점 > 패스트푸드 > 샌드위치 > 써브웨이"
  },
  {
    "id": "808607735",
    "name": "써브웨이 양산증산점",
    "address": "경남 양산시 물금읍 가촌리 1299-3",
    "road_address": "경남 양산시 물금읍 야리1길 17",
    "latitude": 35.31053846052362,
    "longitude": 129.00760277145514,
    "phone": "055-781-2236",
    "url": "http://place.map.kakao.com/808607735",
    "category": "음식점 > 패스트푸드 > 샌드위치 > 써브웨이"
  },
  {
    "id": "1987567312",
    "name": "써브웨이 김해삼계점",
    "address": "경남 김해시 삼계동 1460-3",
    "road_address": "경남 김해시 가야로 163",
    "latitude": 35.26306555521278,
    "longitude": 128.8718998411819,
    "phone": "055-339-4406",
    "url": "http://place.map.kakao.com/1987567312",
    "category": "음식점 > 패스트푸드 > 샌드위치 > 써브웨이"
  },
  {
    "id": "26944703",
    "name": "써브웨이 경남양산점",
    "address": "경남 양산시 중부동 692-7",
    "road_address": "경남 양산시 양산역2길 3",
    "latitude": 35.33557500228045,
    "longitude": 129.02763416414547,
    "phone": "055-381-1100",
    "url": "http://place.map.kakao.com/26944703",
    "category": "음식점 > 패스트푸드 > 샌드위치 > 써브웨이"
  },
  {
    "id": "54076305",
    "name": "써브웨이 창원중앙역점",
    "address": "경남 창원시 의창구 사림동 165-14",
    "road_address": "경남 창원시 의창구 용동로 85",
    "latitude": 35.2384436082335,
    "longitude": 128.700654587362,
    "phone": "055-609-8787",
    "url": "http://place.map.kakao.com/54076305",
    "category": "음식점 > 패스트푸드 > 샌드위치 > 써브웨이"
  },
  {
    "id": "405815481",
    "name": "써브웨이 진주혁신점",
    "address": "경남 진주시 충무공동 284-1",
    "road_address": "경남 진주시 충의로 20-4",
    "latitude": 35.17619404272629,
    "longitude": 128.14720686367295,
    "phone": "055-758-0250",
    "url": "http://place.map.kakao.com/405815481",
    "category": "음식점 > 패스트푸드 > 샌드위치 > 써브웨이"
  },
  {
    "id": "1576398946",
    "name": "써브웨이 김해진영점",
    "address": "경남 김해시 진영읍 진영리 1612-4",
    "road_address": "경남 김해시 진영읍 김해대로361번길 16",
    "latitude": 35.30808646640207,
    "longitude": 128.72978493188896,
    "phone": "055-342-8781",
    "url": "http://place.map.kakao.com/1576398946",
    "category": "음식점 > 패스트푸드 > 샌드위치 > 써브웨이"
  },
  {
    "id": "1364964932",
    "name": "써브웨이 진해용원신항점",
    "address": "경남 창원시 진해구 용원동 1211-6",
    "road_address": "경남 창원시 진해구 용원로7번길 7",
    "latitude": 35.1010434777309,
    "longitude": 128.810145952966,
    "phone": "055-551-1316",
    "url": "http://place.map.kakao.com/1364964932",
    "category": "음식점 > 패스트푸드 > 샌드위치 > 써브웨이"
  },
  {
    "id": "279933387",
    "name": "써브웨이 진주초전점",
    "address": "경남 진주시 초전동 1711-1",
    "road_address": "경남 진주시 초전북로51번길 34",
    "latitude": 35.211395392010154,
    "longitude": 128.11180419017492,
    "phone": "055-761-1951",
    "url": "http://place.map.kakao.com/279933387",
    "category": "음식점 > 패스트푸드 > 샌드위치 > 써브웨이"
  },
  {
    "id": "1844637508",
    "name": "써브웨이 김해인제대점",
    "address": "경남 김해시 어방동 528-2",
    "road_address": "경남 김해시 인제로 184",
    "latitude": 35.245007969872454,
    "longitude": 128.90410175106675,
    "phone": "010-9878-5226",
    "url": "http://place.map.kakao.com/1844637508",
    "category": "음식점 > 패스트푸드 > 샌드위치 > 써브웨이"
  },
  {
    "id": "25409675",
    "name": "써브웨이 거제아주점",
    "address": "경남 거제시 아주동 1683-2",
    "road_address": "경남 거제시 아주1로2길 62",
    "latitude": 34.867365110482076,
    "longitude": 128.6856520601749,
    "phone": "055-681-5952",
    "url": "http://place.map.kakao.com/25409675",
    "category": "음식점 > 패스트푸드 > 샌드위치 > 써브웨이"
  },
  {
    "id": "1878548666",
    "name": "써브웨이 마산산호점",
    "address": "경남 창원시 마산합포구 산호동 6-16",
    "road_address": "경남 창원시 마산합포구 삼호로 49",
    "latitude": 35.2218954893894,
    "longitude": 128.585065093649,
    "phone": "055-224-2225",
    "url": "http://place.map.kakao.com/1878548666",
    "category": "음식점 > 패스트푸드 > 샌드위치 > 써브웨이"
  },
  {
    "id": "1943309939",
    "name": "써브웨이 진주경상대 칠암캠퍼스점",
    "address": "경남 진주시 칠암동 490-11",
    "road_address": "경남 진주시 동진로 30",
    "latitude": 35.1787107919557,
    "longitude": 128.094384314582,
    "phone": "055-759-4999",
    "url": "http://place.map.kakao.com/1943309939",
    "category": "음식점 > 패스트푸드 > 샌드위치 > 써브웨이"
  },
  {
    "id": "1483208932",
    "name": "써브웨이 진주중안점",
    "address": "경남 진주시 중안동 12-12",
    "road_address": "경남 진주시 진양호로 525",
    "latitude": 35.19279440986917,
    "longitude": 128.0828860728471,
    "phone": "055-748-9994",
    "url": "http://place.map.kakao.com/1483208932",
    "category": "음식점 > 패스트푸드 > 샌드위치 > 써브웨이"
  },
  {
    "id": "275523095",
    "name": "써브웨이 창원유니시티점",
    "address": "경남 창원시 의창구 중동 784-1",
    "road_address": "경남 창원시 의창구 중동중앙로 47",
    "latitude": 35.25595421201314,
    "longitude": 128.624383209248,
    "phone": "055-255-2439",
    "url": "http://place.map.kakao.com/275523095",
    "category": "음식점 > 패스트푸드 > 샌드위치 > 써브웨이"
  },
  {
    "id": "1645538925",
    "name": "써브웨이 창원감계점",
    "address": "경남 창원시 의창구 북면 감계리 234-5",
    "road_address": "경남 창원시 의창구 북면 감계로 312",
    "latitude": 35.3020019998643,
    "longitude": 128.595076810092,
    "phone": "055-251-1235",
    "url": "http://place.map.kakao.com/1645538925",
    "category": "음식점 > 패스트푸드 > 샌드위치 > 써브웨이"
  },
  {
    "id": "1628067897",
    "name": "써브웨이 경남양산덕계메가마트점",
    "address": "경남 양산시 덕계동 737-21",
    "road_address": "경남 양산시 덕계로 62",
    "latitude": 35.37344793801039,
    "longitude": 129.15075776233692,
    "phone": "070-8615-8889",
    "url": "http://place.map.kakao.com/1628067897",
    "category": "음식점 > 패스트푸드 > 샌드위치 > 써브웨이"
  },
  {
    "id": "571711773",
    "name": "써브웨이 통영무전점",
    "address": "경남 통영시 북신동 698-1",
    "road_address": "경남 통영시 원문로 27",
    "latitude": 34.8572559910189,
    "longitude": 128.425559358826,
    "phone": "055-648-0772",
    "url": "http://place.map.kakao.com/571711773",
    "category": "음식점 > 패스트푸드 > 샌드위치 > 써브웨이"
  },
  {
    "id": "433110395",
    "name": "써브웨이 진주평거탑마트점",
    "address": "경남 진주시 평거동 921",
    "road_address": "경남 진주시 새평거로 136",
    "latitude": 35.17037257098368,
    "longitude": 128.06190187733543,
    "phone": "055-748-0185",
    "url": "http://place.map.kakao.com/433110395",
    "category": "음식점 > 패스트푸드 > 샌드위치 > 써브웨이"
  },
  {
    "id": "34592696",
    "name": "써브웨이 마산삼계롯데마트점",
    "address": "경남 창원시 마산회원구 내서읍 삼계리 25-2",
    "road_address": "경남 창원시 마산회원구 내서읍 경남대로 927",
    "latitude": 35.2330284582192,
    "longitude": 128.504071012972,
    "phone": "055-713-7577",
    "url": "http://place.map.kakao.com/34592696",
    "category": "음식점 > 패스트푸드 > 샌드위치 > 써브웨이"
  },
  {
    "id": "1537132867",
    "name": "써브웨이 통영이마트점",
    "address": "경남 통영시 광도면 죽림리 1566-2",
    "road_address": "경남 통영시 광도면 죽림4로 9",
    "latitude": 34.887133454618024,
    "longitude": 128.4179996334981,
    "phone": "055-648-0760",
    "url": "http://place.map.kakao.com/1537132867",
    "category": "음식점 > 패스트푸드 > 샌드위치 > 써브웨이"
  },
  {
    "id": "1186160053",
    "name": "써브웨이 창원대동백화점",
    "address": "경남 창원시 성산구 상남동 44-1",
    "road_address": "경남 창원시 성산구 원이대로 730",
    "latitude": 35.2203120675158,
    "longitude": 128.690747986903,
    "phone": "055-212-8899",
    "url": "http://place.map.kakao.com/1186160053",
    "category": "음식점 > 패스트푸드 > 샌드위치 > 써브웨이"
  },
  {
    "id": "1025042820",
    "name": "써브웨이 마산이마트점",
    "address": "경남 창원시 마산합포구 중앙동3가 4-1",
    "road_address": "경남 창원시 마산합포구 서성로 3",
    "latitude": 35.1978851974527,
    "longitude": 128.569954059228,
    "phone": "070-8648-1709",
    "url": "http://place.map.kakao.com/1025042820",
    "category": "음식점 > 패스트푸드 > 샌드위치 > 써브웨이"
  },
  {
    "id": "33042533",
    "name": "써브웨이 김해이마트점",
    "address": "경남 김해시 외동 1264",
    "road_address": "경남 김해시 김해대로 2232",
    "latitude": 35.2301390016516,
    "longitude": 128.871722876283,
    "phone": "055-339-2413",
    "url": "http://place.map.kakao.com/33042533",
    "category": "음식점 > 패스트푸드 > 샌드위치 > 써브웨이"
  },
  {
    "id": "764940282",
    "name": "써브웨이 제주시청점",
    "address": "제주특별자치도 제주시 이도이동 1010",
    "road_address": "제주특별자치도 제주시 중앙로 252",
    "latitude": 33.49739185629079,
    "longitude": 126.53111806838041,
    "phone": "064-759-7739",
    "url": "http://place.map.kakao.com/764940282",
    "category": "음식점 > 패스트푸드 > 샌드위치 > 써브웨이"
  },
  {
    "id": "27532940",
    "name": "써브웨이 제주연동신시가지점",
    "address": "제주특별자치도 제주시 연동 1482",
    "road_address": "제주특별자치도 제주시 국기로1길 2",
    "latitude": 33.480703417898816,
    "longitude": 126.48999468945166,
    "phone": "064-711-1128",
    "url": "http://place.map.kakao.com/27532940",
    "category": "음식점 > 패스트푸드 > 샌드위치 > 써브웨이"
  },
  {
    "id": "1612553722",
    "name": "써브웨이 제주외도점",
    "address": "제주특별자치도 제주시 외도일동 401-2",
    "road_address": "제주특별자치도 제주시 일주서로 7306",
    "latitude": 33.4923626210828,
    "longitude": 126.427647165576,
    "phone": "064-747-4047",
    "url": "http://place.map.kakao.com/1612553722",
    "category": "음식점 > 패스트푸드 > 샌드위치 > 써브웨이"
  },
  {
    "id": "1568174867",
    "name": "써브웨이 제주서귀포강정지구점",
    "address": "제주특별자치도 서귀포시 강정동 208-8",
    "road_address": "제주특별자치도 서귀포시 대청로 41",
    "latitude": 33.2527338857371,
    "longitude": 126.504247045356,
    "phone": "064-739-0976",
    "url": "http://place.map.kakao.com/1568174867",
    "category": "음식점 > 패스트푸드 > 샌드위치 > 써브웨이"
  },
  {
    "id": "1828008080",
    "name": "써브웨이 제주공항점",
    "address": "제주특별자치도 제주시 용담이동 1731-1",
    "road_address": "제주특별자치도 제주시 월성로4길 80",
    "latitude": 33.498307033748404,
    "longitude": 126.49799526645921,
    "phone": "064-713-1129",
    "url": "http://place.map.kakao.com/1828008080",
    "category": "음식점 > 패스트푸드 > 샌드위치 > 써브웨이"
  },
  {
    "id": "1319226585",
    "name": "써브웨이 제주삼화점",
    "address": "제주특별자치도 제주시 도련이동 543",
    "road_address": "",
    "latitude": 33.51568714085566,
    "longitude": 126.58905601532776,
    "phone": "064-724-5439",
    "url": "http://place.map.kakao.com/1319226585",
    "category": "음식점 > 패스트푸드 > 샌드위치 > 써브웨이"
  },
  {
    "id": "545813279",
    "name": "써브웨이 제주노형점",
    "address": "제주특별자치도 제주시 노형동 3779-3",
    "road_address": "제주특별자치도 제주시 1100로 3347",
    "latitude": 33.484892555903336,
    "longitude": 126.47970815968227,
    "phone": "064-749-7739",
    "url": "http://place.map.kakao.com/545813279",
    "category": "음식점 > 패스트푸드 > 샌드위치 > 써브웨이"
  },
  {
    "id": "2057252571",
    "name": "써브웨이 제주서귀포광장점",
    "address": "제주특별자치도 서귀포시 동홍동 1487-4",
    "road_address": "제주특별자치도 서귀포시 중앙로 104",
    "latitude": 33.253913939136865,
    "longitude": 126.56106123346672,
    "phone": "064-733-1014",
    "url": "http://place.map.kakao.com/2057252571",
    "category": "음식점 > 패스트푸드 > 샌드위치 > 써브웨이"
  },
  {
    "id": "1512304373",
    "name": "써브웨이 제주대점",
    "address": "제주특별자치도 제주시 아라이동 34-13",
    "road_address": "제주특별자치도 제주시 제주대학로 113",
    "latitude": 33.46036291610679,
    "longitude": 126.56206852417806,
    "phone": "064-752-7739",
    "url": "http://place.map.kakao.com/1512304373",
    "category": "음식점 > 패스트푸드 > 샌드위치 > 써브웨이"
  }
]