[
  {
    "id": "232974537",
    "name": "디에이치퍼스티어아이파크아파트",
    "address": "서울 강남구 개포동 660-1",
    "road_address": "서울 강남구 개포로 310",
    "lat": 37.48178943055999,
    "lng": 127.05671085125567,
    "phone": "",
    "url": "http://place.map.kakao.com/232974537",
    "category": "부동산 > 주거시설 > 아파트"
  },
  {
    "id": "8154800",
    "name": "아이파크삼성아파트",
    "address": "서울 강남구 삼성동 87",
    "road_address": "서울 강남구 영동대로 640",
    "lat": 37.518288792534285,
    "lng": 127.05934128874826,
    "phone": "",
    "url": "http://place.map.kakao.com/8154800",
    "category": "부동산 > 주거시설 > 아파트"
  },
  {
    "id": "25980943",
    "name": "강남자곡아이파크아파트",
    "address": "서울 강남구 자곡동 602",
    "road_address": "서울 강남구 자곡로 175",
    "lat": 37.4748352798466,
    "lng": 127.101393788617,
    "phone": "",
    "url": "http://place.map.kakao.com/25980943",
    "category": "부동산 > 주거시설 > 아파트"
  },
  {
    "id": "11328499",
    "name": "대치아이파크아파트",
    "address": "서울 강남구 대치동 888",
    "road_address": "서울 강남구 선릉로 222",
    "lat": 37.49500191860841,
    "lng": 127.0545643652613,
    "phone": "",
    "url": "http://place.map.kakao.com/11328499",
    "category": "부동산 > 주거시설 > 아파트"
  },
  {
    "id": "309216612",
    "name": "논현아이파크아파트",
    "address": "서울 강남구 논현동 225-6",
    "road_address": "서울 강남구 언주로 615",
    "lat": 37.51054419159915,
    "lng": 127.03594154291945,
    "phone": "",
    "url": "http://place.map.kakao.com/309216612",
    "category": "부동산 > 주거시설 > 아파트"
  },
  {
    "id": "15104322",
    "name": "테헤란아이파크아파트",
    "address": "서울 강남구 역삼동 709-5",
    "road_address": "서울 강남구 테헤란로52길 16",
    "lat": 37.50250161866783,
    "lng": 127.04680709272424,
    "phone": "",
    "url": "http://place.map.kakao.com/15104322",
    "category": "부동산 > 주거시설 > 아파트"
  },
  {
    "id": "11240711",
    "name": "청담아이파크아파트",
    "address": "서울 강남구 청담동 130",
    "road_address": "서울 강남구 영동대로142길 25",
    "lat": 37.52524292800594,
    "lng": 127.05521989809318,
    "phone": "",
    "url": "http://place.map.kakao.com/11240711",
    "category": "부동산 > 주거시설 > 아파트"
  },
  {
    "id": "27306422",
    "name": "삼성동센트럴아이파크아파트",
    "address": "서울 강남구 삼성동 188",
    "road_address": "서울 강남구 삼성로 629",
    "lat": 37.515413023376745,
    "lng": 127.05113493577,
    "phone": "",
    "url": "http://place.map.kakao.com/27306422",
    "category": "부동산 > 주거시설 > 아파트"
  },
  {
    "id": "1216057640",
    "name": "강남센트럴아이파크아파트",
    "address": "서울 강남구 역삼동 902",
    "road_address": "서울 강남구 테헤란로44길 26",
    "lat": 37.50038649492938,
    "lng": 127.04568844126749,
    "phone": "",
    "url": "http://place.map.kakao.com/1216057640",
    "category": "부동산 > 주거시설 > 아파트"
  },
  {
    "id": "11329203",
    "name": "도곡아이파크3차아파트",
    "address": "서울 강남구 도곡동 970",
    "road_address": "서울 강남구 도곡로14길 21",
    "lat": 37.489843894762735,
    "lng": 127.03781204801125,
    "phone": "",
    "url": "http://place.map.kakao.com/11329203",
    "category": "부동산 > 주거시설 > 아파트"
  },
  {
    "id": "24066235",
    "name": "아이파크삼성동 상가동",
    "address": "서울 강남구 삼성동 87",
    "road_address": "서울 강남구 영동대로 640",
    "lat": 37.5187073738779,
    "lng": 127.058305460878,
    "phone": "",
    "url": "http://place.map.kakao.com/24066235",
    "category": "가정,생활 > 상가,아케이드 > 아파트상가"
  },
  {
    "id": "11374982",
    "name": "역삼2차아이파크아파트",
    "address": "서울 강남구 역삼동 765-32",
    "road_address": "서울 강남구 도곡로57길 12",
    "lat": 37.49676923028252,
    "lng": 127.05158473742978,
    "phone": "",
    "url": "http://place.map.kakao.com/11374982",
    "category": "부동산 > 주거시설 > 아파트"
  },
  {
    "id": "23915099",
    "name": "고덕아이파크아파트",
    "address": "서울 강동구 고덕동 499",
    "road_address": "서울 강동구 동남로79길 26",
    "lat": 37.55893045558401,
    "lng": 127.15524028249118,
    "phone": "",
    "url": "http://place.map.kakao.com/23915099",
    "category": "부동산 > 주거시설 > 아파트"
  },
  {
    "id": "118810392",
    "name": "고덕센트럴아이파크아파트",
    "address": "서울 강동구 상일동 513",
    "road_address": "서울 강동구 고덕로80길 99",
    "lat": 37.551954493737526,
    "lng": 127.16679836775783,
    "phone": "",
    "url": "http://place.map.kakao.com/118810392",
    "category": "부동산 > 주거시설 > 아파트"
  },
  {
    "id": "26983519",
    "name": "고덕숲아이파크아파트",
    "address": "서울 강동구 상일동 515",
    "road_address": "서울 강동구 고덕로80길 134",
    "lat": 37.55120850681088,
    "lng": 127.16224400379575,
    "phone": "",
    "url": "http://place.map.kakao.com/26983519",
    "category": "부동산 > 주거시설 > 아파트"
  },
  {
    "id": "26440288",
    "name": "고덕아이파크 상가동",
    "address": "서울 강동구 고덕동 499",
    "road_address": "서울 강동구 동남로79길 26",
    "lat": 37.5598461329018,
    "lng": 127.15503845845,
    "phone": "",
    "url": "http://place.map.kakao.com/26440288",
    "category": "가정,생활 > 상가,아케이드 > 아파트상가"
  },
  {
    "id": "11310129",
    "name": "북한산아이파크아파트",
    "address": "서울 도봉구 창동 825",
    "road_address": "서울 도봉구 도봉로136길 28",
    "lat": 37.657909846781195,
    "lng": 127.0436315510589,
    "phone": "",
    "url": "http://place.map.kakao.com/11310129",
    "category": "부동산 > 주거시설 > 아파트"
  },
  {
    "id": "289101245",
    "name": "월계센트럴아이파크아파트",
    "address": "서울 노원구 월계동 951",
    "road_address": "서울 노원구 초안산로2라길 26",
    "lat": 37.63008887123446,
    "lng": 127.05719832521825,
    "phone": "",
    "url": "http://place.map.kakao.com/289101245",
    "category": "부동산 > 주거시설 > 아파트"
  },
  {
    "id": "416702868",
    "name": "꿈의숲아이파크아파트",
    "address": "서울 성북구 장위동 323",
    "road_address": "서울 성북구 돌곶이로40길 46",
    "lat": 37.61887549275114,
    "lng": 127.04846685578345,
    "phone": "",
    "url": "http://place.map.kakao.com/416702868",
    "category": "부동산 > 주거시설 > 아파트"
  },
  {
    "id": "23997751",
    "name": "북한산 아이파크 상가동",
    "address": "서울 도봉구 창동 825-1",
    "road_address": "서울 도봉구 도봉로136길 14",
    "lat": 37.6589339526372,
    "lng": 127.042004727913,
    "phone": "",
    "url": "http://place.map.kakao.com/23997751",
    "category": "가정,생활 > 상가,아케이드 > 아파트상가"
  },
  {
    "id": "11332508",
    "name": "등촌아이파크아파트",
    "address": "서울 강서구 등촌동 715",
    "road_address": "서울 강서구 등촌로 163",
    "lat": 37.54391753935604,
    "lng": 126.86022983444474,
    "phone": "",
    "url": "http://place.map.kakao.com/11332508",
    "category": "부동산 > 주거시설 > 아파트"
  },
  {
    "id": "1110244724",
    "name": "우장산숲아이파크아파트",
    "address": "서울 강서구 화곡동 1173",
    "road_address": "서울 강서구 화곡로31다길 20",
    "lat": 37.54487260541292,
    "lng": 126.83967303327809,
    "phone": "",
    "url": "http://place.map.kakao.com/1110244724",
    "category": "부동산 > 주거시설 > 아파트"
  },
  {
    "id": "11333974",
    "name": "우장산아이파크이편한세상아파트",
    "address": "서울 강서구 화곡동 1159",
    "road_address": "서울 강서구 강서로 266",
    "lat": 37.54942822036064,
    "lng": 126.83781756883711,
    "phone": "",
    "url": "http://place.map.kakao.com/11333974",
    "category": "부동산 > 주거시설 > 아파트"
  },
  {
    "id": "11329851",
    "name": "그랜드아이파크아파트",
    "address": "서울 강서구 화곡동 1095",
    "road_address": "서울 강서구 화곡로 347",
    "lat": 37.55485549494153,
    "lng": 126.85125068373078,
    "phone": "",
    "url": "http://place.map.kakao.com/11329851",
    "category": "부동산 > 주거시설 > 아파트"
  },
  {
    "id": "11038087",
    "name": "강서아이파크아파트",
    "address": "서울 강서구 화곡동 980-21",
    "road_address": "서울 강서구 화곡로 296",
    "lat": 37.55053876798169,
    "lng": 126.84908195224736,
    "phone": "",
    "url": "http://place.map.kakao.com/11038087",
    "category": "부동산 > 주거시설 > 아파트"
  },
  {
    "id": "10991762",
    "name": "현대아이파크아파트",
    "address": "서울 강서구 염창동 282-19",
    "road_address": "서울 강서구 공항대로 637",
    "lat": 37.54756249554714,
    "lng": 126.87592643077083,
    "phone": "",
    "url": "http://place.map.kakao.com/10991762",
    "category": "부동산 > 주거시설 > 아파트"
  },
  {
    "id": "11196326",
    "name": "상도아이파크아파트",
    "address": "서울 동작구 상도동 416",
    "road_address": "서울 동작구 장승배기로 26",
    "lat": 37.500752649653656,
    "lng": 126.94270370161367,
    "phone": "",
    "url": "http://place.map.kakao.com/11196326",
    "category": "부동산 > 주거시설 > 아파트"
  },
  {
    "id": "11195053",
    "name": "방배아이파크아파트",
    "address": "서울 서초구 방배동 3277",
    "road_address": "서울 서초구 동광로3길 18",
    "lat": 37.49160413550485,
    "lng": 126.9848386409981,
    "phone": "",
    "url": "http://place.map.kakao.com/11195053",
    "category": "부동산 > 주거시설 > 아파트"
  },
  {
    "id": "847222624",
    "name": "서초센트럴아이파크아파트",
    "address": "서울 서초구 서초동 1582-3",
    "road_address": "서울 서초구 반포대로18길 36",
    "lat": 37.48696795117065,
    "lng": 127.01161793976286,
    "phone": "",
    "url": "http://place.map.kakao.com/847222624",
    "category": "부동산 > 주거시설 > 아파트"
  },
  {
    "id": "1450532352",
    "name": "신길센트럴아이파크아파트",
    "address": "서울 영등포구 신길동 4955",
    "road_address": "서울 영등포구 가마산로 426",
    "lat": 37.5039335422694,
    "lng": 126.90428045828668,
    "phone": "",
    "url": "http://place.map.kakao.com/1450532352",
    "category": "부동산 > 주거시설 > 아파트"
  },
  {
    "id": "27316106",
    "name": "반포래미안아이파크아파트",
    "address": "서울 서초구 반포동 1341",
    "road_address": "서울 서초구 서초중앙로 220",
    "lat": 37.501422672534254,
    "lng": 127.0129094251818,
    "phone": "",
    "url": "http://place.map.kakao.com/27316106",
    "category": "부동산 > 주거시설 > 아파트"
  },
  {
    "id": "11361180",
    "name": "서초아이파크아파트",
    "address": "서울 서초구 서초동 1436-14",
    "road_address": "서울 서초구 효령로68길 33",
    "lat": 37.485375034344564,
    "lng": 127.02335071497895,
    "phone": "",
    "url": "http://place.map.kakao.com/11361180",
    "category": "부동산 > 주거시설 > 아파트"
  },
  {
    "id": "11373143",
    "name": "강변아이파크아파트",
    "address": "서울 광진구 자양동 809",
    "road_address": "서울 광진구 뚝섬로36길 75",
    "lat": 37.53130804974916,
    "lng": 127.06965158129071,
    "phone": "",
    "url": "http://place.map.kakao.com/11373143",
    "category": "부동산 > 주거시설 > 아파트"
  },
  {
    "id": "257074138",
    "name": "강변역센트럴아이파크아파트 (2026년09월예정)",
    "address": "서울 광진구 구의동 592-39",
    "road_address": "",
    "lat": 37.5345277520503,
    "lng": 127.090308594723,
    "phone": "",
    "url": "http://place.map.kakao.com/257074138",
    "category": "부동산 > 주거시설 > 아파트"
  },
  {
    "id": "11143234",
    "name": "서울숲아이파크아파트",
    "address": "서울 성동구 송정동 104",
    "road_address": "서울 성동구 동일로 237",
    "lat": 37.552672831662136,
    "lng": 127.06917351503958,
    "phone": "",
    "url": "http://place.map.kakao.com/11143234",
    "category": "부동산 > 주거시설 > 아파트"
  },
  {
    "id": "11506189",
    "name": "성수아이파크아파트",
    "address": "서울 성동구 성수동2가 834",
    "road_address": "서울 성동구 성수이로 137",
    "lat": 37.54740688001127,
    "lng": 127.05661228364805,
    "phone": "",
    "url": "http://place.map.kakao.com/11506189",
    "category": "부동산 > 주거시설 > 아파트"
  },
  {
    "id": "1586673352",
    "name": "잠실래미안아이파크아파트 (2025년12월예정)",
    "address": "서울 송파구 신천동 20-4",
    "road_address": "",
    "lat": 37.51830016741403,
    "lng": 127.11103020209403,
    "phone": "",
    "url": "http://place.map.kakao.com/1586673352",
    "category": "부동산 > 주거시설 > 아파트"
  },
  {
    "id": "341450853",
    "name": "잠실올림픽공원아이파크아파트",
    "address": "서울 송파구 풍납동 514",
    "road_address": "서울 송파구 올림픽로43길 34",
    "lat": 37.52535194818127,
    "lng": 127.11424669477836,
    "phone": "",
    "url": "http://place.map.kakao.com/341450853",
    "category": "부동산 > 주거시설 > 아파트"
  },
  {
    "id": "1647427892",
    "name": "서울숲아이파크리버포레1차아파트",
    "address": "서울 성동구 성수동1가 721",
    "road_address": "서울 성동구 왕십리로 137",
    "lat": 37.55059041726989,
    "lng": 127.04307211580793,
    "phone": "",
    "url": "http://place.map.kakao.com/1647427892",
    "category": "부동산 > 주거시설 > 아파트"
  },
  {
    "id": "419721132",
    "name": "서울숲아이파크리버포레2차아파트",
    "address": "서울 성동구 성수동1가 671-179",
    "road_address": "서울 성동구 왕십리로 135",
    "lat": 37.5491451399515,
    "lng": 127.043279505575,
    "phone": "",
    "url": "http://place.map.kakao.com/419721132",
    "category": "부동산 > 주거시설 > 아파트"
  },
  {
    "id": "10991757",
    "name": "개봉아이파크아파트",
    "address": "서울 구로구 개봉동 489",
    "road_address": "서울 구로구 개봉로2길 133-15",
    "lat": 37.49006227416668,
    "lng": 126.8597874860351,
    "phone": "",
    "url": "http://place.map.kakao.com/10991757",
    "category": "부동산 > 주거시설 > 아파트"
  },
  {
    "id": "1385326790",
    "name": "고척아이파크아파트(MD)",
    "address": "서울 구로구 고척동 351",
    "road_address": "서울 구로구 경인로43길 49",
    "lat": 37.498082160648316,
    "lng": 126.85981207278276,
    "phone": "",
    "url": "http://place.map.kakao.com/1385326790",
    "category": "부동산 > 주거시설 > 아파트"
  },
  {
    "id": "1004605787",
    "name": "고척아이파크아파트(RD)",
    "address": "서울 구로구 고척동 350",
    "road_address": "서울 구로구 중앙로5길 59",
    "lat": 37.5005223647478,
    "lng": 126.859290688039,
    "phone": "",
    "url": "http://place.map.kakao.com/1004605787",
    "category": "부동산 > 주거시설 > 아파트"
  },
  {
    "id": "24066526",
    "name": "개봉동아이파크 상가동",
    "address": "서울 구로구 개봉동 489",
    "road_address": "서울 구로구 개봉로2길 133-15",
    "lat": 37.4908707033343,
    "lng": 126.86074033439,
    "phone": "",
    "url": "http://place.map.kakao.com/24066526",
    "category": "가정,생활 > 상가,아케이드 > 아파트상가"
  },
  {
    "id": "25623550",
    "name": "신도림아이파크아파트",
    "address": "서울 구로구 신도림동 693",
    "road_address": "서울 구로구 경인로67길 33",
    "lat": 37.51121856331825,
    "lng": 126.88831409138665,
    "phone": "",
    "url": "http://place.map.kakao.com/25623550",
    "category": "부동산 > 주거시설 > 아파트"
  },
  {
    "id": "11021704",
    "name": "노원아이파크아파트",
    "address": "서울 노원구 상계동 1318",
    "road_address": "서울 노원구 상계로23다길 13-8",
    "lat": 37.65978249602079,
    "lng": 127.06915944285508,
    "phone": "",
    "url": "http://place.map.kakao.com/11021704",
    "category": "부동산 > 주거시설 > 아파트"
  },
  {
    "id": "2057042939",
    "name": "서울원아이파크아파트 (2028년07월예정)",
    "address": "서울 노원구 월계동 85-7",
    "road_address": "서울 노원구 화랑로45길 127",
    "lat": 37.62024535289223,
    "lng": 127.066262696985,
    "phone": "",
    "url": "http://place.map.kakao.com/2057042939",
    "category": "부동산 > 주거시설 > 아파트"
  },
  {
    "id": "11339944",
    "name": "호원아이파크아파트",
    "address": "경기 의정부시 호원동 467",
    "road_address": "경기 의정부시 평화로150번길 26",
    "lat": 37.704947197272226,
    "lng": 127.04831305687398,
    "phone": "",
    "url": "http://place.map.kakao.com/11339944",
    "category": "부동산 > 주거시설 > 아파트"
  },
  {
    "id": "369952024",
    "name": "이문아이파크자이아파트",
    "address": "서울 동대문구 이문동 149-8",
    "road_address": "서울 동대문구 이문로 120",
    "lat": 37.598186166296394,
    "lng": 127.06346879756117,
    "phone": "",
    "url": "http://place.map.kakao.com/369952024",
    "category": "부동산 > 주거시설 > 아파트"
  },
  {
    "id": "1600199004",
    "name": "제기동역아이파크아파트 (2028년09월예정)",
    "address": "서울 동대문구 제기동 892-68",
    "road_address": "서울 동대문구 정릉천동로 80",
    "lat": 37.57936266239,
    "lng": 127.03544024823,
    "phone": "",
    "url": "http://place.map.kakao.com/1600199004",
    "category": "부동산 > 주거시설 > 아파트"
  },
  {
    "id": "1442770941",
    "name": "이문아이파크자이3단지아파트 (2026년05월예정)",
    "address": "서울 동대문구 이문동 412-1",
    "road_address": "",
    "lat": 37.6005950582979,
    "lng": 127.055220053858,
    "phone": "",
    "url": "http://place.map.kakao.com/1442770941",
    "category": "부동산 > 주거시설 > 아파트"
  },
  {
    "id": "630759463",
    "name": "신촌숲아이파크아파트",
    "address": "서울 마포구 신수동 462",
    "road_address": "서울 마포구 광성로 17",
    "lat": 37.55095051621004,
    "lng": 126.93468026572413,
    "phone": "",
    "url": "http://place.map.kakao.com/630759463",
    "category": "부동산 > 주거시설 > 아파트"
  },
  {
    "id": "1764455078",
    "name": "마포한강아이파크아파트",
    "address": "서울 마포구 망원동 521",
    "road_address": "서울 마포구 희우정로 77",
    "lat": 37.552469708723144,
    "lng": 126.90331872636844,
    "phone": "",
    "url": "http://place.map.kakao.com/1764455078",
    "category": "부동산 > 주거시설 > 아파트"
  },
  {
    "id": "14704788",
    "name": "공덕아이파크아파트",
    "address": "서울 마포구 신공덕동 174",
    "road_address": "서울 마포구 만리재로 36",
    "lat": 37.54467323644599,
    "lng": 126.95605432154524,
    "phone": "",
    "url": "http://place.map.kakao.com/14704788",
    "category": "부동산 > 주거시설 > 아파트"
  },
  {
    "id": "25774077",
    "name": "마포센트럴아이파크아파트",
    "address": "서울 마포구 아현동 802",
    "road_address": "서울 마포구 마포대로 246",
    "lat": 37.55552242228082,
    "lng": 126.95930508365443,
    "phone": "",
    "url": "http://place.map.kakao.com/25774077",
    "category": "부동산 > 주거시설 > 아파트"
  },
  {
    "id": "11359902",
    "name": "월드컵아이파크1차아파트",
    "address": "서울 마포구 성산동 667",
    "road_address": "서울 마포구 모래내로9길 6",
    "lat": 37.56753939165514,
    "lng": 126.91449503493888,
    "phone": "",
    "url": "http://place.map.kakao.com/11359902",
    "category": "부동산 > 주거시설 > 아파트"
  },
  {
    "id": "11178817",
    "name": "월드컵아이파크2차아파트",
    "address": "서울 마포구 성산동 666",
    "road_address": "서울 마포구 모래내로9길 3",
    "lat": 37.566951067962975,
    "lng": 126.9132958857117,
    "phone": "",
    "url": "http://place.map.kakao.com/11178817",
    "category": "부동산 > 주거시설 > 아파트"
  },
  {
    "id": "26448404",
    "name": "월드컵아이파크 상가동",
    "address": "서울 마포구 성산동 667",
    "road_address": "서울 마포구 모래내로9길 6",
    "lat": 37.5673765897288,
    "lng": 126.913639494262,
    "phone": "",
    "url": "http://place.map.kakao.com/26448404",
    "category": "가정,생활 > 상가,아케이드 > 아파트상가"
  },
  {
    "id": "504823589",
    "name": "서대문센트럴아이파크아파트",
    "address": "서울 서대문구 홍은동 11-111",
    "road_address": "서울 서대문구 홍은중앙로11길 31",
    "lat": 37.60065113171593,
    "lng": 126.94721233822033,
    "phone": "",
    "url": "http://place.map.kakao.com/504823589",
    "category": "부동산 > 주거시설 > 아파트"
  },
  {
    "id": "20014353",
    "name": "DMC아이파크아파트",
    "address": "서울 서대문구 북가좌동 458",
    "road_address": "서울 서대문구 거북골로14길 32",
    "lat": 37.57639439130086,
    "lng": 126.91452566460822,
    "phone": "",
    "url": "http://place.map.kakao.com/20014353",
    "category": "부동산 > 주거시설 > 아파트"
  },
  {
    "id": "115324422",
    "name": "홍제센트럴아이파크아파트",
    "address": "서울 서대문구 홍제동 473",
    "road_address": "서울 서대문구 통일로 395",
    "lat": 37.58492831963706,
    "lng": 126.94609579175498,
    "phone": "",
    "url": "http://place.map.kakao.com/115324422",
    "category": "부동산 > 주거시설 > 아파트"
  },
  {
    "id": "1981676772",
    "name": "DMC센트럴아이파크아파트",
    "address": "서울 서대문구 남가좌동 388",
    "road_address": "서울 서대문구 증가로 150",
    "lat": 37.57884136935931,
    "lng": 126.9208104802132,
    "phone": "",
    "url": "http://place.map.kakao.com/1981676772",
    "category": "부동산 > 주거시설 > 아파트"
  },
  {
    "id": "1426755710",
    "name": "DMC가재울아이파크아파트",
    "address": "서울 서대문구 남가좌동 289-54",
    "road_address": "서울 서대문구 수색로4나길 11",
    "lat": 37.570736420468,
    "lng": 126.914906811207,
    "phone": "",
    "url": "http://place.map.kakao.com/1426755710",
    "category": "부동산 > 주거시설 > 아파트"
  },
  {
    "id": "11374999",
    "name": "보문아이파크아파트",
    "address": "서울 성북구 보문동3가 2",
    "road_address": "서울 성북구 지봉로21길 19",
    "lat": 37.58561969439303,
    "lng": 127.01671112767173,
    "phone": "",
    "url": "http://place.map.kakao.com/11374999",
    "category": "부동산 > 주거시설 > 아파트"
  },
  {
    "id": "11363167",
    "name": "종암아이파크1차아파트",
    "address": "서울 성북구 종암동 130",
    "road_address": "서울 성북구 종암로21길 127",
    "lat": 37.60253592149763,
    "lng": 127.02986487979474,
    "phone": "",
    "url": "http://place.map.kakao.com/11363167",
    "category": "부동산 > 주거시설 > 아파트"
  },
  {
    "id": "11506128",
    "name": "종암2차아이파크아파트",
    "address": "서울 성북구 종암동 131",
    "road_address": "서울 성북구 종암로9길 71",
    "lat": 37.5968555901075,
    "lng": 127.03172420988044,
    "phone": "",
    "url": "http://place.map.kakao.com/11506128",
    "category": "부동산 > 주거시설 > 아파트"
  },
  {
    "id": "245569631",
    "name": "보문센트럴아이파크아파트 (2026년09월예정)",
    "address": "서울 성북구 보문동1가 196-11",
    "road_address": "",
    "lat": 37.5848730691548,
    "lng": 127.020533196742,
    "phone": "",
    "url": "http://place.map.kakao.com/245569631",
    "category": "부동산 > 주거시설 > 아파트"
  },
  {
    "id": "23886974",
    "name": "종암2차 아이파크 아파트 상가",
    "address": "서울 성북구 종암동 131-2",
    "road_address": "서울 성북구 종암로9길 86",
    "lat": 37.5976985434451,
    "lng": 127.033087945071,
    "phone": "",
    "url": "http://place.map.kakao.com/23886974",
    "category": "가정,생활 > 상가,아케이드 > 아파트상가"
  },
  {
    "id": "21746530",
    "name": "위례아이파크아파트",
    "address": "서울 송파구 장지동 894",
    "road_address": "서울 송파구 위례광장로 136",
    "lat": 37.47644210590582,
    "lng": 127.14216550945001,
    "phone": "",
    "url": "http://place.map.kakao.com/21746530",
    "category": "부동산 > 주거시설 > 아파트"
  },
  {
    "id": "22297831",
    "name": "위례2차아이파크아파트",
    "address": "서울 송파구 장지동 884",
    "road_address": "서울 송파구 위례광장로 230",
    "lat": 37.479737889001484,
    "lng": 127.14374327299967,
    "phone": "",
    "url": "http://place.map.kakao.com/22297831",
    "category": "부동산 > 주거시설 > 아파트"
  },
  {
    "id": "23901379",
    "name": "DW동원아이파크아파트",
    "address": "서울 송파구 삼전동 38-26",
    "road_address": "서울 송파구 삼전로4길 4-12",
    "lat": 37.5017584727781,
    "lng": 127.08642510687,
    "phone": "",
    "url": "http://place.map.kakao.com/23901379",
    "category": "부동산 > 주거시설 > 아파트"
  },
  {
    "id": "1208402694",
    "name": "위례아이파크아파트 애비뉴상가",
    "address": "서울 송파구 장지동 894",
    "road_address": "서울 송파구 위례광장로 136",
    "lat": 37.4755539291237,
    "lng": 127.141984073265,
    "phone": "",
    "url": "http://place.map.kakao.com/1208402694",
    "category": "가정,생활 > 상가,아케이드 > 아파트상가"
  },
  {
    "id": "822044958",
    "name": "목동센트럴아이파크위브아파트",
    "address": "서울 양천구 신월동 1075",
    "road_address": "서울 양천구 남부순환로83길 17",
    "lat": 37.51589073092791,
    "lng": 126.84213306141996,
    "phone": "",
    "url": "http://place.map.kakao.com/822044958",
    "category": "부동산 > 주거시설 > 아파트"
  },
  {
    "id": "11279416",
    "name": "신정아이파크아파트",
    "address": "서울 양천구 신정동 1296",
    "road_address": "서울 양천구 목동동로 180",
    "lat": 37.52155740587851,
    "lng": 126.8721538981559,
    "phone": "",
    "url": "http://place.map.kakao.com/11279416",
    "category": "부동산 > 주거시설 > 아파트"
  },
  {
    "id": "11365739",
    "name": "목동아이파크1차아파트",
    "address": "서울 양천구 목동 940",
    "road_address": "서울 양천구 목동로 230",
    "lat": 37.52899171394373,
    "lng": 126.86499571174154,
    "phone": "",
    "url": "http://place.map.kakao.com/11365739",
    "category": "부동산 > 주거시설 > 아파트"
  },
  {
    "id": "11341327",
    "name": "목동아이파크2차아파트",
    "address": "서울 양천구 목동 758-2",
    "road_address": "서울 양천구 목동중앙로 79",
    "lat": 37.53672155509162,
    "lng": 126.87077480038269,
    "phone": "",
    "url": "http://place.map.kakao.com/11341327",
    "category": "부동산 > 주거시설 > 아파트"
  },
  {
    "id": "26445636",
    "name": "아이파크아파트 상가동",
    "address": "서울 양천구 신정동 1296",
    "road_address": "서울 양천구 목동동로 180",
    "lat": 37.5212522507338,
    "lng": 126.873253960945,
    "phone": "",
    "url": "http://place.map.kakao.com/26445636",
    "category": "가정,생활 > 상가,아케이드 > 아파트상가"
  },
  {
    "id": "2110251054",
    "name": "DMCSKVIEW아이파크포레아파트",
    "address": "서울 은평구 수색동 341-6",
    "road_address": "서울 은평구 수색로 322",
    "lat": 37.58610403893688,
    "lng": 126.89307980711995,
    "phone": "",
    "url": "http://place.map.kakao.com/2110251054",
    "category": "부동산 > 주거시설 > 아파트"
  },
  {
    "id": "1539867589",
    "name": "백련산SK뷰아이파크아파트",
    "address": "서울 은평구 응암동 767",
    "road_address": "서울 은평구 응암로30길 16",
    "lat": 37.594928732020826,
    "lng": 126.92101876949187,
    "phone": "",
    "url": "http://place.map.kakao.com/1539867589",
    "category": "부동산 > 주거시설 > 아파트"
  },
  {
    "id": "1897236342",
    "name": "백련산SK뷰아이파크아파트 상가",
    "address": "서울 은평구 응암동 767",
    "road_address": "서울 은평구 응암로30길 16",
    "lat": 37.5955437578004,
    "lng": 126.919169007772,
    "phone": "",
    "url": "http://place.map.kakao.com/1897236342",
    "category": "가정,생활 > 상가,아케이드 > 아파트상가"
  },
  {
    "id": "11368026",
    "name": "은평뉴타운상림마을7단지아이파크아파트(706~708동)",
    "address": "서울 은평구 진관동 13",
    "road_address": "서울 은평구 진관4로 47",
    "lat": 37.646046986574746,
    "lng": 126.92632540067767,
    "phone": "",
    "url": "http://place.map.kakao.com/11368026",
    "category": "부동산 > 주거시설 > 아파트"
  },
  {
    "id": "18444792",
    "name": "은평뉴타운상림마을7단지아이파크아파트(701동)",
    "address": "서울 은평구 진관동 7",
    "road_address": "서울 은평구 진관4로 78-8",
    "lat": 37.646029512860444,
    "lng": 126.92868001284467,
    "phone": "",
    "url": "http://place.map.kakao.com/18444792",
    "category": "부동산 > 주거시설 > 아파트"
  },
  {
    "id": "11169426",
    "name": "인왕산아이파크1차아파트",
    "address": "서울 종로구 무악동 60",
    "road_address": "서울 종로구 통일로18길 9",
    "lat": 37.57700150932393,
    "lng": 126.95744474384661,
    "phone": "",
    "url": "http://place.map.kakao.com/11169426",
    "category": "부동산 > 주거시설 > 아파트"
  },
  {
    "id": "20671234",
    "name": "인왕산2차아이파크아파트",
    "address": "서울 종로구 무악동 88",
    "road_address": "서울 종로구 통일로18길 34",
    "lat": 37.575689540136516,
    "lng": 126.95966542048158,
    "phone": "",
    "url": "http://place.map.kakao.com/20671234",
    "category": "부동산 > 주거시설 > 아파트"
  },
  {
    "id": "682596788",
    "name": "사가정센트럴아이파크아파트",
    "address": "서울 중랑구 면목동 1545",
    "road_address": "서울 중랑구 동일로92길 40",
    "lat": 37.58218232147488,
    "lng": 127.08173357581516,
    "phone": "",
    "url": "http://place.map.kakao.com/682596788",
    "category": "부동산 > 주거시설 > 아파트"
  },
  {
    "id": "11202899",
    "name": "묵동아이파크아파트",
    "address": "서울 중랑구 묵동 385",
    "road_address": "서울 중랑구 중랑천로 286",
    "lat": 37.61051029520134,
    "lng": 127.07365765090091,
    "phone": "",
    "url": "http://place.map.kakao.com/11202899",
    "category": "부동산 > 주거시설 > 아파트"
  },
  {
    "id": "201048689",
    "name": "상봉센트럴아이파크아파트 (2030년03월예정)",
    "address": "서울 중랑구 망우동 506-1",
    "road_address": "서울 중랑구 상봉로 118",
    "lat": 37.596382133228,
    "lng": 127.093627487253,
    "phone": "",
    "url": "http://place.map.kakao.com/201048689",
    "category": "부동산 > 주거시설 > 아파트"
  },
  {
    "id": "26450452",
    "name": "묵동아이파크아파트 상가동",
    "address": "서울 중랑구 묵동 385",
    "road_address": "서울 중랑구 동일로157길 70",
    "lat": 37.6095695470885,
    "lng": 127.073842461813,
    "phone": "",
    "url": "http://place.map.kakao.com/26450452",
    "category": "가정,생활 > 상가,아케이드 > 아파트상가"
  },
  {
    "id": "1331817348",
    "name": "수원센트럴아이파크자이아파트",
    "address": "경기 수원시 팔달구 인계동 1173",
    "road_address": "경기 수원시 팔달구 인계로 21",
    "lat": 37.27037560840249,
    "lng": 127.02122204371364,
    "phone": "",
    "url": "http://place.map.kakao.com/1331817348",
    "category": "부동산 > 주거시설 > 아파트"
  },
  {
    "id": "11358899",
    "name": "망포역아이파크아파트",
    "address": "경기 수원시 영통구 망포동 693",
    "road_address": "경기 수원시 영통구 영통로200번길 20",
    "lat": 37.243935316440464,
    "lng": 127.05695253290004,
    "phone": "",
    "url": "http://place.map.kakao.com/11358899",
    "category": "부동산 > 주거시설 > 아파트"
  },
  {
    "id": "2114555765",
    "name": "영통아이파크캐슬1단지아파트",
    "address": "경기 수원시 영통구 망포동 766",
    "road_address": "경기 수원시 영통구 덕영대로 1410",
    "lat": 37.24299079363456,
    "lng": 127.04491160453219,
    "phone": "",
    "url": "http://place.map.kakao.com/2114555765",
    "category": "부동산 > 주거시설 > 아파트"
  },
  {
    "id": "26945732",
    "name": "광교아이파크아파트",
    "address": "경기 수원시 영통구 원천동 593",
    "road_address": "경기 수원시 영통구 광교호수공원로 80",
    "lat": 37.273821735376984,
    "lng": 127.06110959579767,
    "phone": "",
    "url": "http://place.map.kakao.com/26945732",
    "category": "부동산 > 주거시설 > 아파트"
  },
  {
    "id": "26097941",
    "name": "수원아이파크시티7단지아파트",
    "address": "경기 수원시 권선구 권선동 1337",
    "road_address": "경기 수원시 권선구 덕영대로1190번길 100",
    "lat": 37.246700016053715,
    "lng": 127.01999700765636,
    "phone": "",
    "url": "http://place.map.kakao.com/26097941",
    "category": "부동산 > 주거시설 > 아파트"
  },
  {
    "id": "11350867",
    "name": "영통아이파크아파트",
    "address": "경기 수원시 영통구 영통동 1153",
    "road_address": "경기 수원시 영통구 삼성로320번길 62",
    "lat": 37.26617250200707,
    "lng": 127.07130516560383,
    "phone": "",
    "url": "http://place.map.kakao.com/11350867",
    "category": "부동산 > 주거시설 > 아파트"
  },
  {
    "id": "248619073",
    "name": "영통아이파크캐슬3단지아파트",
    "address": "경기 수원시 영통구 망포동 790",
    "road_address": "경기 수원시 영통구 망포로84번길 10",
    "lat": 37.240347541987994,
    "lng": 127.04129347621112,
    "phone": "",
    "url": "http://place.map.kakao.com/248619073",
    "category": "부동산 > 주거시설 > 아파트"
  },
  {
    "id": "1236534500",
    "name": "영통아이파크캐슬2단지아파트",
    "address": "경기 수원시 영통구 망포동 760",
    "road_address": "경기 수원시 영통구 덕영대로 1400",
    "lat": 37.2434195864985,
    "lng": 127.0427603185444,
    "phone": "",
    "url": "http://place.map.kakao.com/1236534500",
    "category": "부동산 > 주거시설 > 아파트"
  },
  {
    "id": "12803672",
    "name": "수원아이파크시티2단지아파트",
    "address": "경기 수원시 권선구 권선동 1361",
    "road_address": "경기 수원시 권선구 동수원로145번길 24",
    "lat": 37.24511672022369,
    "lng": 127.02940316867158,
    "phone": "",
    "url": "http://place.map.kakao.com/12803672",
    "category": "부동산 > 주거시설 > 아파트"
  },
  {
    "id": "12736597",
    "name": "수원아이파크시티3단지아파트",
    "address": "경기 수원시 권선구 권선동 1359",
    "road_address": "경기 수원시 권선구 동수원로145번길 73",
    "lat": 37.242641451327756,
    "lng": 127.02596699067888,
    "phone": "",
    "url": "http://place.map.kakao.com/12736597",
    "category": "부동산 > 주거시설 > 아파트"
  },
  {
    "id": "11289993",
    "name": "곡반정현대아이파크아파트",
    "address": "경기 수원시 권선구 곡반정동 578",
    "road_address": "경기 수원시 권선구 곡선로50번길 48",
    "lat": 37.237022109226075,
    "lng": 127.02781777851457,
    "phone": "",
    "url": "http://place.map.kakao.com/11289993",
    "category": "부동산 > 주거시설 > 아파트"
  },
  {
    "id": "11054067",
    "name": "북수원아이파크아파트",
    "address": "경기 수원시 장안구 파장동 632",
    "road_address": "경기 수원시 장안구 경수대로 1110-15",
    "lat": 37.311393342069074,
    "lng": 126.99126426453192,
    "phone": "",
    "url": "http://place.map.kakao.com/11054067",
    "category": "부동산 > 주거시설 > 아파트"
  },
  {
    "id": "12803710",
    "name": "수원아이파크시티4단지아파트",
    "address": "경기 수원시 권선구 권선동 1357",
    "road_address": "경기 수원시 권선구 동수원로145번길 23",
    "lat": 37.24207872078967,
    "lng": 127.0280630755145,
    "phone": "",
    "url": "http://place.map.kakao.com/12803710",
    "category": "부동산 > 주거시설 > 아파트"
  },
  {
    "id": "12736600",
    "name": "수원아이파크시티1단지아파트",
    "address": "경기 수원시 권선구 권선동 1360",
    "road_address": "경기 수원시 권선구 동수원로145번길 74",
    "lat": 37.245647148908255,
    "lng": 127.02681558929028,
    "phone": "",
    "url": "http://place.map.kakao.com/12736600",
    "category": "부동산 > 주거시설 > 아파트"
  },
  {
    "id": "11343914",
    "name": "망포마을현대아이파크2차아파트",
    "address": "경기 수원시 영통구 망포동 683",
    "road_address": "경기 수원시 영통구 태장로 45",
    "lat": 37.23981837451496,
    "lng": 127.05117470077893,
    "phone": "",
    "url": "http://place.map.kakao.com/11343914",
    "category": "부동산 > 주거시설 > 아파트"
  },
  {
    "id": "12435869",
    "name": "수원아이파크시티6단지아파트",
    "address": "경기 수원시 권선구 권선동 1356",
    "road_address": "경기 수원시 권선구 곡선로 20",
    "lat": 37.23839932069011,
    "lng": 127.02600047174495,
    "phone": "",
    "url": "http://place.map.kakao.com/12435869",
    "category": "부동산 > 주거시설 > 아파트"
  },
  {
    "id": "805584860",
    "name": "수원아이파크시티5단지아파트",
    "address": "경기 수원시 권선구 권선동 1355",
    "road_address": "경기 수원시 권선구 곡선로 10",
    "lat": 37.23890592614765,
    "lng": 127.02498974119825,
    "phone": "",
    "url": "http://place.map.kakao.com/805584860",
    "category": "부동산 > 주거시설 > 아파트"
  },
  {
    "id": "1422535494",
    "name": "수원아이파크시티10단지아파트",
    "address": "경기 수원시 권선구 권선동 1340",
    "road_address": "경기 수원시 권선구 경수대로212번길 34",
    "lat": 37.24349976276904,
    "lng": 127.01840138309684,
    "phone": "",
    "url": "http://place.map.kakao.com/1422535494",
    "category": "부동산 > 주거시설 > 아파트"
  },
  {
    "id": "26873532",
    "name": "수원아이파크시티9단지아파트",
    "address": "경기 수원시 권선구 권선동 1362",
    "road_address": "경기 수원시 권선구 동수원로177번길 90",
    "lat": 37.24729138896895,
    "lng": 127.02754202993809,
    "phone": "",
    "url": "http://place.map.kakao.com/26873532",
    "category": "부동산 > 주거시설 > 아파트"
  },
  {
    "id": "27305340",
    "name": "수원아이파크시티8단지아파트",
    "address": "경기 수원시 권선구 권선동 1364",
    "road_address": "경기 수원시 권선구 동수원로177번길 40",
    "lat": 37.246723110690176,
    "lng": 127.03009019685594,
    "phone": "",
    "url": "http://place.map.kakao.com/27305340",
    "category": "부동산 > 주거시설 > 아파트"
  },
  {
    "id": "11144473",
    "name": "아이파크분당1단지아파트",
    "address": "경기 성남시 분당구 정자동 9",
    "road_address": "경기 성남시 분당구 정자일로 239",
    "lat": 37.371661900382875,
    "lng": 127.10514292387059,
    "phone": "",
    "url": "http://place.map.kakao.com/11144473",
    "category": "부동산 > 주거시설 > 아파트"
  },
  {
    "id": "11164383",
    "name": "아이파크아파트",
    "address": "경기 성남시 분당구 야탑동 391",
    "road_address": "경기 성남시 분당구 야탑로 125",
    "lat": 37.410180159791466,
    "lng": 127.13248651576036,
    "phone": "",
    "url": "http://place.map.kakao.com/11164383",
    "category": "부동산 > 주거시설 > 아파트"
  },
  {
    "id": "12803685",
    "name": "아이파크분당3단지아파트",
    "address": "경기 성남시 분당구 정자동 11",
    "road_address": "경기 성남시 분당구 정자일로213번길 5",
    "lat": 37.36898405178862,
    "lng": 127.10514370246857,
    "phone": "",
    "url": "http://place.map.kakao.com/12803685",
    "category": "부동산 > 주거시설 > 아파트"
  },
  {
    "id": "12803804",
    "name": "아이파크분당2단지아파트",
    "address": "경기 성남시 분당구 정자동 10-1",
    "road_address": "경기 성남시 분당구 정자일로213번길 19",
    "lat": 37.37078636134559,
    "lng": 127.10485268992328,
    "phone": "",
    "url": "http://place.map.kakao.com/12803804",
    "category": "부동산 > 주거시설 > 아파트"
  },
  {
    "id": "27542583",
    "name": "일산센트럴아이파크아파트",
    "address": "경기 고양시 일산동구 중산동 1841",
    "road_address": "경기 고양시 일산동구 중산로 70",
    "lat": 37.67873380156691,
    "lng": 126.78554496928707,
    "phone": "",
    "url": "http://place.map.kakao.com/27542583",
    "category": "부동산 > 주거시설 > 아파트"
  },
  {
    "id": "20399197",
    "name": "삼송2차아이파크아파트",
    "address": "경기 고양시 덕양구 삼송동 311",
    "road_address": "경기 고양시 덕양구 세솔로 73",
    "lat": 37.65060007606352,
    "lng": 126.88700084321702,
    "phone": "",
    "url": "http://place.map.kakao.com/20399197",
    "category": "부동산 > 주거시설 > 아파트"
  },
  {
    "id": "11090190",
    "name": "킨텍스아이파크아파트",
    "address": "경기 고양시 일산서구 대화동 2580",
    "road_address": "경기 고양시 일산서구 송포로 11",
    "lat": 37.6686263706631,
    "lng": 126.73409173998124,
    "phone": "",
    "url": "http://place.map.kakao.com/11090190",
    "category": "부동산 > 주거시설 > 아파트"
  },
  {
    "id": "12274309",
    "name": "신원마을8단지고양삼송아이파크아파트",
    "address": "경기 고양시 덕양구 신원동 600",
    "road_address": "경기 고양시 덕양구 신원3로 20",
    "lat": 37.66910001620524,
    "lng": 126.88523067673948,
    "phone": "02-381-4677",
    "url": "http://place.map.kakao.com/12274309",
    "category": "부동산 > 주거시설 > 아파트"
  },
  {
    "id": "1013102255",
    "name": "삼송3차아이파크아파트",
    "address": "경기 고양시 덕양구 원흥동 619",
    "road_address": "경기 고양시 덕양구 원흥1로 46-12",
    "lat": 37.65046075782957,
    "lng": 126.8698402792452,
    "phone": "",
    "url": "http://place.map.kakao.com/1013102255",
    "category": "부동산 > 주거시설 > 아파트"
  },
  {
    "id": "572499122",
    "name": "일산2차아이파크아파트",
    "address": "경기 고양시 일산동구 중산동 1842",
    "road_address": "경기 고양시 일산동구 중산로 60",
    "lat": 37.677875876893246,
    "lng": 126.78346617001905,
    "phone": "",
    "url": "http://place.map.kakao.com/572499122",
    "category": "부동산 > 주거시설 > 아파트"
  },
  {
    "id": "11530730",
    "name": "숲속마을5단지아이파크아파트",
    "address": "경기 고양시 일산동구 풍동 1267",
    "road_address": "경기 고양시 일산동구 숲속마을1로 87",
    "lat": 37.66904840110622,
    "lng": 126.79890680113111,
    "phone": "",
    "url": "http://place.map.kakao.com/11530730",
    "category": "부동산 > 주거시설 > 아파트"
  },
  {
    "id": "11374004",
    "name": "일산하이파크시티5단지아이파크아파트",
    "address": "경기 고양시 일산서구 덕이동 1540",
    "road_address": "경기 고양시 일산서구 하이파크3로 62",
    "lat": 37.697890490932515,
    "lng": 126.75422383336108,
    "phone": "",
    "url": "http://place.map.kakao.com/11374004",
    "category": "부동산 > 주거시설 > 아파트"
  },
  {
    "id": "11096399",
    "name": "일산하이파크시티1단지아이파크아파트",
    "address": "경기 고양시 일산서구 덕이동 1524",
    "road_address": "경기 고양시 일산서구 하이파크로 113",
    "lat": 37.7042617916904,
    "lng": 126.7540406364253,
    "phone": "",
    "url": "http://place.map.kakao.com/11096399",
    "category": "부동산 > 주거시설 > 아파트"
  },
  {
    "id": "23821148",
    "name": "신원마을고양삼송아이파크 상가동",
    "address": "경기 고양시 덕양구 신원동 113",
    "road_address": "경기 고양시 덕양구 신원3로 20",
    "lat": 37.668216006204,
    "lng": 126.885077889767,
    "phone": "",
    "url": "http://place.map.kakao.com/23821148",
    "category": "가정,생활 > 상가,아케이드 > 아파트상가"
  },
  {
    "id": "11506172",
    "name": "성복역아이파크아파트",
    "address": "경기 용인시 수지구 상현동 857",
    "road_address": "경기 용인시 수지구 상현로 142",
    "lat": 37.311193365580515,
    "lng": 127.08552514215249,
    "phone": "",
    "url": "http://place.map.kakao.com/11506172",
    "category": "부동산 > 주거시설 > 아파트"
  },
  {
    "id": "12777134",
    "name": "용인성복아이파크아파트",
    "address": "경기 용인시 수지구 성복동 780",
    "road_address": "경기 용인시 수지구 성복1로 222",
    "lat": 37.3221937022037,
    "lng": 127.06148833712741,
    "phone": "",
    "url": "http://place.map.kakao.com/12777134",
    "category": "부동산 > 주거시설 > 아파트"
  },
  {
    "id": "596803685",
    "name": "수지광교산아이파크아파트",
    "address": "경기 용인시 수지구 풍덕천동 1238",
    "road_address": "경기 용인시 수지구 수풍로23번길 35",
    "lat": 37.327167659144976,
    "lng": 127.08317832660707,
    "phone": "",
    "url": "http://place.map.kakao.com/596803685",
    "category": "부동산 > 주거시설 > 아파트"
  },
  {
    "id": "11151597",
    "name": "죽현마을아이파크아파트",
    "address": "경기 용인시 기흥구 보정동 1267",
    "road_address": "경기 용인시 기흥구 보정로 87",
    "lat": 37.31791668257695,
    "lng": 127.11360594347988,
    "phone": "",
    "url": "http://place.map.kakao.com/11151597",
    "category": "부동산 > 주거시설 > 아파트"
  },
  {
    "id": "11362670",
    "name": "신동백아이파크아파트",
    "address": "경기 용인시 기흥구 중동 1081",
    "road_address": "경기 용인시 기흥구 언동로217번길 11",
    "lat": 37.27781817211022,
    "lng": 127.1454331347668,
    "phone": "",
    "url": "http://place.map.kakao.com/11362670",
    "category": "부동산 > 주거시설 > 아파트"
  },
  {
    "id": "11088243",
    "name": "도담마을아이파크아파트",
    "address": "경기 용인시 수지구 죽전동 331",
    "road_address": "경기 용인시 수지구 대지로 82",
    "lat": 37.32927637068814,
    "lng": 127.11783397917675,
    "phone": "",
    "url": "http://place.map.kakao.com/11088243",
    "category": "부동산 > 주거시설 > 아파트"
  },
  {
    "id": "11330369",
    "name": "동천역센트럴아이파크아파트",
    "address": "경기 용인시 수지구 동천동 868",
    "road_address": "경기 용인시 수지구 손곡로 54",
    "lat": 37.33695793059909,
    "lng": 127.09666277657628,
    "phone": "",
    "url": "http://place.map.kakao.com/11330369",
    "category": "부동산 > 주거시설 > 아파트"
  },
  {
    "id": "11123745",
    "name": "상현마을수지센트럴아이파크아파트",
    "address": "경기 용인시 수지구 상현동 842",
    "road_address": "경기 용인시 수지구 상현로 101",
    "lat": 37.30690656939075,
    "lng": 127.08252432496471,
    "phone": "",
    "url": "http://place.map.kakao.com/11123745",
    "category": "부동산 > 주거시설 > 아파트"
  },
  {
    "id": "7944211",
    "name": "서원마을3단지아이파크아파트",
    "address": "경기 용인시 수지구 상현동 860",
    "road_address": "경기 용인시 수지구 포은대로 219",
    "lat": 37.30818024710572,
    "lng": 127.08046821447057,
    "phone": "",
    "url": "http://place.map.kakao.com/7944211",
    "category": "부동산 > 주거시설 > 아파트"
  },
  {
    "id": "11354383",
    "name": "만현마을2단지아이파크아파트",
    "address": "경기 용인시 수지구 상현동 856",
    "road_address": "경기 용인시 수지구 만현로67번길 9",
    "lat": 37.310463359406235,
    "lng": 127.08820907608467,
    "phone": "",
    "url": "http://place.map.kakao.com/11354383",
    "category": "부동산 > 주거시설 > 아파트"
  },
  {
    "id": "25737435",
    "name": "서천2차아이파크아파트",
    "address": "경기 용인시 기흥구 서천동 755",
    "road_address": "경기 용인시 기흥구 서천동로21번길 11-22",
    "lat": 37.2410009848257,
    "lng": 127.07700330115719,
    "phone": "",
    "url": "http://place.map.kakao.com/25737435",
    "category": "부동산 > 주거시설 > 아파트"
  },
  {
    "id": "11107651",
    "name": "연원마을현대아이파크아파트",
    "address": "경기 용인시 기흥구 마북동 550-4",
    "road_address": "경기 용인시 기흥구 연원로 60",
    "lat": 37.302647256602555,
    "lng": 127.1122339620646,
    "phone": "",
    "url": "http://place.map.kakao.com/11107651",
    "category": "부동산 > 주거시설 > 아파트"
  },
  {
    "id": "24058523",
    "name": "만현마을5단지현대아이파크아파트",
    "address": "경기 용인시 수지구 상현동 858",
    "road_address": "경기 용인시 수지구 만현로 79",
    "lat": 37.308593737463674,
    "lng": 127.08695704264423,
    "phone": "",
    "url": "http://place.map.kakao.com/24058523",
    "category": "부동산 > 주거시설 > 아파트"
  },
  {
    "id": "11372167",
    "name": "꽃메마을아이파크아파트",
    "address": "경기 용인시 수지구 죽전동 1307",
    "road_address": "경기 용인시 수지구 죽전로 121",
    "lat": 37.32392495029158,
    "lng": 127.12070492113621,
    "phone": "",
    "url": "http://place.map.kakao.com/11372167",
    "category": "부동산 > 주거시설 > 아파트"
  },
  {
    "id": "11354212",
    "name": "서그내마을서천1차아이파크아파트",
    "address": "경기 용인시 기흥구 서천동 708",
    "road_address": "경기 용인시 기흥구 서그내로16번길 14",
    "lat": 37.24606054562201,
    "lng": 127.07241330214708,
    "phone": "",
    "url": "http://place.map.kakao.com/11354212",
    "category": "부동산 > 주거시설 > 아파트"
  },
  {
    "id": "23816938",
    "name": "꽃메마을아이파크2차아파트 상가",
    "address": "경기 용인시 수지구 죽전동 1307",
    "road_address": "경기 용인시 수지구 죽전로 123",
    "lat": 37.3233189129932,
    "lng": 127.12123648232,
    "phone": "",
    "url": "http://place.map.kakao.com/23816938",
    "category": "가정,생활 > 상가,아케이드 > 아파트상가"
  },
  {
    "id": "26446657",
    "name": "성복역아이파크아파트 상가동",
    "address": "경기 용인시 수지구 상현동 857",
    "road_address": "경기 용인시 수지구 상현로 144",
    "lat": 37.3098531593517,
    "lng": 127.084783628733,
    "phone": "",
    "url": "http://place.map.kakao.com/26446657",
    "category": "가정,생활 > 상가,아케이드 > 아파트상가"
  },
  {
    "id": "14723030",
    "name": "부천아이파크아파트",
    "address": "경기 부천시 원미구 약대동 216-1",
    "road_address": "경기 부천시 원미구 평천로 679",
    "lat": 37.51526906146609,
    "lng": 126.76608771727207,
    "phone": "",
    "url": "http://place.map.kakao.com/14723030",
    "category": "부동산 > 주거시설 > 아파트"
  },
  {
    "id": "27024044",
    "name": "부천3차아이파크아파트",
    "address": "경기 부천시 원미구 약대동 218",
    "road_address": "경기 부천시 원미구 약대로 20",
    "lat": 37.51244393500935,
    "lng": 126.7667536926579,
    "phone": "",
    "url": "http://place.map.kakao.com/27024044",
    "category": "부동산 > 주거시설 > 아파트"
  },
  {
    "id": "11199360",
    "name": "하얀마을아이파크아파트",
    "address": "경기 부천시 원미구 상동 570-1",
    "road_address": "경기 부천시 원미구 조마루로 84",
    "lat": 37.499535577165354,
    "lng": 126.75316327360501,
    "phone": "",
    "url": "http://place.map.kakao.com/11199360",
    "category": "부동산 > 주거시설 > 아파트"
  },
  {
    "id": "23798721",
    "name": "하얀마을 아이파크 상가",
    "address": "경기 부천시 원미구 상동 570-1",
    "road_address": "경기 부천시 원미구 상동로 22",
    "lat": 37.4990394050405,
    "lng": 126.752006886786,
    "phone": "",
    "url": "http://place.map.kakao.com/23798721",
    "category": "가정,생활 > 상가,아케이드 > 아파트상가"
  },
  {
    "id": "25980823",
    "name": "안산아이파크아파트",
    "address": "경기 안산시 단원구 신길동 1679",
    "road_address": "경기 안산시 단원구 도일로 46",
    "lat": 37.334370413198435,
    "lng": 126.7856205707325,
    "phone": "",
    "url": "http://place.map.kakao.com/25980823",
    "category": "부동산 > 주거시설 > 아파트"
  },
  {
    "id": "11195051",
    "name": "센트럴아이파크아파트",
    "address": "경기 군포시 대야미동 636-3",
    "road_address": "경기 군포시 대야2로143번길 25",
    "lat": 37.33207265935448,
    "lng": 126.91524556950864,
    "phone": "",
    "url": "http://place.map.kakao.com/11195051",
    "category": "부동산 > 주거시설 > 아파트"
  },
  {
    "id": "23804026",
    "name": "센트럴아이파크아파트 상가동",
    "address": "경기 군포시 대야미동 636-3",
    "road_address": "경기 군포시 대야2로143번길 25-1",
    "lat": 37.331474761604,
    "lng": 126.91578785632,
    "phone": "",
    "url": "http://place.map.kakao.com/23804026",
    "category": "가정,생활 > 상가,아케이드 > 아파트상가"
  },
  {
    "id": "160227109",
    "name": "평촌자이아이파크아파트",
    "address": "경기 안양시 동안구 비산동 1185",
    "road_address": "경기 안양시 동안구 비산로 22",
    "lat": 37.402035378184365,
    "lng": 126.93327937862605,
    "phone": "",
    "url": "http://place.map.kakao.com/160227109",
    "category": "부동산 > 주거시설 > 아파트"
  },
  {
    "id": "1694812166",
    "name": "평촌더샵아이파크아파트",
    "address": "경기 안양시 동안구 호계동 1287",
    "road_address": "경기 안양시 동안구 경수대로610번길 36",
    "lat": 37.37643341837563,
    "lng": 126.95815671064967,
    "phone": "",
    "url": "http://place.map.kakao.com/1694812166",
    "category": "부동산 > 주거시설 > 아파트"
  },
  {
    "id": "11138028",
    "name": "석수아이파크아파트",
    "address": "경기 안양시 만안구 석수동 794",
    "road_address": "경기 안양시 만안구 충훈로 52",
    "lat": 37.40602583219584,
    "lng": 126.90199709706363,
    "phone": "",
    "url": "http://place.map.kakao.com/11138028",
    "category": "부동산 > 주거시설 > 아파트"
  },
  {
    "id": "352055181",
    "name": "호현센트럴아이파크아파트 (2028년05월예정)",
    "address": "경기 안양시 만안구 박달동 111-1",
    "road_address": "",
    "lat": 37.4039392680909,
    "lng": 126.904441686659,
    "phone": "",
    "url": "http://place.map.kakao.com/352055181",
    "category": "부동산 > 주거시설 > 아파트"
  },
  {
    "id": "1045715730",
    "name": "안양역센트럴아이파크수자인아파트 (2029년04월예정)",
    "address": "경기 안양시 만안구 안양동 841-5",
    "road_address": "",
    "lat": 37.40445415373611,
    "lng": 126.91819331699939,
    "phone": "",
    "url": "http://place.map.kakao.com/1045715730",
    "category": "부동산 > 주거시설 > 아파트"
  },
  {
    "id": "601745141",
    "name": "다산아이파크아파트",
    "address": "경기 남양주시 다산동 6031",
    "road_address": "경기 남양주시 다산순환로 333",
    "lat": 37.62697568371838,
    "lng": 127.15684415916404,
    "phone": "",
    "url": "http://place.map.kakao.com/601745141",
    "category": "부동산 > 주거시설 > 아파트"
  },
  {
    "id": "11205666",
    "name": "호평마을아이파크아파트",
    "address": "경기 남양주시 호평동 612",
    "road_address": "경기 남양주시 늘을3로 7",
    "lat": 37.66023496272489,
    "lng": 127.240586033954,
    "phone": "",
    "url": "http://place.map.kakao.com/11205666",
    "category": "부동산 > 주거시설 > 아파트"
  },
  {
    "id": "11090980",
    "name": "덕소아이파크아파트",
    "address": "경기 남양주시 와부읍 덕소리 612",
    "road_address": "경기 남양주시 와부읍 월문천로 95",
    "lat": 37.58800287103674,
    "lng": 127.2213048147618,
    "phone": "",
    "url": "http://place.map.kakao.com/11090980",
    "category": "부동산 > 주거시설 > 아파트"
  },
  {
    "id": "19806992",
    "name": "별내아이파크2차아파트",
    "address": "경기 남양주시 별내동 852",
    "road_address": "경기 남양주시 덕송1로 30",
    "lat": 37.66439831510265,
    "lng": 127.11699711917787,
    "phone": "",
    "url": "http://place.map.kakao.com/19806992",
    "category": "부동산 > 주거시설 > 아파트"
  },
  {
    "id": "11506145",
    "name": "남양주별내아이파크1차아파트",
    "address": "경기 남양주시 별내동 854",
    "road_address": "경기 남양주시 별내3로 285",
    "lat": 37.66209007240916,
    "lng": 127.11783217543365,
    "phone": "",
    "url": "http://place.map.kakao.com/11506145",
    "category": "부동산 > 주거시설 > 아파트"
  },
  {
    "id": "11361738",
    "name": "오남아이파크아파트",
    "address": "경기 남양주시 오남읍 오남리 891",
    "road_address": "경기 남양주시 오남읍 진건오남로759번길 110",
    "lat": 37.696541581686574,
    "lng": 127.1995754744677,
    "phone": "",
    "url": "http://place.map.kakao.com/11361738",
    "category": "부동산 > 주거시설 > 아파트"
  },
  {
    "id": "2007659325",
    "name": "다산아이파크상가",
    "address": "경기 남양주시 다산동 5804-5",
    "road_address": "경기 남양주시 다산순환로 325",
    "lat": 37.6278716237784,
    "lng": 127.157250462055,
    "phone": "",
    "url": "http://place.map.kakao.com/2007659325",
    "category": "가정,생활 > 상가,아케이드 > 아파트상가"
  },
  {
    "id": "23806304",
    "name": "호평마을아이파크아파트 상가",
    "address": "경기 남양주시 호평동 612",
    "road_address": "경기 남양주시 늘을3로 11",
    "lat": 37.6594449880735,
    "lng": 127.240937076718,
    "phone": "",
    "url": "http://place.map.kakao.com/23806304",
    "category": "가정,생활 > 상가,아케이드 > 아파트상가"
  },
  {
    "id": "26443164",
    "name": "오남아이파크 상가동",
    "address": "경기 남양주시 오남읍 오남리 891",
    "road_address": "경기 남양주시 오남읍 진건오남로759번길 108",
    "lat": 37.696901270367,
    "lng": 127.197852943198,
    "phone": "",
    "url": "http://place.map.kakao.com/26443164",
    "category": "가정,생활 > 상가,아케이드 > 아파트상가"
  },
  {
    "id": "11348730",
    "name": "봉담아이파크아파트",
    "address": "경기 화성시 봉담읍 와우리 590",
    "road_address": "경기 화성시 봉담읍 와우로34번길 11",
    "lat": 37.21297821113485,
    "lng": 126.97080758861833,
    "phone": "",
    "url": "http://place.map.kakao.com/11348730",
    "category": "부동산 > 주거시설 > 아파트"
  },
  {
    "id": "1083445578",
    "name": "반정아이파크캐슬5단지아파트",
    "address": "경기 화성시 반정동 637",
    "road_address": "경기 화성시 동탄지성로469번길 60",
    "lat": 37.23704917413155,
    "lng": 127.04281306790689,
    "phone": "",
    "url": "http://place.map.kakao.com/1083445578",
    "category": "부동산 > 주거시설 > 아파트"
  },
  {
    "id": "1225787544",
    "name": "반정아이파크캐슬4단지아파트",
    "address": "경기 화성시 반정동 623",
    "road_address": "경기 화성시 동탄지성로469번길 59",
    "lat": 37.23763091260081,
    "lng": 127.04122437645232,
    "phone": "",
    "url": "http://place.map.kakao.com/1225787544",
    "category": "부동산 > 주거시설 > 아파트"
  },
  {
    "id": "11270085",
    "name": "남양아이파크아파트",
    "address": "경기 화성시 남양읍 남양리 2048",
    "road_address": "경기 화성시 남양읍 역골동로 70",
    "lat": 37.20664247502085,
    "lng": 126.83245738079842,
    "phone": "",
    "url": "http://place.map.kakao.com/11270085",
    "category": "부동산 > 주거시설 > 아파트"
  },
  {
    "id": "1424349869",
    "name": "동탄호수공원아이파크아파트",
    "address": "경기 화성시 장지동 968",
    "road_address": "경기 화성시 동탄순환대로8길 14",
    "lat": 37.1646885940113,
    "lng": 127.10875446101402,
    "phone": "",
    "url": "http://place.map.kakao.com/1424349869",
    "category": "부동산 > 주거시설 > 아파트"
  },
  {
    "id": "27332428",
    "name": "동탄2아이파크2단지아파트",
    "address": "경기 화성시 장지동 1011",
    "road_address": "경기 화성시 동탄대로4길 143",
    "lat": 37.16015345005971,
    "lng": 127.12096753989418,
    "phone": "",
    "url": "http://place.map.kakao.com/27332428",
    "category": "부동산 > 주거시설 > 아파트"
  },
  {
    "id": "11506246",
    "name": "시범한빛마을동탄아이파크아파트",
    "address": "경기 화성시 반송동 85",
    "road_address": "경기 화성시 동탄지성로 42",
    "lat": 37.20657790028997,
    "lng": 127.07031180774645,
    "phone": "",
    "url": "http://place.map.kakao.com/11506246",
    "category": "부동산 > 주거시설 > 아파트"
  },
  {
    "id": "27332415",
    "name": "동탄2아이파크1단지아파트",
    "address": "경기 화성시 장지동 1010",
    "road_address": "경기 화성시 동탄대로4길 123",
    "lat": 37.16193507744066,
    "lng": 127.12073507843982,
    "phone": "",
    "url": "http://place.map.kakao.com/27332415",
    "category": "부동산 > 주거시설 > 아파트"
  },
  {
    "id": "1859941400",
    "name": "병점역아이파크캐슬아파트",
    "address": "경기 화성시 병점동 881",
    "road_address": "경기 화성시 병점노을로 31",
    "lat": 37.20291750836868,
    "lng": 127.02739523012409,
    "phone": "",
    "url": "http://place.map.kakao.com/1859941400",
    "category": "부동산 > 주거시설 > 아파트"
  },
  {
    "id": "23797485",
    "name": "동탄시범한빛마을 동탄아이파크 상가동",
    "address": "경기 화성시 반송동 85",
    "road_address": "경기 화성시 동탄반석로 193",
    "lat": 37.2060687886956,
    "lng": 127.071843368931,
    "phone": "",
    "url": "http://place.map.kakao.com/23797485",
    "category": "가정,생활 > 상가,아케이드 > 아파트상가"
  },
  {
    "id": "26450506",
    "name": "남양 아이파크 상가동",
    "address": "경기 화성시 남양읍 남양리 2048",
    "road_address": "경기 화성시 남양읍 역골동로 68",
    "lat": 37.2064002603803,
    "lng": 126.831939726677,
    "phone": "",
    "url": "http://place.map.kakao.com/26450506",
    "category": "가정,생활 > 상가,아케이드 > 아파트상가"
  },
  {
    "id": "1191849333",
    "name": "평택비전아이파크아파트",
    "address": "경기 평택시 용이동 639",
    "road_address": "경기 평택시 용죽1로 65",
    "lat": 36.99924957678731,
    "lng": 127.12517333763338,
    "phone": "",
    "url": "http://place.map.kakao.com/1191849333",
    "category": "부동산 > 주거시설 > 아파트"
  },
  {
    "id": "11374852",
    "name": "오산고현아이파크아파트",
    "address": "경기 오산시 고현동 270",
    "road_address": "경기 오산시 남부대로 430-12",
    "lat": 37.13341361436384,
    "lng": 127.07937343846778,
    "phone": "",
    "url": "http://place.map.kakao.com/11374852",
    "category": "부동산 > 주거시설 > 아파트"
  },
  {
    "id": "535653395",
    "name": "천안아이파크시티아파트 (2027년12월예정)",
    "address": "충남 천안시 서북구 성성동 34-4",
    "road_address": "",
    "lat": 36.84319862614457,
    "lng": 127.14086126954881,
    "phone": "",
    "url": "http://place.map.kakao.com/535653395",
    "category": "부동산 > 주거시설 > 아파트"
  },
  {
    "id": "11530082",
    "name": "백석마을1차아이파크아파트",
    "address": "충남 천안시 서북구 백석동 941",
    "road_address": "충남 천안시 서북구 한들3로 100",
    "lat": 36.83263208766115,
    "lng": 127.12488340734168,
    "phone": "",
    "url": "http://place.map.kakao.com/11530082",
    "category": "부동산 > 주거시설 > 아파트"
  },
  {
    "id": "1724678160",
    "name": "천안아이파크시티2단지아파트 (2028년08월예정)",
    "address": "충남 천안시 서북구 부대동 409-1",
    "road_address": "",
    "lat": 36.844897104462945,
    "lng": 127.14543877486577,
    "phone": "",
    "url": "http://place.map.kakao.com/1724678160",
    "category": "부동산 > 주거시설 > 아파트"
  },
  {
    "id": "26437639",
    "name": "천안백석3차아이파크아파트",
    "address": "충남 천안시 서북구 백석동 1200",
    "road_address": "충남 천안시 서북구 한들3로 36-17",
    "lat": 36.82773909099165,
    "lng": 127.12572175227432,
    "phone": "",
    "url": "http://place.map.kakao.com/26437639",
    "category": "부동산 > 주거시설 > 아파트"
  },
  {
    "id": "18080796",
    "name": "천안백석2차아이파크아파트",
    "address": "충남 천안시 서북구 백석동 1178",
    "road_address": "충남 천안시 서북구 한들3로 35-23",
    "lat": 36.82512785600653,
    "lng": 127.12121264041149,
    "phone": "",
    "url": "http://place.map.kakao.com/18080796",
    "category": "부동산 > 주거시설 > 아파트"
  },
  {
    "id": "26439816",
    "name": "오산고현아이파크 상가동",
    "address": "경기 오산시 고현동 270",
    "road_address": "경기 오산시 남부대로 430-12",
    "lat": 37.133941984192,
    "lng": 127.081516799604,
    "phone": "",
    "url": "http://place.map.kakao.com/26439816",
    "category": "가정,생활 > 상가,아케이드 > 아파트상가"
  },
  {
    "id": "1678568002",
    "name": "천안부성5지구아이파크아파트 (예정)",
    "address": "충남 천안시 서북구 부대동 354-24",
    "road_address": "",
    "lat": 36.8487991471495,
    "lng": 127.14224617246,
    "phone": "",
    "url": "http://place.map.kakao.com/1678568002",
    "category": "부동산 > 주거시설 > 아파트"
  },
  {
    "id": "1678485924",
    "name": "천안부성6지구아이파크아파트 (예정)",
    "address": "충남 천안시 서북구 성성동 39-7",
    "road_address": "충남 천안시 서북구 업성수변로 60",
    "lat": 36.8444159113862,
    "lng": 127.13865368213506,
    "phone": "",
    "url": "http://place.map.kakao.com/1678485924",
    "category": "부동산 > 주거시설 > 아파트"
  },
  {
    "id": "11270710",
    "name": "산들아이파크아파트",
    "address": "경기 의정부시 민락동 694",
    "road_address": "경기 의정부시 오목로 170",
    "lat": 37.74127858761064,
    "lng": 127.098116468406,
    "phone": "",
    "url": "http://place.map.kakao.com/11270710",
    "category": "부동산 > 주거시설 > 아파트"
  },
  {
    "id": "11143670",
    "name": "상록아이파크아파트",
    "address": "경기 의정부시 신곡동 767-2",
    "road_address": "경기 의정부시 부용로 174",
    "lat": 37.75133536862785,
    "lng": 127.07591212236416,
    "phone": "",
    "url": "http://place.map.kakao.com/11143670",
    "category": "부동산 > 주거시설 > 아파트"
  },
  {
    "id": "11324645",
    "name": "금오현대아이파크아파트",
    "address": "경기 의정부시 금오동 469-4",
    "road_address": "경기 의정부시 부용로 87",
    "lat": 37.75164318437138,
    "lng": 127.0675473185266,
    "phone": "",
    "url": "http://place.map.kakao.com/11324645",
    "category": "부동산 > 주거시설 > 아파트"
  },
  {
    "id": "26446247",
    "name": "상록아이파크 상가동",
    "address": "경기 의정부시 신곡동 767-2",
    "road_address": "경기 의정부시 부용로 174",
    "lat": 37.7518903115367,
    "lng": 127.075994389048,
    "phone": "",
    "url": "http://place.map.kakao.com/26446247",
    "category": "가정,생활 > 상가,아케이드 > 아파트상가"
  },
  {
    "id": "921007088",
    "name": "의정부센트럴시티아이파크아파트 (예정)",
    "address": "경기 의정부시 의정부동 253-19",
    "road_address": "",
    "lat": 37.7421852082806,
    "lng": 127.043845485018,
    "phone": "",
    "url": "http://place.map.kakao.com/921007088",
    "category": "부동산 > 주거시설 > 아파트"
  },
  {
    "id": "26450571",
    "name": "현대아이파크아파트 상가동",
    "address": "경기 의정부시 금오동 469-4",
    "road_address": "경기 의정부시 부용로95번길 25",
    "lat": 37.7519853326907,
    "lng": 127.06792889553,
    "phone": "",
    "url": "http://place.map.kakao.com/26450571",
    "category": "가정,생활 > 상가,아케이드 > 아파트상가"
  },
  {
    "id": "11329569",
    "name": "도림아이파크아파트",
    "address": "인천 남동구 도림동 651-1",
    "road_address": "인천 남동구 도리미로 8",
    "lat": 37.42251441808128,
    "lng": 126.73041508489082,
    "phone": "",
    "url": "http://place.map.kakao.com/11329569",
    "category": "부동산 > 주거시설 > 아파트"
  },
  {
    "id": "43013849",
    "name": "운정아이파크포레스트아파트 (2028년12월예정)",
    "address": "경기 파주시 서패동 432",
    "road_address": "",
    "lat": 37.71323932932881,
    "lng": 126.7061361022046,
    "phone": "",
    "url": "http://place.map.kakao.com/43013849",
    "category": "부동산 > 주거시설 > 아파트"
  },
  {
    "id": "1025458459",
    "name": "해솔마을8단지아이파크더테라스",
    "address": "경기 파주시 와동동 1411",
    "road_address": "경기 파주시 가온로 200",
    "lat": 37.720899243411274,
    "lng": 126.75409452356531,
    "phone": "",
    "url": "http://place.map.kakao.com/1025458459",
    "category": "부동산 > 주거시설 > 아파트"
  },
  {
    "id": "1536174379",
    "name": "한울마을1단지운정신도시아이파크아파트",
    "address": "경기 파주시 동패동 1781",
    "road_address": "경기 파주시 심학산로 384",
    "lat": 37.7156716401502,
    "lng": 126.73449077483106,
    "phone": "",
    "url": "http://place.map.kakao.com/1536174379",
    "category": "부동산 > 주거시설 > 아파트"
  },
  {
    "id": "11195052",
    "name": "산내마을11단지현대아이파크아파트",
    "address": "경기 파주시 목동동 101",
    "road_address": "경기 파주시 와석순환로 307",
    "lat": 37.72531854464219,
    "lng": 126.73943482910305,
    "phone": "",
    "url": "http://place.map.kakao.com/11195052",
    "category": "부동산 > 주거시설 > 아파트"
  },
  {
    "id": "8419083",
    "name": "한빛마을3단지자유로아이파크아파트",
    "address": "경기 파주시 야당동 975",
    "road_address": "경기 파주시 한빛로 11",
    "lat": 37.71238054467973,
    "lng": 126.75107985155455,
    "phone": "",
    "url": "http://place.map.kakao.com/8419083",
    "category": "부동산 > 주거시설 > 아파트"
  },
  {
    "id": "1426618311",
    "name": "광명센트럴아이파크아파트",
    "address": "경기 광명시 광명동 88-14",
    "road_address": "경기 광명시 광이로 49",
    "lat": 37.4829564083767,
    "lng": 126.857843630786,
    "phone": "",
    "url": "http://place.map.kakao.com/1426618311",
    "category": "부동산 > 주거시설 > 아파트"
  },
  {
    "id": "304832362",
    "name": "김포한강아이파크아파트",
    "address": "경기 김포시 구래동 6874-20",
    "road_address": "경기 김포시 김포한강4로420번길 100",
    "lat": 37.65134438396716,
    "lng": 126.63289782225176,
    "phone": "",
    "url": "http://place.map.kakao.com/304832362",
    "category": "부동산 > 주거시설 > 아파트"
  },
  {
    "id": "27465280",
    "name": "김포사우아이파크아파트",
    "address": "경기 김포시 사우동 1481",
    "road_address": "경기 김포시 사우로 51",
    "lat": 37.62156415829895,
    "lng": 126.72645040166606,
    "phone": "",
    "url": "http://place.map.kakao.com/27465280",
    "category": "부동산 > 주거시설 > 아파트"
  },
  {
    "id": "254752659",
    "name": "광주행정타운아이파크아파트",
    "address": "경기 광주시 송정동 662",
    "road_address": "경기 광주시 송정2길 37",
    "lat": 37.4199003756555,
    "lng": 127.254218572653,
    "phone": "",
    "url": "http://place.map.kakao.com/254752659",
    "category": "부동산 > 주거시설 > 아파트"
  },
  {
    "id": "26873616",
    "name": "태전아이파크아파트",
    "address": "경기 광주시 태전동 735",
    "road_address": "경기 광주시 태봉로 110",
    "lat": 37.383500294839564,
    "lng": 127.22945776646824,
    "phone": "",
    "url": "http://place.map.kakao.com/26873616",
    "category": "부동산 > 주거시설 > 아파트"
  },
  {
    "id": "391097404",
    "name": "곤지암역센트럴아이파크아파트 (2027년05월예정)",
    "address": "경기 광주시 곤지암읍 곤지암리 637",
    "road_address": "",
    "lat": 37.3519898054689,
    "lng": 127.344532273064,
    "phone": "",
    "url": "http://place.map.kakao.com/391097404",
    "category": "부동산 > 주거시설 > 아파트"
  },
  {
    "id": "11277723",
    "name": "양수리아이파크1단지아파트",
    "address": "경기 양평군 양서면 양수리 1185",
    "road_address": "경기 양평군 양서면 양수로155번길 16",
    "lat": 37.54365142674845,
    "lng": 127.31797565400423,
    "phone": "",
    "url": "http://place.map.kakao.com/11277723",
    "category": "부동산 > 주거시설 > 아파트"
  },
  {
    "id": "1027106519",
    "name": "여주아이파크아파트",
    "address": "경기 여주시 현암동 695",
    "road_address": "경기 여주시 현암로 20",
    "lat": 37.31195860926729,
    "lng": 127.63519663170565,
    "phone": "",
    "url": "http://place.map.kakao.com/1027106519",
    "category": "부동산 > 주거시설 > 아파트"
  },
  {
    "id": "11357691",
    "name": "고읍아이파크아파트",
    "address": "경기 양주시 고읍동 94",
    "road_address": "경기 양주시 고덕로 340-12",
    "lat": 37.80169802670606,
    "lng": 127.077762238139,
    "phone": "",
    "url": "http://place.map.kakao.com/11357691",
    "category": "부동산 > 주거시설 > 아파트"
  },
  {
    "id": "27299315",
    "name": "갈매역아이파크아파트",
    "address": "경기 구리시 갈매동 596",
    "road_address": "경기 구리시 경춘북로 252",
    "lat": 37.63449543966042,
    "lng": 127.11715641262532,
    "phone": "",
    "url": "http://place.map.kakao.com/27299315",
    "category": "부동산 > 주거시설 > 아파트"
  },
  {
    "id": "938961843",
    "name": "갈매역아이파크애비뉴상가",
    "address": "경기 구리시 갈매동 596",
    "road_address": "경기 구리시 경춘북로 252",
    "lat": 37.633323065032044,
    "lng": 127.11735056598279,
    "phone": "",
    "url": "http://place.map.kakao.com/938961843",
    "category": "가정,생활 > 상가,아케이드 > 아파트상가"
  },
  {
    "id": "1948850130",
    "name": "포천이동아이파크아파트",
    "address": "경기 포천시 이동면 장암리 527-1",
    "road_address": "경기 포천시 이동면 화동로 2144-74",
    "lat": 38.0362446951024,
    "lng": 127.372086073243,
    "phone": "",
    "url": "http://place.map.kakao.com/1948850130",
    "category": "부동산 > 주거시설 > 아파트"
  },
  {
    "id": "8089291",
    "name": "산내들아이파크아파트",
    "address": "경기 포천시 영북면 운천리 353-1",
    "road_address": "경기 포천시 영북면 영북로 206",
    "lat": 38.091698517641,
    "lng": 127.276506535179,
    "phone": "",
    "url": "http://place.map.kakao.com/8089291",
    "category": "부동산 > 주거시설 > 아파트"
  },
  {
    "id": "27024004",
    "name": "포천아이파크1차아파트",
    "address": "경기 포천시 군내면 구읍리 740",
    "road_address": "경기 포천시 군내면 호국로 1536-10",
    "lat": 37.89035343436749,
    "lng": 127.20216881908397,
    "phone": "",
    "url": "http://place.map.kakao.com/27024004",
    "category": "부동산 > 주거시설 > 아파트"
  },
  {
    "id": "1554484411",
    "name": "포천아이파크2차아파트",
    "address": "경기 포천시 군내면 구읍리 743",
    "road_address": "경기 포천시 군내면 호국로 1536-22",
    "lat": 37.88993712034265,
    "lng": 127.20326017673749,
    "phone": "",
    "url": "http://place.map.kakao.com/1554484411",
    "category": "부동산 > 주거시설 > 아파트"
  },
  {
    "id": "11345867",
    "name": "송내아이파크아파트",
    "address": "경기 동두천시 송내동 664-4",
    "road_address": "경기 동두천시 강변로 160",
    "lat": 37.88641375401755,
    "lng": 127.04941355565845,
    "phone": "",
    "url": "http://place.map.kakao.com/11345867",
    "category": "부동산 > 주거시설 > 아파트"
  },
  {
    "id": "26439286",
    "name": "북수원아이파크 상가동",
    "address": "경기 수원시 장안구 파장동 632",
    "road_address": "경기 수원시 장안구 경수대로 1110-15",
    "lat": 37.3111807200738,
    "lng": 126.991571121952,
    "phone": "",
    "url": "http://place.map.kakao.com/26439286",
    "category": "가정,생활 > 상가,아케이드 > 아파트상가"
  },
  {
    "id": "11359930",
    "name": "하남풍산아이파크1단지아파트",
    "address": "경기 하남시 덕풍동 823",
    "road_address": "경기 하남시 덕풍남로 11",
    "lat": 37.54572643441337,
    "lng": 127.2084245561425,
    "phone": "",
    "url": "http://place.map.kakao.com/11359930",
    "category": "부동산 > 주거시설 > 아파트"
  },
  {
    "id": "11351444",
    "name": "하남풍산아이파크5단지아파트",
    "address": "경기 하남시 덕풍동 731",
    "road_address": "경기 하남시 덕풍서로 65",
    "lat": 37.553112470693776,
    "lng": 127.20345207918074,
    "phone": "",
    "url": "http://place.map.kakao.com/11351444",
    "category": "부동산 > 주거시설 > 아파트"
  },
  {
    "id": "23800396",
    "name": "아이파크5단지아파트 상가동",
    "address": "경기 하남시 덕풍동 731",
    "road_address": "경기 하남시 덕풍서로 65-1",
    "lat": 37.5528123414313,
    "lng": 127.204030689549,
    "phone": "",
    "url": "http://place.map.kakao.com/23800396",
    "category": "가정,생활 > 상가,아케이드 > 아파트상가"
  },
  {
    "id": "26443290",
    "name": "하남풍산아이파크1단지아파트 상가동",
    "address": "경기 하남시 덕풍동 823",
    "road_address": "경기 하남시 덕풍남로 11-1",
    "lat": 37.5471445251154,
    "lng": 127.209487687741,
    "phone": "",
    "url": "http://place.map.kakao.com/26443290",
    "category": "가정,생활 > 상가,아케이드 > 아파트상가"
  },
  {
    "id": "27500693",
    "name": "연천아이파크아파트",
    "address": "경기 연천군 연천읍 통현리 215-7",
    "road_address": "경기 연천군 연천읍 평화로 1239",
    "lat": 38.0795308718517,
    "lng": 127.075525265763,
    "phone": "",
    "url": "http://place.map.kakao.com/27500693",
    "category": "부동산 > 주거시설 > 아파트"
  },
  {
    "id": "11101189",
    "name": "양수리아이파크2단지아파트",
    "address": "경기 양평군 양서면 양수리 1186",
    "road_address": "경기 양평군 양서면 양수로155번길 15",
    "lat": 37.54316020519773,
    "lng": 127.31837639711448,
    "phone": "",
    "url": "http://place.map.kakao.com/11101189",
    "category": "부동산 > 주거시설 > 아파트"
  },
  {
    "id": "1100682043",
    "name": "춘천레이크시티아이파크아파트 (2026년08월예정)",
    "address": "강원특별자치도 춘천시 삼천동 22-19",
    "road_address": "",
    "lat": 37.8701701200695,
    "lng": 127.709824681726,
    "phone": "",
    "url": "http://place.map.kakao.com/1100682043",
    "category": "부동산 > 주거시설 > 아파트"
  },
  {
    "id": "876530765",
    "name": "춘천레이크시티2차아이파크아파트 (2028년09월예정)",
    "address": "강원특별자치도 춘천시 삼천동 22-1",
    "road_address": "",
    "lat": 37.8714702405339,
    "lng": 127.709513245109,
    "phone": "",
    "url": "http://place.map.kakao.com/876530765",
    "category": "부동산 > 주거시설 > 아파트"
  },
  {
    "id": "11196714",
    "name": "신흥아이파크아파트",
    "address": "인천 중구 신흥동3가 7-235",
    "road_address": "인천 중구 인항로 30",
    "lat": 37.45640159175091,
    "lng": 126.63337360190643,
    "phone": "",
    "url": "http://place.map.kakao.com/11196714",
    "category": "부동산 > 주거시설 > 아파트"
  },
  {
    "id": "920677625",
    "name": "부평아이파크아파트",
    "address": "인천 부평구 산곡동 91-2",
    "road_address": "인천 부평구 길주로364번길 9",
    "lat": 37.50825269113274,
    "lng": 126.7030214555672,
    "phone": "",
    "url": "http://place.map.kakao.com/920677625",
    "category": "부동산 > 주거시설 > 아파트"
  },
  {
    "id": "11336197",
    "name": "아이파크송도아파트",
    "address": "인천 연수구 송도동 3-46",
    "road_address": "인천 연수구 해돋이로6번길 7",
    "lat": 37.38765803906759,
    "lng": 126.6587091182855,
    "phone": "",
    "url": "http://place.map.kakao.com/11336197",
    "category": "부동산 > 주거시설 > 아파트"
  },
  {
    "id": "1693729994",
    "name": "송도아메리칸타운아이파크아파트",
    "address": "인천 연수구 송도동 155",
    "road_address": "인천 연수구 송도과학로27번길 15",
    "lat": 37.38505155031,
    "lng": 126.662216819047,
    "phone": "",
    "url": "http://place.map.kakao.com/1693729994",
    "category": "부동산 > 주거시설 > 아파트"
  },
  {
    "id": "26439690",
    "name": "아이파크송도아파트 상가",
    "address": "인천 연수구 송도동 3-46",
    "road_address": "인천 연수구 해돋이로6번길 7",
    "lat": 37.3888140845717,
    "lng": 126.658410280999,
    "phone": "",
    "url": "http://place.map.kakao.com/26439690",
    "category": "가정,생활 > 상가,아케이드 > 아파트상가"
  },
  {
    "id": "26756955",
    "name": "부천아이파크아파트 206동",
    "address": "경기 부천시 원미구 약대동 216-1",
    "road_address": "경기 부천시 원미구 평천로 679",
    "lat": 37.51377273489843,
    "lng": 126.76620775972283,
    "phone": "",
    "url": "http://place.map.kakao.com/26756955",
    "category": "부동산 > 주거시설 > 아파트 > 아파트 동"
  },
  {
    "id": "11029399",
    "name": "귤현아이파크아파트",
    "address": "인천 계양구 귤현동 489",
    "road_address": "인천 계양구 장군봉길 12",
    "lat": 37.56984094769072,
    "lng": 126.74910092918998,
    "phone": "",
    "url": "http://place.map.kakao.com/11029399",
    "category": "부동산 > 주거시설 > 아파트"
  },
  {
    "id": "8173199",
    "name": "검단2차아이파크아파트",
    "address": "인천 서구 마전동 999-1",
    "road_address": "인천 서구 검단로540번길 59",
    "lat": 37.59914142382412,
    "lng": 126.66626100647306,
    "phone": "",
    "url": "http://place.map.kakao.com/8173199",
    "category": "부동산 > 주거시설 > 아파트"
  },
  {
    "id": "11375943",
    "name": "검단1차아이파크아파트",
    "address": "인천 서구 마전동 998-1",
    "road_address": "인천 서구 완정로92번길 28",
    "lat": 37.60197572288738,
    "lng": 126.66491660418954,
    "phone": "",
    "url": "http://place.map.kakao.com/11375943",
    "category": "부동산 > 주거시설 > 아파트"
  },
  {
    "id": "11521597",
    "name": "개금아이파크아파트",
    "address": "부산 부산진구 개금동 618-2",
    "road_address": "부산 부산진구 복지로 70",
    "lat": 35.147394623810655,
    "lng": 129.01828740239512,
    "phone": "",
    "url": "http://place.map.kakao.com/11521597",
    "category": "부동산 > 주거시설 > 아파트"
  },
  {
    "id": "73898844",
    "name": "서면아이파크1단지아파트",
    "address": "부산 부산진구 전포동 908",
    "road_address": "부산 부산진구 동성로 50",
    "lat": 35.155718273913585,
    "lng": 129.0694703878173,
    "phone": "",
    "url": "http://place.map.kakao.com/73898844",
    "category": "부동산 > 주거시설 > 아파트"
  },
  {
    "id": "11275219",
    "name": "용당현대아이파크아파트",
    "address": "부산 남구 용당동 99-10",
    "road_address": "부산 남구 동명로 26",
    "lat": 35.11898614645454,
    "lng": 129.0990584157786,
    "phone": "",
    "url": "http://place.map.kakao.com/11275219",
    "category": "부동산 > 주거시설 > 아파트"
  },
  {
    "id": "1808749071",
    "name": "서면아이파크2단지아파트",
    "address": "부산 부산진구 전포동 924",
    "road_address": "부산 부산진구 동성로 50",
    "lat": 35.15392906370584,
    "lng": 129.07054864320855,
    "phone": "",
    "url": "http://place.map.kakao.com/1808749071",
    "category": "부동산 > 주거시설 > 아파트"
  },
  {
    "id": "2061914061",
    "name": "서면아이파크1단지아파트 상가동",
    "address": "부산 부산진구 전포동 908",
    "road_address": "부산 부산진구 동성로 50",
    "lat": 35.154700741528,
    "lng": 129.068739072503,
    "phone": "",
    "url": "http://place.map.kakao.com/2061914061",
    "category": "가정,생활 > 상가,아케이드 > 아파트상가"
  },
  {
    "id": "27456263",
    "name": "대동아이파크아파트",
    "address": "부산 남구 대연동 1482-1",
    "road_address": "",
    "lat": 35.1408810086946,
    "lng": 129.09007610303,
    "phone": "",
    "url": "http://place.map.kakao.com/27456263",
    "category": "부동산 > 주거시설 > 아파트"
  },
  {
    "id": "459850770",
    "name": "동래래미안아이파크아파트",
    "address": "부산 동래구 온천동 1853",
    "road_address": "부산 동래구 금정마을로 147",
    "lat": 35.21113361382813,
    "lng": 129.0706006274093,
    "phone": "",
    "url": "http://place.map.kakao.com/459850770",
    "category": "부동산 > 주거시설 > 아파트"
  },
  {
    "id": "13561655",
    "name": "명륜아이파크1단지아파트",
    "address": "부산 동래구 명륜동 757",
    "road_address": "부산 동래구 명륜로 170",
    "lat": 35.20898606761428,
    "lng": 129.08404694029778,
    "phone": "",
    "url": "http://place.map.kakao.com/13561655",
    "category": "부동산 > 주거시설 > 아파트"
  },
  {
    "id": "18619593",
    "name": "명륜2차아이파크아파트",
    "address": "부산 동래구 명륜동 782",
    "road_address": "부산 동래구 시실로 49",
    "lat": 35.21630084575254,
    "lng": 129.08900404477893,
    "phone": "",
    "url": "http://place.map.kakao.com/18619593",
    "category": "부동산 > 주거시설 > 아파트"
  },
  {
    "id": "1947573860",
    "name": "명륜아이파크2단지아파트",
    "address": "부산 동래구 복천동 561",
    "road_address": "부산 동래구 동래로 117",
    "lat": 35.206296825544655,
    "lng": 129.0860467355022,
    "phone": "",
    "url": "http://place.map.kakao.com/1947573860",
    "category": "부동산 > 주거시설 > 아파트"
  },
  {
    "id": "18619596",
    "name": "명륜2차아이파크2단지아파트",
    "address": "부산 동래구 명륜동 788",
    "road_address": "부산 동래구 시실로 73-6",
    "lat": 35.21425343509811,
    "lng": 129.09145623479742,
    "phone": "",
    "url": "http://place.map.kakao.com/18619596",
    "category": "부동산 > 주거시설 > 아파트"
  },
  {
    "id": "1055920944",
    "name": "동래래미안아이파크 2단지 아파트 상가",
    "address": "부산 동래구 온천동 1853",
    "road_address": "부산 동래구 금정마을로 150",
    "lat": 35.2093651886309,
    "lng": 129.067828291058,
    "phone": "",
    "url": "http://place.map.kakao.com/1055920944",
    "category": "가정,생활 > 상가,아케이드 > 아파트상가"
  },
  {
    "id": "1050373994",
    "name": "동래래미안아이파크아파트 317동",
    "address": "부산 동래구 온천동 1853",
    "road_address": "부산 동래구 충렬대로107번길 65",
    "lat": 35.2105522654918,
    "lng": 129.073238653816,
    "phone": "",
    "url": "http://place.map.kakao.com/1050373994",
    "category": "가정,생활 > 상가,아케이드 > 아파트상가"
  },
  {
    "id": "1050307811",
    "name": "동래래미안아이파크아파트 315동",
    "address": "부산 동래구 온천동 1853",
    "road_address": "부산 동래구 충렬대로107번길 65",
    "lat": 35.2095231586236,
    "lng": 129.072817203209,
    "phone": "",
    "url": "http://place.map.kakao.com/1050307811",
    "category": "가정,생활 > 상가,아케이드 > 아파트상가"
  },
  {
    "id": "553313384",
    "name": "금양아이파크아파트",
    "address": "부산 수영구 남천동 10-2",
    "road_address": "부산 수영구 남천동로9번길 38",
    "lat": 35.14418634274828,
    "lng": 129.110817021252,
    "phone": "",
    "url": "http://place.map.kakao.com/553313384",
    "category": "부동산 > 주거시설 > 아파트"
  },
  {
    "id": "11217176",
    "name": "해운대아이파크아파트",
    "address": "부산 해운대구 우동 1408",
    "road_address": "부산 해운대구 마린시티2로 38",
    "lat": 35.15618387313527,
    "lng": 129.14260534415192,
    "phone": "",
    "url": "http://place.map.kakao.com/11217176",
    "category": "부동산 > 주거시설 > 아파트"
  },
  {
    "id": "11123599",
    "name": "수영만아이파크아파트",
    "address": "부산 수영구 민락동 336-36",
    "road_address": "부산 수영구 광안해변로 448",
    "lat": 35.16211555372248,
    "lng": 129.1296104094914,
    "phone": "",
    "url": "http://place.map.kakao.com/11123599",
    "category": "부동산 > 주거시설 > 아파트"
  },
  {
    "id": "27341800",
    "name": "명륜2차아이파크아파트 상가동",
    "address": "부산 동래구 명륜동 782",
    "road_address": "부산 동래구 시실로 49",
    "lat": 35.21655047088449,
    "lng": 129.08707122075612,
    "phone": "",
    "url": "http://place.map.kakao.com/27341800",
    "category": "가정,생활 > 상가,아케이드 > 아파트상가"
  },
  {
    "id": "1166087718",
    "name": "동래래미안아이파크아파트 201동",
    "address": "부산 동래구 온천동 1853",
    "road_address": "부산 동래구 금정마을로 147",
    "lat": 35.211295239994804,
    "lng": 129.06763019410448,
    "phone": "",
    "url": "http://place.map.kakao.com/1166087718",
    "category": "부동산 > 주거시설 > 아파트 > 아파트 동"
  },
  {
    "id": "11345705",
    "name": "삼덕아이파크아파트",
    "address": "대구 중구 삼덕동2가 29-1",
    "road_address": "대구 중구 공평로10길 60",
    "lat": 35.867195955269366,
    "lng": 128.6031117822024,
    "phone": "",
    "url": "http://place.map.kakao.com/11345705",
    "category": "부동산 > 주거시설 > 아파트"
  },
  {
    "id": "11312913",
    "name": "신천아이파크아파트",
    "address": "대구 동구 신천동 342-5",
    "road_address": "대구 동구 동부로30길 78",
    "lat": 35.87005872770747,
    "lng": 128.6287754181866,
    "phone": "",
    "url": "http://place.map.kakao.com/11312913",
    "category": "부동산 > 주거시설 > 아파트"
  },
  {
    "id": "386920949",
    "name": "범어아이파크아파트",
    "address": "대구 수성구 범어동 2300",
    "road_address": "대구 수성구 동대구로 230",
    "lat": 35.85091316534661,
    "lng": 128.62617768837532,
    "phone": "",
    "url": "http://place.map.kakao.com/386920949",
    "category": "부동산 > 주거시설 > 아파트"
  },
  {
    "id": "14683674",
    "name": "복현아이파크아파트",
    "address": "대구 북구 복현동 432-7",
    "road_address": "대구 북구 경대로27길 40",
    "lat": 35.8941382582862,
    "lng": 128.61769108303537,
    "phone": "",
    "url": "http://place.map.kakao.com/14683674",
    "category": "부동산 > 주거시설 > 아파트"
  },
  {
    "id": "1922016316",
    "name": "대구범어2차아이파크아파트",
    "address": "대구 수성구 범어동 650",
    "road_address": "대구 수성구 동대구로46길 33",
    "lat": 35.8508266464994,
    "lng": 128.627841763008,
    "phone": "",
    "url": "http://place.map.kakao.com/1922016316",
    "category": "부동산 > 주거시설 > 아파트"
  },
  {
    "id": "2085971428",
    "name": "침산동아이파크아파트 (예정)",
    "address": "대구 북구 침산동 260-12",
    "road_address": "",
    "lat": 35.8877317480099,
    "lng": 128.59039426069,
    "phone": "",
    "url": "http://place.map.kakao.com/2085971428",
    "category": "부동산 > 주거시설 > 아파트"
  },
  {
    "id": "27268402",
    "name": "강변아이파크아파트",
    "address": "대구 동구 검사동 975-7",
    "road_address": "대구 동구 해동로 230",
    "lat": 35.88437525584739,
    "lng": 128.65335911378463,
    "phone": "",
    "url": "http://place.map.kakao.com/27268402",
    "category": "부동산 > 주거시설 > 아파트"
  },
  {
    "id": "26414168",
    "name": "수성아이파크아파트",
    "address": "대구 수성구 파동 1000",
    "road_address": "대구 수성구 파동로22길 15",
    "lat": 35.81343505839137,
    "lng": 128.61846618027283,
    "phone": "",
    "url": "http://place.map.kakao.com/26414168",
    "category": "부동산 > 주거시설 > 아파트"
  },
  {
    "id": "1489093413",
    "name": "대구연경아이파크아파트",
    "address": "대구 동구 지묘동 1337",
    "road_address": "대구 동구 동화천로 369",
    "lat": 35.946434122984215,
    "lng": 128.63044376638865,
    "phone": "",
    "url": "http://place.map.kakao.com/1489093413",
    "category": "부동산 > 주거시설 > 아파트"
  },
  {
    "id": "21927330",
    "name": "대구월배2차아이파크아파트",
    "address": "대구 달서구 유천동 612",
    "road_address": "대구 달서구 월배로5길 76",
    "lat": 35.8181001614394,
    "lng": 128.51199314795394,
    "phone": "",
    "url": "http://place.map.kakao.com/21927330",
    "category": "부동산 > 주거시설 > 아파트"
  },
  {
    "id": "11290679",
    "name": "대구월배1차아이파크아파트",
    "address": "대구 달서구 유천동 605",
    "road_address": "대구 달서구 조암남로 182",
    "lat": 35.81529935257871,
    "lng": 128.5144980219782,
    "phone": "",
    "url": "http://place.map.kakao.com/11290679",
    "category": "부동산 > 주거시설 > 아파트"
  },
  {
    "id": "11260155",
    "name": "아이파크아파트",
    "address": "대구 북구 읍내동 397-5",
    "road_address": "대구 북구 칠곡중앙대로128길 10-6",
    "lat": 35.95204316450504,
    "lng": 128.55463791949626,
    "phone": "",
    "url": "http://place.map.kakao.com/11260155",
    "category": "부동산 > 주거시설 > 아파트"
  },
  {
    "id": "25733066",
    "name": "무등산아이파크아파트",
    "address": "광주 동구 학동 1022",
    "road_address": "광주 동구 남문로753번길 20",
    "lat": 35.13743140642276,
    "lng": 126.92283888658271,
    "phone": "",
    "url": "http://place.map.kakao.com/25733066",
    "category": "부동산 > 주거시설 > 아파트"
  },
  {
    "id": "1384873128",
    "name": "계림아이파크에스케이뷰아파트",
    "address": "광주 동구 계림동 1869",
    "road_address": "광주 동구 필문대로 70",
    "lat": 35.16150210212683,
    "lng": 126.92548221408205,
    "phone": "",
    "url": "http://place.map.kakao.com/1384873128",
    "category": "부동산 > 주거시설 > 아파트"
  },
  {
    "id": "506265639",
    "name": "광주센테니얼아이파크1단지아파트 (2027년11월예정)",
    "address": "광주 서구 화정동 23-27",
    "road_address": "",
    "lat": 35.15888968261624,
    "lng": 126.88017852070217,
    "phone": "",
    "url": "http://place.map.kakao.com/506265639",
    "category": "부동산 > 주거시설 > 아파트"
  },
  {
    "id": "1002803807",
    "name": "광주센테니얼아이파크2단지아파트 (2027년12월예정)",
    "address": "광주 서구 화정동 23-26",
    "road_address": "광주 서구 화운로230번길 20",
    "lat": 35.15888833997205,
    "lng": 126.87882852731634,
    "phone": "",
    "url": "http://place.map.kakao.com/1002803807",
    "category": "부동산 > 주거시설 > 아파트"
  },
  {
    "id": "11324140",
    "name": "용봉아이파크아파트",
    "address": "광주 북구 용봉동 1465",
    "road_address": "광주 북구 비엔날레로82번길 41",
    "lat": 35.17968354388479,
    "lng": 126.8911516309146,
    "phone": "",
    "url": "http://place.map.kakao.com/11324140",
    "category": "부동산 > 주거시설 > 아파트"
  },
  {
    "id": "11362485",
    "name": "운암산아이파크아파트",
    "address": "광주 북구 운암동 1011",
    "road_address": "광주 북구 서강로 77",
    "lat": 35.17951346826594,
    "lng": 126.86870334021162,
    "phone": "",
    "url": "http://place.map.kakao.com/11362485",
    "category": "부동산 > 주거시설 > 아파트"
  },
  {
    "id": "26449236",
    "name": "용봉 아이파크 상가동",
    "address": "광주 북구 용봉동 1465",
    "road_address": "광주 북구 비엔날레로 94",
    "lat": 35.18007214477353,
    "lng": 126.89028162196313,
    "phone": "",
    "url": "http://place.map.kakao.com/26449236",
    "category": "가정,생활 > 상가,아케이드 > 아파트상가"
  },
  {
    "id": "26441347",
    "name": "운암산아이파크아파트 상가동",
    "address": "광주 북구 운암동 1011",
    "road_address": "광주 북구 서강로 77",
    "lat": 35.17926164618661,
    "lng": 126.87005627275789,
    "phone": "",
    "url": "http://place.map.kakao.com/26441347",
    "category": "가정,생활 > 상가,아케이드 > 아파트상가"
  },
  {
    "id": "11037110",
    "name": "은어송마을3단지아이파크아파트",
    "address": "대전 동구 가오동 496",
    "road_address": "대전 동구 은어송로 117",
    "lat": 36.31109261650738,
    "lng": 127.46028144480768,
    "phone": "",
    "url": "http://place.map.kakao.com/11037110",
    "category": "부동산 > 주거시설 > 아파트"
  },
  {
    "id": "818390800",
    "name": "둔산자이아이파크아파트",
    "address": "대전 서구 탄방동 514-360",
    "road_address": "대전 서구 계룡로 520",
    "lat": 36.34242386655352,
    "lng": 127.38059765826938,
    "phone": "",
    "url": "http://place.map.kakao.com/818390800",
    "category": "부동산 > 주거시설 > 아파트"
  },
  {
    "id": "14821862",
    "name": "대전도안아이파크아파트",
    "address": "대전 서구 도안동 1362",
    "road_address": "대전 서구 도안동로 183",
    "lat": 36.322234049843864,
    "lng": 127.34615495268864,
    "phone": "",
    "url": "http://place.map.kakao.com/14821862",
    "category": "부동산 > 주거시설 > 아파트"
  },
  {
    "id": "1351380561",
    "name": "대전아이파크시티1단지아파트",
    "address": "대전 유성구 상대동 571",
    "road_address": "대전 유성구 상대복용로29번길 52",
    "lat": 36.337158246288276,
    "lng": 127.32998885986521,
    "phone": "",
    "url": "http://place.map.kakao.com/1351380561",
    "category": "부동산 > 주거시설 > 아파트"
  },
  {
    "id": "2080616197",
    "name": "대전아이파크시티2단지아파트",
    "address": "대전 유성구 상대동 580",
    "road_address": "대전 유성구 상대복용로29번길 51",
    "lat": 36.33502255170059,
    "lng": 127.32995312023456,
    "phone": "",
    "url": "http://place.map.kakao.com/2080616197",
    "category": "부동산 > 주거시설 > 아파트"
  },
  {
    "id": "11720591",
    "name": "우정아이파크아파트",
    "address": "울산 중구 우정동 689",
    "road_address": "울산 중구 우정2길 45",
    "lat": 35.560991771574244,
    "lng": 129.30889661304772,
    "phone": "",
    "url": "http://place.map.kakao.com/11720591",
    "category": "부동산 > 주거시설 > 아파트"
  },
  {
    "id": "22670536",
    "name": "약사아이파크아파트",
    "address": "울산 중구 약사동 1101",
    "road_address": "울산 중구 평산로 50",
    "lat": 35.57199840202121,
    "lng": 129.3379974175774,
    "phone": "",
    "url": "http://place.map.kakao.com/22670536",
    "category": "부동산 > 주거시설 > 아파트"
  },
  {
    "id": "27286209",
    "name": "복산아이파크아파트",
    "address": "울산 중구 복산동 776",
    "road_address": "울산 중구 계변로 96",
    "lat": 35.56439082002684,
    "lng": 129.3294361178544,
    "phone": "",
    "url": "http://place.map.kakao.com/27286209",
    "category": "부동산 > 주거시설 > 아파트"
  },
  {
    "id": "2066731976",
    "name": "태화강센트럴아이파크아파트 (2028년08월예정)",
    "address": "울산 중구 반구동 554-5",
    "road_address": "",
    "lat": 35.5522825464638,
    "lng": 129.347030334264,
    "phone": "",
    "url": "http://place.map.kakao.com/2066731976",
    "category": "부동산 > 주거시설 > 아파트"
  },
  {
    "id": "11076842",
    "name": "문수로아이파크1단지아파트",
    "address": "울산 남구 신정동 1639-1",
    "road_address": "울산 남구 문수로409번길 20",
    "lat": 35.53489584236903,
    "lng": 129.29877372252423,
    "phone": "",
    "url": "http://place.map.kakao.com/11076842",
    "category": "부동산 > 주거시설 > 아파트"
  },
  {
    "id": "11321371",
    "name": "문수로2차아이파크1단지아파트",
    "address": "울산 남구 신정동 1889",
    "road_address": "울산 남구 동산로69번길 13",
    "lat": 35.53690711317356,
    "lng": 129.30197956693664,
    "phone": "",
    "url": "http://place.map.kakao.com/11321371",
    "category": "부동산 > 주거시설 > 아파트"
  },
  {
    "id": "11062788",
    "name": "문수로2차아이파크2단지아파트",
    "address": "울산 남구 신정동 1890",
    "road_address": "울산 남구 동산로69번길 14",
    "lat": 35.53688813990763,
    "lng": 129.30410443589489,
    "phone": "",
    "url": "http://place.map.kakao.com/11062788",
    "category": "부동산 > 주거시설 > 아파트"
  },
  {
    "id": "11304707",
    "name": "대공원아이파크1단지아파트",
    "address": "울산 남구 신정동 1634",
    "road_address": "울산 남구 문수로410번길 10",
    "lat": 35.532943633272204,
    "lng": 129.2973819681763,
    "phone": "",
    "url": "http://place.map.kakao.com/11304707",
    "category": "부동산 > 주거시설 > 아파트"
  },
  {
    "id": "11373816",
    "name": "대공원아이파크2단지아파트",
    "address": "울산 남구 신정동 1676",
    "road_address": "울산 남구 대공원로99번길 38",
    "lat": 35.53050068153545,
    "lng": 129.29885551771315,
    "phone": "",
    "url": "http://place.map.kakao.com/11373816",
    "category": "부동산 > 주거시설 > 아파트"
  },
  {
    "id": "11071762",
    "name": "문수로아이파크2단지아파트",
    "address": "울산 남구 신정동 1639-51",
    "road_address": "울산 남구 문수로409번길 23",
    "lat": 35.536803617327045,
    "lng": 129.29776988291633,
    "phone": "",
    "url": "http://place.map.kakao.com/11071762",
    "category": "부동산 > 주거시설 > 아파트"
  },
  {
    "id": "12802970",
    "name": "문현아이파크아파트",
    "address": "울산 동구 방어동 1122",
    "road_address": "울산 동구 문현6길 19",
    "lat": 35.48646182050217,
    "lng": 129.4120742179971,
    "phone": "",
    "url": "http://place.map.kakao.com/12802970",
    "category": "부동산 > 주거시설 > 아파트"
  },
  {
    "id": "14660698",
    "name": "전하아이파크1단지아파트",
    "address": "울산 동구 전하동 640-1",
    "road_address": "울산 동구 봉수로 270",
    "lat": 35.510173192249624,
    "lng": 129.4225296077757,
    "phone": "",
    "url": "http://place.map.kakao.com/14660698",
    "category": "부동산 > 주거시설 > 아파트"
  },
  {
    "id": "14660702",
    "name": "전하아이파크2단지아파트",
    "address": "울산 동구 전하동 640-1",
    "road_address": "울산 동구 봉수로 270",
    "lat": 35.50980352926143,
    "lng": 129.42523049350248,
    "phone": "",
    "url": "http://place.map.kakao.com/14660702",
    "category": "부동산 > 주거시설 > 아파트"
  },
  {
    "id": "24066494",
    "name": "전하아이파크 상가동",
    "address": "울산 동구 전하동 641-1",
    "road_address": "울산 동구 봉수로 270",
    "lat": 35.509463955184366,
    "lng": 129.4257172716011,
    "phone": "",
    "url": "http://place.map.kakao.com/24066494",
    "category": "가정,생활 > 상가,아케이드 > 아파트상가"
  },
  {
    "id": "11009838",
    "name": "달천아이파크1단지아파트",
    "address": "울산 북구 달천동 1-5",
    "road_address": "울산 북구 달천로 50",
    "lat": 35.63524228039868,
    "lng": 129.3306027760125,
    "phone": "",
    "url": "http://place.map.kakao.com/11009838",
    "category": "부동산 > 주거시설 > 아파트"
  },
  {
    "id": "11336287",
    "name": "달천아이파크2단지아파트",
    "address": "울산 북구 달천동 886",
    "road_address": "울산 북구 달천로 103-19",
    "lat": 35.63374990250408,
    "lng": 129.32726152439528,
    "phone": "",
    "url": "http://place.map.kakao.com/11336287",
    "category": "부동산 > 주거시설 > 아파트"
  },
  {
    "id": "11010718",
    "name": "달천아이파크3단지아파트",
    "address": "울산 북구 달천동 887",
    "road_address": "울산 북구 달천로 103-20",
    "lat": 35.631724246071656,
    "lng": 129.32689374397626,
    "phone": "",
    "url": "http://place.map.kakao.com/11010718",
    "category": "부동산 > 주거시설 > 아파트"
  },
  {
    "id": "24066208",
    "name": "달천아이파크1차 상가동",
    "address": "울산 북구 달천동 1-5",
    "road_address": "울산 북구 달천로 50",
    "lat": 35.634645661993694,
    "lng": 129.32921240823921,
    "phone": "",
    "url": "http://place.map.kakao.com/24066208",
    "category": "가정,생활 > 상가,아케이드 > 아파트상가"
  },
  {
    "id": "24066729",
    "name": "달천아이파크2차 상가동",
    "address": "울산 북구 달천동 886",
    "road_address": "울산 북구 달천로 103-19",
    "lat": 35.6328814575273,
    "lng": 129.327439419007,
    "phone": "",
    "url": "http://place.map.kakao.com/24066729",
    "category": "가정,생활 > 상가,아케이드 > 아파트상가"
  },
  {
    "id": "26157290",
    "name": "새뜸마을5단지메이저시티아이파크아파트",
    "address": "세종특별자치시 새롬동 605",
    "road_address": "세종특별자치시 새롬중앙로 19",
    "lat": 36.48206768129937,
    "lng": 127.25163973891694,
    "phone": "",
    "url": "http://place.map.kakao.com/26157290",
    "category": "부동산 > 주거시설 > 아파트"
  },
  {
    "id": "14102607",
    "name": "춘천장학아이파크아파트",
    "address": "강원특별자치도 춘천시 동면 장학리 985",
    "road_address": "강원특별자치도 춘천시 동면 만천로 242",
    "lat": 37.89065949454591,
    "lng": 127.75577959555005,
    "phone": "",
    "url": "http://place.map.kakao.com/14102607",
    "category": "부동산 > 주거시설 > 아파트"
  },
  {
    "id": "184073123",
    "name": "춘천동면아이파크아파트 (예정)",
    "address": "강원특별자치도 춘천시 동면 장학리 883",
    "road_address": "",
    "lat": 37.8920838399346,
    "lng": 127.755501988602,
    "phone": "",
    "url": "http://place.map.kakao.com/184073123",
    "category": "부동산 > 주거시설 > 아파트"
  },
  {
    "id": "23803953",
    "name": "춘천장학아이파크 상가동",
    "address": "강원특별자치도 춘천시 동면 장학리 985-1",
    "road_address": "강원특별자치도 춘천시 동면 만천로 244",
    "lat": 37.8899742374043,
    "lng": 127.755585016569,
    "phone": "",
    "url": "http://place.map.kakao.com/23803953",
    "category": "가정,생활 > 상가,아케이드 > 아파트상가"
  },
  {
    "id": "11073829",
    "name": "원주반곡아이파크아파트",
    "address": "강원특별자치도 원주시 반곡동 1805",
    "road_address": "강원특별자치도 원주시 늘품로 199",
    "lat": 37.33479227582575,
    "lng": 127.96405582661077,
    "phone": "",
    "url": "http://place.map.kakao.com/11073829",
    "category": "부동산 > 주거시설 > 아파트"
  },
  {
    "id": "23788547",
    "name": "원주반곡아이파크 상가동",
    "address": "강원특별자치도 원주시 반곡동 1805",
    "road_address": "강원특별자치도 원주시 늘품로 201",
    "lat": 37.3330625408838,
    "lng": 127.964033720061,
    "phone": "",
    "url": "http://place.map.kakao.com/23788547",
    "category": "가정,생활 > 상가,아케이드 > 아파트상가"
  },
  {
    "id": "2097192295",
    "name": "강릉아이파크아파트",
    "address": "강원특별자치도 강릉시 송정동 1064",
    "road_address": "강원특별자치도 강릉시 경강로 2511",
    "lat": 37.77499634168533,
    "lng": 128.9354001637973,
    "phone": "",
    "url": "http://place.map.kakao.com/2097192295",
    "category": "부동산 > 주거시설 > 아파트"
  },
  {
    "id": "1411347302",
    "name": "강릉오션시티아이파크아파트 (2026년08월예정)",
    "address": "강원특별자치도 강릉시 견소동 244-2",
    "road_address": "",
    "lat": 37.7755921268262,
    "lng": 128.940089291608,
    "phone": "",
    "url": "http://place.map.kakao.com/1411347302",
    "category": "부동산 > 주거시설 > 아파트"
  },
  {
    "id": "808179032",
    "name": "동해아이파크아파트",
    "address": "강원특별자치도 동해시 이도동 751",
    "road_address": "강원특별자치도 동해시 배골길 32-4",
    "lat": 37.47685266205285,
    "lng": 129.1082454273326,
    "phone": "",
    "url": "http://place.map.kakao.com/808179032",
    "category": "부동산 > 주거시설 > 아파트"
  },
  {
    "id": "27409188",
    "name": "속초청호아이파크아파트",
    "address": "강원특별자치도 속초시 청호동 1356",
    "road_address": "강원특별자치도 속초시 청호로 22",
    "lat": 38.192585384785545,
    "lng": 128.59971963475837,
    "phone": "",
    "url": "http://place.map.kakao.com/27409188",
    "category": "부동산 > 주거시설 > 아파트"
  },
  {
    "id": "1564515970",
    "name": "속초2차아이파크아파트",
    "address": "강원특별자치도 속초시 조양동 1588",
    "road_address": "강원특별자치도 속초시 청대마을길 60",
    "lat": 38.18711842976655,
    "lng": 128.5698854107442,
    "phone": "",
    "url": "http://place.map.kakao.com/1564515970",
    "category": "부동산 > 주거시설 > 아파트"
  },
  {
    "id": "1452185293",
    "name": "속초청호아이파크아파트 상가1동",
    "address": "강원특별자치도 속초시 청호동 1356",
    "road_address": "강원특별자치도 속초시 청호로 22",
    "lat": 38.192145342349,
    "lng": 128.598826555144,
    "phone": "",
    "url": "http://place.map.kakao.com/1452185293",
    "category": "가정,생활 > 상가,아케이드 > 아파트상가"
  },
  {
    "id": "11288256",
    "name": "연봉아이파크아파트",
    "address": "강원특별자치도 홍천군 홍천읍 연봉리 497",
    "road_address": "강원특별자치도 홍천군 홍천읍 남산마을길 13-1",
    "lat": 37.68467973005844,
    "lng": 127.88490739878858,
    "phone": "",
    "url": "http://place.map.kakao.com/11288256",
    "category": "부동산 > 주거시설 > 아파트"
  },
  {
    "id": "26442949",
    "name": "연봉 아이파크 상가동",
    "address": "강원특별자치도 홍천군 홍천읍 연봉리 497-1",
    "road_address": "강원특별자치도 홍천군 홍천읍 남산마을길 15",
    "lat": 37.6841937382617,
    "lng": 127.883876802983,
    "phone": "",
    "url": "http://place.map.kakao.com/26442949",
    "category": "가정,생활 > 상가,아케이드 > 아파트상가"
  },
  {
    "id": "2002009773",
    "name": "가경아이파크5단지아파트",
    "address": "충북 청주시 흥덕구 강서동 583",
    "road_address": "충북 청주시 흥덕구 서부로 1123",
    "lat": 36.61095110118245,
    "lng": 127.4243860680013,
    "phone": "",
    "url": "http://place.map.kakao.com/2002009773",
    "category": "부동산 > 주거시설 > 아파트"
  },
  {
    "id": "11205652",
    "name": "봉명아이파크아파트",
    "address": "충북 청주시 흥덕구 봉명동 2752",
    "road_address": "충북 청주시 흥덕구 덕암로108번길 44",
    "lat": 36.65175171155516,
    "lng": 127.45980908297479,
    "phone": "",
    "url": "http://place.map.kakao.com/11205652",
    "category": "부동산 > 주거시설 > 아파트"
  },
  {
    "id": "397540808",
    "name": "청주가경아이파크1단지아파트",
    "address": "충북 청주시 흥덕구 가경동 2220",
    "road_address": "충북 청주시 흥덕구 서현로 66",
    "lat": 36.6174455267008,
    "lng": 127.43142507573211,
    "phone": "",
    "url": "http://place.map.kakao.com/397540808",
    "category": "부동산 > 주거시설 > 아파트"
  },
  {
    "id": "1091476905",
    "name": "청주가경아이파크3단지아파트",
    "address": "충북 청주시 흥덕구 가경동 2276",
    "road_address": "충북 청주시 흥덕구 서현로 62",
    "lat": 36.61560695790281,
    "lng": 127.42900030422273,
    "phone": "",
    "url": "http://place.map.kakao.com/1091476905",
    "category": "부동산 > 주거시설 > 아파트"
  },
  {
    "id": "547330211",
    "name": "청주가경아이파크2단지아파트",
    "address": "충북 청주시 흥덕구 가경동 2236",
    "road_address": "충북 청주시 흥덕구 서현로 68",
    "lat": 36.615974643950736,
    "lng": 127.43148954063294,
    "phone": "",
    "url": "http://place.map.kakao.com/547330211",
    "category": "부동산 > 주거시설 > 아파트"
  },
  {
    "id": "418167824",
    "name": "청주가경아이파크6단지아파트 (2027년01월예정)",
    "address": "충북 청주시 흥덕구 가경동 330",
    "road_address": "",
    "lat": 36.6153747271496,
    "lng": 127.436373366504,
    "phone": "",
    "url": "http://place.map.kakao.com/418167824",
    "category": "부동산 > 주거시설 > 아파트"
  },
  {
    "id": "1330751542",
    "name": "청주가경아이파크4단지아파트",
    "address": "충북 청주시 흥덕구 가경동 2251",
    "road_address": "충북 청주시 흥덕구 홍골로 82",
    "lat": 36.61474005944855,
    "lng": 127.43199574306271,
    "phone": "",
    "url": "http://place.map.kakao.com/1330751542",
    "category": "부동산 > 주거시설 > 아파트"
  },
  {
    "id": "12477236",
    "name": "연수아이파크아파트",
    "address": "충북 충주시 연수동 605",
    "road_address": "충북 충주시 연수로1길 12",
    "lat": 36.9926433832268,
    "lng": 127.9368179504355,
    "phone": "",
    "url": "http://place.map.kakao.com/12477236",
    "category": "부동산 > 주거시설 > 아파트"
  },
  {
    "id": "26450792",
    "name": "연수아이파크 상가동",
    "address": "충북 충주시 연수동 605",
    "road_address": "충북 충주시 연수로1길 10",
    "lat": 36.9921225472292,
    "lng": 127.935679285044,
    "phone": "",
    "url": "http://place.map.kakao.com/26450792",
    "category": "가정,생활 > 상가,아케이드 > 아파트상가"
  },
  {
    "id": "2066819348",
    "name": "음성아이파크아파트",
    "address": "충북 음성군 맹동면 본성리 360-25",
    "road_address": "충북 음성군 맹동면 원중로 1572",
    "lat": 36.9186898606054,
    "lng": 127.534388392879,
    "phone": "",
    "url": "http://place.map.kakao.com/2066819348",
    "category": "부동산 > 주거시설 > 아파트"
  },
  {
    "id": "1431892829",
    "name": "음성2차아이파크아파트 (예정)",
    "address": "충북 음성군 맹동면 본성리 401-22",
    "road_address": "",
    "lat": 36.9213519991593,
    "lng": 127.533511390541,
    "phone": "",
    "url": "http://place.map.kakao.com/1431892829",
    "category": "부동산 > 주거시설 > 아파트"
  },
  {
    "id": "8342737",
    "name": "불당아이파크아파트",
    "address": "충남 천안시 서북구 불당동 757",
    "road_address": "충남 천안시 서북구 불당17길 14",
    "lat": 36.80854097021694,
    "lng": 127.10928973202542,
    "phone": "",
    "url": "http://place.map.kakao.com/8342737",
    "category": "부동산 > 주거시설 > 아파트"
  },
  {
    "id": "1165572052",
    "name": "봉서산아이파크아파트",
    "address": "충남 천안시 동남구 봉명동 513",
    "road_address": "충남 천안시 동남구 봉명4길 29",
    "lat": 36.806257341873014,
    "lng": 127.13730847646596,
    "phone": "",
    "url": "http://place.map.kakao.com/1165572052",
    "category": "부동산 > 주거시설 > 아파트"
  },
  {
    "id": "11338677",
    "name": "용곡마을아이파크아파트",
    "address": "충남 천안시 동남구 용곡동 334",
    "road_address": "충남 천안시 동남구 용곡4길 20",
    "lat": 36.794719885291784,
    "lng": 127.14459092548951,
    "phone": "",
    "url": "http://place.map.kakao.com/11338677",
    "category": "부동산 > 주거시설 > 아파트"
  },
  {
    "id": "11314211",
    "name": "천안아이파크아파트",
    "address": "충남 천안시 동남구 구성동 388-72",
    "road_address": "충남 천안시 동남구 청수로 136-8",
    "lat": 36.79321943559597,
    "lng": 127.15947176944434,
    "phone": "",
    "url": "http://place.map.kakao.com/11314211",
    "category": "부동산 > 주거시설 > 아파트"
  },
  {
    "id": "12911268",
    "name": "용화아이파크아파트",
    "address": "충남 아산시 용화동 1394",
    "road_address": "충남 아산시 용화고길 46",
    "lat": 36.771677730299324,
    "lng": 127.00707460169909,
    "phone": "",
    "url": "http://place.map.kakao.com/12911268",
    "category": "부동산 > 주거시설 > 아파트"
  },
  {
    "id": "11359567",
    "name": "아산아이파크아파트",
    "address": "충남 아산시 풍기동 447",
    "road_address": "충남 아산시 남부로 321-8",
    "lat": 36.7729129279904,
    "lng": 127.01789065082106,
    "phone": "",
    "url": "http://place.map.kakao.com/11359567",
    "category": "부동산 > 주거시설 > 아파트"
  },
  {
    "id": "1828267855",
    "name": "서산센트럴아이파크아파트 (2026년10월예정)",
    "address": "충남 서산시 석림동 528-1",
    "road_address": "",
    "lat": 36.773954889548,
    "lng": 126.464554639382,
    "phone": "",
    "url": "http://place.map.kakao.com/1828267855",
    "category": "부동산 > 주거시설 > 아파트"
  },
  {
    "id": "2110994434",
    "name": "논산아이파크아파트",
    "address": "충남 논산시 대교동 344",
    "road_address": "충남 논산시 해월로259번길 23",
    "lat": 36.2101601728729,
    "lng": 127.091441798556,
    "phone": "",
    "url": "http://place.map.kakao.com/2110994434",
    "category": "부동산 > 주거시설 > 아파트"
  },
  {
    "id": "58804971",
    "name": "당진아이파크아파트",
    "address": "충남 당진시 읍내동 1687",
    "road_address": "충남 당진시 당진중앙2로 290",
    "lat": 36.896729939699235,
    "lng": 126.63973124812,
    "phone": "",
    "url": "http://place.map.kakao.com/58804971",
    "category": "부동산 > 주거시설 > 아파트"
  },
  {
    "id": "11126503",
    "name": "수송아이파크아파트",
    "address": "전북특별자치도 군산시 수송동 829-2",
    "road_address": "전북특별자치도 군산시 수송동로 91",
    "lat": 35.967889577323916,
    "lng": 126.7183292175814,
    "phone": "",
    "url": "http://place.map.kakao.com/11126503",
    "category": "부동산 > 주거시설 > 아파트"
  },
  {
    "id": "19148016",
    "name": "군산미장아이파크아파트",
    "address": "전북특별자치도 군산시 미장동 542",
    "road_address": "전북특별자치도 군산시 미장남로 10",
    "lat": 35.96136609704762,
    "lng": 126.72518104883554,
    "phone": "",
    "url": "http://place.map.kakao.com/19148016",
    "category": "부동산 > 주거시설 > 아파트"
  },
  {
    "id": "26644373",
    "name": "군산미장2차아이파크아파트",
    "address": "전북특별자치도 군산시 미장동 484",
    "road_address": "전북특별자치도 군산시 미장안길 45",
    "lat": 35.96769010025996,
    "lng": 126.72519461137699,
    "phone": "",
    "url": "http://place.map.kakao.com/26644373",
    "category": "부동산 > 주거시설 > 아파트"
  },
  {
    "id": "1422423057",
    "name": "군산호수공원아이파크아파트",
    "address": "전북특별자치도 군산시 지곡동 617",
    "road_address": "전북특별자치도 군산시 백토로 263",
    "lat": 35.95492401684416,
    "lng": 126.70540850054334,
    "phone": "",
    "url": "http://place.map.kakao.com/1422423057",
    "category": "부동산 > 주거시설 > 아파트"
  },
  {
    "id": "8615988",
    "name": "서부신시가지아이파크아파트",
    "address": "전북특별자치도 전주시 완산구 효자동3가 1524-1",
    "road_address": "전북특별자치도 전주시 완산구 홍산로 390",
    "lat": 35.82775016756659,
    "lng": 127.10759260644569,
    "phone": "",
    "url": "http://place.map.kakao.com/8615988",
    "category": "부동산 > 주거시설 > 아파트"
  },
  {
    "id": "11364527",
    "name": "송천아이파크5단지아파트",
    "address": "전북특별자치도 전주시 덕진구 송천동1가 870",
    "road_address": "전북특별자치도 전주시 덕진구 오송로 45",
    "lat": 35.86172349995448,
    "lng": 127.12991906113933,
    "phone": "",
    "url": "http://place.map.kakao.com/11364527",
    "category": "부동산 > 주거시설 > 아파트"
  },
  {
    "id": "482326938",
    "name": "서신아이파크e편한세상아파트",
    "address": "전북특별자치도 전주시 완산구 서신동 1044",
    "road_address": "전북특별자치도 전주시 완산구 전주천서로 445",
    "lat": 35.83048103851094,
    "lng": 127.1252154263467,
    "phone": "",
    "url": "http://place.map.kakao.com/482326938",
    "category": "부동산 > 주거시설 > 아파트"
  },
  {
    "id": "17793548",
    "name": "송천아이파크6단지아파트",
    "address": "전북특별자치도 전주시 덕진구 송천동1가 871",
    "road_address": "전북특별자치도 전주시 덕진구 오송로 47",
    "lat": 35.86207122322183,
    "lng": 127.13172209857403,
    "phone": "",
    "url": "http://place.map.kakao.com/17793548",
    "category": "부동산 > 주거시설 > 아파트"
  },
  {
    "id": "23956810",
    "name": "송천아이파크5단지아파트 상가동",
    "address": "전북특별자치도 전주시 덕진구 송천동1가 870",
    "road_address": "전북특별자치도 전주시 덕진구 오송로 45",
    "lat": 35.8614161469023,
    "lng": 127.130773286477,
    "phone": "",
    "url": "http://place.map.kakao.com/23956810",
    "category": "가정,생활 > 상가,아케이드 > 아파트상가"
  },